timestamps,AccelerationX,AccelerationY,AccelerationZ,AngularRateX,AngularRateY,AngularRateZ,ImuValid,AltitudeValid,Altitude,AltitudeAccuracy,Speed,SpeedAccuracy,SpeedValid,TimeValid,TimeConfirmed,Epoch,FenceValid,FenceCombined,Fence1,Fence2,Fence3,Fence4,PositionAccuracy,Latitude,Longitude,PositionValid,AttitudeValid,Roll,Pitch,Heading,RollAccuracy,PitchAccuracy,HeadingAccuracy,DistanceTrip,DistanceAccuracy,DistanceValid,DistanceTotal,FixType,Satellites
,m/s^2,m/s^2,m/s^2,deg/s,deg/s,deg/s,,,m,m,m/s,m/s,,,,sec,,,,,,,m,deg,deg,,,deg,deg,deg,deg,deg,deg,m,m,,km,,
2022-05-23 20:25:00.009600+01:00,0.25,0.625,10.125,0.25,0.0,-0.75,1,1,97.40000000000055,2,5.497,0.10400000000000001,1,1,1,1653333894.999,1,0,0,0,0,0,3,56.07131699999999,10.16094099999998,1,1,0.0,-3.0999999999999943,111.7,0.30000000000000004,0.30000000000000004,1.0,17,4,1,287,4,13
2022-05-23 20:25:00.111599872+01:00,0.375,0.375,9.875,1.0,-0.5,-0.75,1,1,97.40000000000055,2,5.497,0.10400000000000001,1,1,1,1653333894.999,1,0,0,0,0,0,3,56.07131699999999,10.16094099999998,1,1,0.0,-3.0999999999999943,111.7,0.30000000000000004,0.30000000000000004,1.0,17,4,1,287,4,13
2022-05-23 20:25:00.213600+01:00,0.25,0.5,9.875,0.75,-0.25,-0.75,1,1,97.40000000000055,2,5.497,0.10400000000000001,1,1,1,1653333894.999,1,0,0,0,0,0,3,56.07131699999999,10.16094099999998,1,1,0.0,-3.0999999999999943,111.7,0.30000000000000004,0.30000000000000004,1.0,17,4,1,287,4,13
2022-05-23 20:25:00.314650112+01:00,0.25,0.625,10.25,1.25,0.0,-0.75,1,1,97.40000000000055,2,5.497,0.10400000000000001,1,1,1,1653333894.999,1,0,0,0,0,0,3,56.07131699999999,10.16094099999998,1,1,0.0,-3.0999999999999943,111.7,0.30000000000000004,0.30000000000000004,1.0,17,4,1,287,4,13
2022-05-23 20:25:00.422650112+01:00,0.25,0.625,10.0,-0.25,-0.25,-1.0,1,1,97.40000000000055,2,5.497,0.10400000000000001,1,1,1,1653333894.999,1,0,0,0,0,0,3,56.07131699999999,10.16094099999998,1,1,0.0,-3.0999999999999943,111.7,0.30000000000000004,0.30000000000000004,1.0,17,4,1,287,4,13
2022-05-23 20:25:00.525649920+01:00,0.25,0.375,9.75,0.75,-0.75,-0.75,1,1,97.40000000000055,2,5.497,0.10400000000000001,1,1,1,1653333894.999,1,0,0,0,0,0,3,56.07131699999999,10.16094099999998,1,1,0.0,-3.0999999999999943,111.7,0.30000000000000004,0.30000000000000004,1.0,17,4,1,287,4,13
2022-05-23 20:25:00.621649920+01:00,0.25,0.5,10.0,0.25,-0.75,-0.25,1,1,97.40000000000055,2,5.497,0.10400000000000001,1,1,1,1653333894.999,1,0,0,0,0,0,3,56.07131699999999,10.16094099999998,1,1,0.0,-3.0999999999999943,111.7,0.30000000000000004,0.30000000000000004,1.0,17,4,1,287,4,13
2022-05-23 20:25:00.659350016+01:00,0.2028749999999978,0.6413750000000066,10.141375000000007,0.43850000000000877,-0.6557499999999956,-0.25,1,1,97.40000000000055,2,5.497,0.10400000000000001,1,1,1,1653333894.999,1,0,0,0,0,0,3,56.07131699999999,10.16094099999998,1,1,0.0,-3.0999999999999943,111.7,0.30000000000000004,0.30000000000000004,1.0,17,4,1,287,4,13
2022-05-23 20:25:00.659800064+01:00,0.20231250000000134,0.6430624999999961,10.143062499999996,0.4407499999999947,-0.6546250000000027,-0.25,1,1,97.40000000000055,2,5.497,0.10400000000000001,1,1,1,1653333894.999,1,0,0,0,0,0,3,56.07131699999999,10.16094099999998,1,1,0.0,-3.0999999999999943,111.7,0.30000000000000004,0.30000000000000004,1.0,17,4,1,287,4,13
2022-05-23 20:25:00.660249856+01:00,0.2017500000000004,0.6447499999999988,10.144749999999998,0.4429999999999984,-0.6535000000000009,-0.25,1,1,97.40000000000055,2,5.497,0.10400000000000001,1,1,1,1653333894.9994626,1,0,0,0,0,0,3,56.07131699999999,10.16094099999998,1,1,0.0,-3.0999999999999943,111.7,0.30000000000000004,0.30000000000000004,1.0,17,4,1,287,4,13
2022-05-23 20:25:00.660600064+01:00,0.20131249999999917,0.6460625000000024,10.146062500000003,0.44475000000000325,-0.6526249999999983,-0.25,1,1,97.40000000000055,2,5.497,0.10400000000000001,1,1,1,1653333894.9998224,1,0,0,0,0,0,3,56.071316993884885,10.16094103201437,1,1,0.0,-3.0999999999999943,111.7,0.30000000000000004,0.30000000000000004,1.0,17,4,1,287,4,13
2022-05-23 20:25:00.661050112+01:00,0.20074999999999826,0.6477500000000052,10.147750000000006,0.44700000000000695,-0.6514999999999965,-0.25,1,1,97.39981501464521,2,5.497,0.10400000000000001,1,1,1,1653333895.0002847,1,0,0,0,0,0,3,56.0713169860226,10.160941073175724,1,1,0.0,-3.0999999999999943,111.7,0.30000000000000004,0.30000000000000004,1.0,17,4,1,287,4,13
2022-05-23 20:25:00.661600+01:00,0.20006249999999764,0.6498125000000071,10.149812500000007,0.4497500000000094,-0.6501249999999953,-0.25,1,1,97.39958892143315,2,5.497,0.10400000000000001,1,1,1,1653333895.00085,1,0,0,0,0,0,3,56.07131697641315,10.160941123484049,1,1,-5.652330301633656e-05,-3.100113046606027,111.69983043009096,0.30000000000000004,0.30000000000000004,0.9999434766969837,17,4,1,287,4,13
2022-05-23 20:25:00.661950208+01:00,0.19962500000000086,0.6511249999999974,10.151124999999997,0.45149999999999657,-0.6492500000000018,-0.25,1,1,97.39944504393456,2,5.497,0.10400000000000001,1,1,1,1653333895.0012097,1,0,0,0,0,0,3,56.07131697029804,10.160941155498438,1,1,-9.249267766279747e-05,-3.10018498535532,111.69972252196702,0.30000000000000004,0.30000000000000004,0.9999075073223372,17,4,1,287,4,13
2022-05-23 20:25:00.662249984+01:00,0.19925000000000173,0.6522499999999948,10.152249999999995,0.4529999999999931,-0.6485000000000034,-0.25,1,1,97.39932172036436,2,5.497237397872667,0.10400123323570218,1,1,1,1653333895.001518,1,0,0,0,0,0,3,56.07131696505652,10.160941182939343,1,1,-0.0001233235702170633,-3.1002466471404286,111.69963002928935,0.30000000000000004,0.30000000000000004,0.999876676429783,17,4,1,287,4,13
2022-05-23 20:25:00.721649920+01:00,0.125,0.875,10.375,0.75,-0.5,-0.25,1,1,97.37490365346127,2,5.5442421766610135,0.10424541390473255,1,1,1,1653333895.0625663,1,0,0,0,0,0,3,56.07131592723535,10.160946616238418,1,1,-0.006227840295975935,-3.112455680591947,111.68131647911207,0.30000000000000004,0.30000000000000004,0.9937721597040237,17,4,1,287,4,13
2022-05-23 20:25:00.823649792+01:00,0.25,0.625,10.0,0.75,-0.25,-0.5,1,1,97.33297363958732,2,5.624957453368274,0.10466471404347157,1,1,1,1653333895.1673968,1,0,0,0,0,0,3,56.07131414511818,10.16095594614592,1,1,-0.016710343764450776,-3.1334206875288984,111.64986896870664,0.30000000000000004,0.30000000000000004,0.9832896562355483,17,4,1,287,4,13
2022-05-23 20:25:00.925649920+01:00,0.125,0.5,10.125,1.25,0.25,-0.75,1,1,97.29104362571336,2,5.705672730075535,0.10508401418221058,1,1,1,1653333895.2722273,1,0,0,0,0,0,3,56.07131236300102,10.160965276053423,1,1,-0.02719284723292562,-3.1543856944658493,111.61842145830123,0.30000000000000004,0.30000000000000004,0.9728071527670729,17,4,1,287,4,13
2022-05-23 20:25:01.027699968+01:00,0.125,0.75,10.375,0.25,0.25,-0.5,1,1,97.24909305791104,2,5.786427573094908,0.10550351986023329,1,1,1,1653333895.377109,1,0,0,0,0,0,3,56.07131058001026,10.16097461053441,1,1,-0.03768048918349302,-3.1753609783669856,111.58695853244951,0.30000000000000004,0.30000000000000004,0.9623195108165048,17,4,1,287,4,13
2022-05-23 20:25:01.127699968+01:00,0.25,0.625,9.875,-0.5,0.25,-0.75,1,1,97.20798520117185,2,5.865560197317714,0.10591459842762449,1,1,1,1653333895.479884,1,0,0,0,0,0,3,56.07130883283657,10.160983757502551,1,1,-0.04795745336827239,-3.195914906736546,111.55612763989518,0.30000000000000004,0.30000000000000004,0.9520425466317249,17,4,1,287,4,13
2022-05-23 20:25:01.229700096+01:00,0.25,0.375,9.75,-1.0,0.25,-0.5,1,1,97.1660551872979,2,5.946275474024971,0.1063338985663635,1,1,1,1653333895.5847144,1,0,0,0,0,0,3,56.07130705071941,10.160993087410054,1,1,-0.05843995683674687,-3.2168799136734965,111.52468012948975,0.30000000000000004,0.30000000000000004,0.9415600431632498,17,4,1,287,4,13
2022-05-23 20:25:01.330700032+01:00,0.25,0.625,9.75,1.0,-0.25,-0.25,1,1,97.12453625199133,2,6.026199424490003,0.10674908791942858,1,1,1,1653333895.688517,1,0,0,0,0,0,3,56.07130528607398,10.161002325847875,1,1,-0.06881969066337379,-3.2376393813267517,111.49354092800988,0.30000000000000004,0.30000000000000004,0.9311803093366223,17,4,1,287,4,13
2022-05-23 20:25:01.436749824+01:00,0.0,0.5,10.75,1.0,-1.75,-0.5,1,1,97.08094136991943,2,6.11011957247829,0.10718503674014696,1,1,1,1653333895.79751,1,0,0,0,0,0,3,56.071303433196285,10.161012026207587,1,1,-0.0797184111813325,-3.2594368223626704,111.46084476645599,0.30000000000000004,0.30000000000000004,0.920281588818663,17,4,1,287,4,13
2022-05-23 20:25:01.538749952+01:00,0.375,0.75,9.375,0.0,0.0,-0.25,1,1,97.03901135604548,2,6.190834849185547,0.10760433687888596,1,1,1,1653333895.9023402,1,0,0,0,0,0,3,56.07130165107912,10.16102135611509,1,1,-0.09020091464980698,-3.280401829299621,111.42939725605056,0.30000000000000004,0.30000000000000004,0.9097990853501879,17,4,1,287,4,13
2022-05-23 20:25:01.632400128+01:00,0.03069852941176382,0.6352328431372546,10.063602941176473,1.147671568627454,-1.147671568627454,-0.7090686274509815,1,1,97.00051384820924,2,6.264942551770207,0.10798931195724783,1,1,1,1653333895.998589,1,0,0,0,0,0,3,56.071300014850955,10.161029922250753,1,1,-0.0998252916088531,-3.2996505832177148,111.40052412517343,0.30000000000000004,0.30000000000000004,0.9001747083911412,17,4,1,287,4,14
2022-05-23 20:25:01.632800+01:00,0.029227941176473204,0.6347426470588244,10.066544117647053,1.152573529411756,-1.152573529411756,-0.7110294117647024,1,1,97.00034941678229,2,6.2652590822670975,0.10799095627151739,1,1,1,1653333895.999,1,0,0,0,0,0,3,56.07130000786226,10.161029958838625,1,1,-0.09986639946559213,-3.299732798931193,111.40040080160321,0.30000000000000004,0.30000000000000004,0.9001336005344022,17,4,1,287,4,14
2022-05-23 20:25:01.633250048+01:00,0.02757352941176472,0.6341911764705882,10.069852941176471,1.1580882352941175,-1.1580882352941175,-0.713235294117647,1,1,97.00016443142695,2,6.2656151790761,0.10799280612507065,1,1,1,1653333895.9994316,1,0,0,0,0,0,3,56.07129999999998,10.161029999999982,1,1,-0.09991264580442372,-3.299825291608856,111.40026206258672,0.30000000000000004,0.30000000000000004,0.9000873541955706,17,4,1,287,4,14
2022-05-23 20:25:01.633650176+01:00,0.026102941176474048,0.633700980392158,10.072794117647051,1.1629901960784197,-1.1629901960784197,-0.7151960784313678,1,1,97.0,2,6.265931709572991,0.10799445043934021,1,1,1,1653333895.9998152,1,0,0,0,0,0,3,56.07129999271261,10.161030039121663,1,1,-0.09995375366116273,-3.299907507322334,111.4001387390165,0.30000000000000004,0.30000000000000004,0.9000462463388316,17,4,1,287,4,14
2022-05-23 20:25:01.634099968+01:00,0.024448529411765563,0.6331495098039219,10.076102941176469,1.1685049019607814,-1.1685049019607814,-0.7174019607843125,1,1,96.99987054705853,2,6.266287806381994,0.10799630029289348,1,1,1,1653333896.0002465,1,0,0,0,0,0,3,56.07129998451431,10.161030083133552,1,1,-0.09999999999999432,-3.299999999999997,111.4,0.30000000000000004,0.30000000000000004,0.9,17,4,1,287,4,14
2022-05-23 20:25:01.634599936+01:00,0.022610294117665353,0.6325367647058885,10.079779411764669,1.1746323529411156,-1.1746323529411156,-0.7198529411764462,1,1,96.99972671045693,2,6.266683469503104,0.10799835568573041,1,1,1,1653333896.000726,1,0,0,0,0,0,3,56.0712999754051,10.161030132035652,1,1,-0.09985616339837511,-3.2999520544661243,111.39990410893226,0.30000000000000004,0.30000000000000004,0.8999520544661269,22,4,1,287,4,14
2022-05-23 20:25:01.635000064+01:00,0.02113970588234859,0.6320465686274496,10.082720588235302,1.1795343137255048,-1.1795343137255048,-0.7218137254902018,1,1,96.99961164117562,2,6.267,0.108,1,1,1,1653333896.0011096,1,0,0,0,0,0,3,56.07129996811773,10.161030171157332,1,1,-0.09974109411707688,-3.2999136980390245,111.39982739607807,0.30000000000000004,0.30000000000000004,0.8999136980390275,22,4,1,287,4,14
2022-05-23 20:25:01.635250176+01:00,0.020220588235311532,0.6317401960784372,10.084558823529377,1.1825980392156281,-1.1825980392156281,-0.7230392156862513,1,1,96.99953972287481,2,6.267162775087497,0.10800023972766937,1,1,1,1653333896.0013492,1,0,0,0,0,0,3,56.07129996356312,10.161030195608381,1,1,-0.0996691758162683,-3.2998897252720885,111.39977945054419,0.30000000000000004,0.30000000000000004,0.8998897252720913,22,4,1,287,4,14
2022-05-23 20:25:01.640749824+01:00,0.0,0.625,10.125,1.25,-1.25,-0.75,1,1,96.99795752025699,2,6.270743827012513,0.10800551373639546,1,1,1,1653333896.006623,1,0,0,0,0,0,3,56.07129986336176,10.161030733531481,1,1,-0.09808697319844067,-3.299362324399479,111.39872464879898,0.30000000000000004,0.30000000000000004,0.8993623243994822,22,4,1,287,4,14
2022-05-23 20:25:01.737750016+01:00,0.125,0.625,9.875,-0.5,-1.75,-1.0,1,1,96.97005321954268,2,6.333900560962747,0.10809852807211008,1,1,1,1653333896.099633,1,0,0,0,0,0,3,56.07129809617411,10.161040220538863,1,1,-0.07018267248405081,-3.2900608908280153,111.38012178165604,0.30000000000000004,0.30000000000000004,0.8900608908280192,22,4,1,287,4,14
2022-05-23 20:25:01.839750144+01:00,0.25,0.5,10.375,0.75,0.5,-0.5,1,1,96.94071055281215,2,6.40031279666299,0.10819633696121206,1,1,1,1653333896.197437,1,0,0,0,0,0,3,56.071296237894316,10.161050196567247,1,1,-0.040840005753456636,-3.280280001917817,111.36056000383564,0.30000000000000004,0.30000000000000004,0.8802800019178215,22,4,1,287,4,14
2022-05-23 20:25:01.938749952+01:00,0.25,1.0,10.875,-1.25,-2.0,-0.75,1,1,96.91223090569135,2,6.464771731313226,0.10829126911828163,1,1,1,1653333896.2923648,1,0,0,0,0,0,3,56.07129443426981,10.161059879183028,1,1,-0.01236035863258586,-3.2707867862108597,111.34157357242174,0.30000000000000004,0.30000000000000004,0.870786786210865,22,4,1,287,4,14
2022-05-23 20:25:02.043800064+01:00,0.125,0.125,10.125,1.25,0.5,-0.75,1,1,96.88201083569093,2,6.533169823080981,0.1083920026849499,1,1,1,1653333896.3930933,1,0,0,0,0,0,3,56.0712925204238,10.16107015351422,1,1,0.01785971136789631,-3.260713429544032,111.32142685908808,0.30000000000000004,0.30000000000000004,0.860713429544038,22,4,1,287,4,14
2022-05-23 20:25:02.143800064+01:00,0.0,0.625,10.25,1.5,0.5,-0.5,1,1,96.8532435153669,2,6.598279858081217,0.10848789375269693,1,1,1,1653333896.48898,1,0,0,0,0,0,3,56.07129069858087,10.161079933934204,1,1,0.04662703169200755,-3.2511243227693276,111.30224864553867,0.30000000000000004,0.30000000000000004,0.8511243227693346,22,4,1,287,4,14
2022-05-23 20:25:02.246799872+01:00,-0.125,0.75,9.75,1.0,-0.25,-0.75,1,1,96.82361317543314,2,6.665343194131466,0.10858666155247639,1,1,1,1653333896.587743,1,0,0,0,0,0,3,56.07128882208264,10.161090007766786,1,1,0.07625737162584423,-3.2412475427913816,111.28249508558278,0.30000000000000004,0.30000000000000004,0.8412475427913895,22,4,1,287,4,14
2022-05-23 20:25:02.348800+01:00,0.125,0.5,9.625,0.0,-1.25,-0.75,1,1,96.79427050870261,2,6.731755429831713,0.10868447044157836,1,1,1,1653333896.685547,1,0,0,0,0,0,3,56.07128696380285,10.161099983795168,1,1,0.10560003835644047,-3.2314666538811823,111.26293330776238,0.30000000000000004,0.30000000000000004,0.831466653881191,22,4,1,287,4,14
2022-05-23 20:25:02.455800064+01:00,0.0,0.75,10.25,0.0,-1.0,-0.5,1,1,96.7634894759559,2,6.801423167281969,0.1087870738840677,1,1,1,1653333896.7881458,1,0,0,0,0,0,3,56.071285014430906,10.16111044884455,1,1,0.13638107110324102,-3.2212063096322483,111.24241261926451,0.30000000000000004,0.30000000000000004,0.8212063096322579,22,4,1,287,4,14
2022-05-23 20:25:02.554850048+01:00,0.0,0.625,10.5,-0.25,-1.25,-1.5,1,1,96.73499544517493,2,6.865914656949706,0.10888205398667114,1,1,1,1653333896.8831213,1,0,0,0,0,0,3,56.07128320989548,10.161120136350542,1,1,0.16487510188427434,-3.2117082993719035,111.22341659874382,0.30000000000000004,0.30000000000000004,0.8117082993719138,22,4,1,287,4,14
2022-05-23 20:25:02.659800064+01:00,0.0,0.625,10.25,0.5,-0.25,-0.75,1,1,96.70480414249484,2,6.93424763868246,0.10898269166227166,1,1,1,1653333896.9837542,1,0,0,0,0,0,3,56.071281297871316,10.161130400901314,1,1,0.19506640456443142,-3.2016445318118505,111.20328906362373,0.30000000000000004,0.30000000000000004,0.8016445318118619,22,4,1,287,4,14
2022-05-23 20:25:02.675250176+01:00,0.041509940891997894,0.625,10.270754970446,0.0018807092960252958,-0.6650994089199789,-0.7915099408919979,1,1,96.70035959150478,2,6.9443071390899975,0.10899750683223858,1,1,1,1653333896.9985685,1,0,0,0,0,0,3,56.07128101639658,10.1611319119762,1,1,0.19951095555450726,-3.2001630148151587,111.20032602963035,0.30000000000000004,0.30000000000000004,0.8001630148151699,22,4,1,287,4,14
2022-05-23 20:25:02.675699968+01:00,0.042718968296601954,0.625,10.2713594841483,-0.012627619559223424,-0.6771896829660196,-0.7927189682966019,1,1,96.70023013856333,2,6.944600134247494,0.10899793834204344,1,1,1,1653333896.999,1,0,0,0,0,0,3,56.07128100819829,10.161131955988091,1,1,0.19964040849596393,-3.200119863834673,111.20023972766937,0.30000000000000004,0.30000000000000004,0.8001198638346844,22,4,1,287,4,14
2022-05-23 20:25:02.676150016+01:00,0.0439279957012251,0.625,10.271963997850612,-0.02713594841470124,-0.689279957012251,-0.7939279957012251,1,1,96.70010068562186,2,6.944893129404996,0.1089983698518483,1,1,1,1653333896.9994571,1,0,0,0,0,0,3,56.071281,10.16113199999998,1,1,0.19976986143742265,-3.200076712854187,111.2001534257084,0.30000000000000004,0.30000000000000004,0.8000767128541981,22,4,1,287,4,14
2022-05-23 20:25:02.676499968+01:00,0.04486835034927594,0.625,10.272434175174638,-0.038420204191311313,-0.6986835034927594,-0.7948683503492759,1,1,96.70000000000073,2,6.9451210145274995,0.10899870547058542,1,1,1,1653333896.9998124,1,0,0,0,0,0,3,56.071280992536934,10.161132038736843,1,1,0.19987054705855833,-3.2000431509804748,111.20008630196098,0.30000000000000004,0.30000000000000004,0.8000431509804863,22,4,1,287,4,14
2022-05-23 20:25:02.676950016+01:00,0.04607737775389909,0.625,10.27303868887695,-0.05292853304678913,-0.7107737775389908,-0.7960773777538991,1,1,96.69981722177164,2,6.945414009685002,0.10899913698039028,1,1,1,1653333897.0002694,1,0,0,0,0,0,3,56.071280982941566,10.161132088541383,1,1,0.20000000000001705,-3.1999999999999886,111.2,0.30000000000000004,0.30000000000000004,0.8,22,4,1,287,4,14
2022-05-23 20:25:02.677449984+01:00,0.04742074153679886,0.625,10.273710370768399,-0.06904889844158624,-0.7242074153679885,-0.7974207415367989,1,1,96.69961413485045,2,6.94573955986,0.10899961643572902,1,1,1,1653333897.000777,1,0,0,0,0,0,3,56.07128097228004,10.16113214387976,1,1,0.19928923186274397,-3.199898461694664,111.19974615423669,0.30000000000000004,0.30000000000000004,0.7999492308473377,28,4,1,287,4,14
2022-05-23 20:25:02.677850112+01:00,0.04849543256312631,0.625,10.274247716281563,-0.0819451907575156,-0.734954325631263,-0.7984954325631263,1,1,96.69945166531349,2,6.946,0.109,1,1,1,1653333897.0011833,1,0,0,0,0,0,3,56.07128096375082,10.16113218815046,1,1,0.19872061735292146,-3.1998172310504036,111.19954307762605,0.30000000000000004,0.30000000000000004,0.7999086155252075,28,4,1,287,4,14
2022-05-23 20:25:02.678149888+01:00,0.049301450832881434,0.625,10.274650725416441,-0.09161740999457724,-0.7430145083288143,-0.7993014508328814,1,1,96.69932981316076,2,6.946180036555647,0.10900030463038181,1,1,1,1653333897.001488,1,0,0,0,0,0,3,56.07128095735391,10.161132221353487,1,1,0.19829415647054952,-3.1997563080672076,111.19939077016805,0.30000000000000004,0.30000000000000004,0.7998781540336095,28,4,1,287,4,14
2022-05-23 20:25:02.752850176+01:00,0.25,0.625,10.375,-2.5,-2.75,-1.0,1,1,96.6689886271331,2,6.991009138911456,0.10907615759545086,1,1,1,1653333897.0773408,1,0,0,0,0,0,3,56.07127936452252,10.161140488906922,1,1,0.09210539676094806,-3.1845864852515513,111.1614662131289,0.30000000000000004,0.30000000000000004,0.7922932426257808,28,4,1,287,4,14
2022-05-23 20:25:02.856849920+01:00,-0.25,0.875,9.25,-3.5,-6.25,0.5,1,1,96.62674654752297,2,7.053421811535338,0.10918176279447604,1,1,1,1653333897.182946,1,0,0,0,0,0,3,56.07127714692593,10.161151999289213,1,1,-0.0557343757932483,-3.16346651774381,111.10866629435955,0.30000000000000004,0.30000000000000004,0.7817332588719097,28,4,1,287,4,14
2022-05-23 20:25:02.956850176+01:00,0.0,0.625,8.0,5.25,-4.75,-1.0,1,1,96.58612916328246,2,7.1134339967506115,0.10928330625507718,1,1,1,1653333897.2844894,1,0,0,0,0,0,3,56.07127501462151,10.161163066964496,1,1,-0.19788800324920947,-3.143158856678674,111.05789714169671,0.30000000000000004,0.30000000000000004,0.7715794283393411,28,4,1,287,4,14
2022-05-23 20:25:03.059900160+01:00,0.0,0.25,10.75,-0.75,-1.0,-0.5,1,1,96.54427294882261,2,7.175276553614947,0.10938794679122664,1,1,1,1653333897.38913,1,0,0,0,0,0,3,56.071272817281816,10.161174472203873,1,1,-0.34437731634256985,-3.1222318119510524,111.00557952987765,0.30000000000000004,0.30000000000000004,0.7611159059755297,28,4,1,287,4,14
2022-05-23 20:25:03.160900096+01:00,0.0,0.5,10.125,0.75,0.5,-0.5,1,1,96.5032493907397,2,7.235888860682375,0.1094905056864338,1,1,1,1653333897.491689,1,0,0,0,0,0,3,56.07127066365436,10.161185650555908,1,1,-0.4879524800730973,-3.101721074275264,110.95430268568818,0.30000000000000004,0.30000000000000004,0.7508605371376349,28,4,1,287,4,14
2022-05-23 20:25:03.260900096+01:00,0.0,0.375,9.625,0.5,-0.75,-0.75,1,1,96.46263200649919,2,7.295901045897644,0.10959204914703494,1,1,1,1653333897.5932324,1,0,0,0,0,0,3,56.07126853134995,10.161196718231189,1,1,-0.6301061075290484,-3.081413413210129,110.90353353302534,0.30000000000000004,0.30000000000000004,0.7407067066050671,28,4,1,287,4,14
2022-05-23 20:25:03.364900096+01:00,0.0,0.5,10.25,0.0,-2.0,-0.75,1,1,96.42038992688906,2,7.358313718521527,0.10969765434606012,1,1,1,1653333897.6988375,1,0,0,0,0,0,3,56.07126631375336,10.161208228613482,1,1,-0.7779458800832448,-3.0602934457023885,110.85073361425599,0.30000000000000004,0.30000000000000004,0.730146722851196,28,4,1,287,4,14
2022-05-23 20:25:03.470899968+01:00,0.0,0.375,10.0,0.75,-0.5,-0.75,1,1,96.37733549959411,2,7.421926634849716,0.10980529041429732,1,1,1,1653333897.8064737,1,0,0,0,0,0,3,56.07126405351068,10.16121996034928,1,1,-0.9286287251865639,-3.0387673249733442,110.79691831243336,0.30000000000000004,0.30000000000000004,0.7193836624866732,28,4,1,287,4,14
2022-05-23 20:25:03.570899968+01:00,-0.125,0.25,9.875,1.75,-0.25,-0.75,1,1,96.3367181153536,2,7.48193882006499,0.10990683387489845,1,1,1,1653333897.9080172,1,0,0,0,0,0,3,56.07126192120627,10.161231028024561,1,1,-1.070782352642525,-3.018459663908208,110.74614915977052,0.30000000000000004,0.30000000000000004,0.7092298319541046,28,4,1,287,4,14
2022-05-23 20:25:03.660100096+01:00,-0.022753324163233182,0.35224667583676683,10.283986703347066,0.9320265933058655,-0.6589867033470673,-0.75,1,1,96.30048740861108,2,7.5354696892770106,0.10999741064175467,1,1,1,1653333897.9985938,1,0,0,0,0,0,3,56.07126001919074,10.161240900390911,1,1,-1.1975833883332379,-3.000345230238107,110.70086307559527,0.30000000000000004,0.30000000000000004,0.7001726151190537,28,4,1,287,4,14
2022-05-23 20:25:03.660499968+01:00,-0.022294818890423618,0.3527051811095764,10.285820724438306,0.9283585511233889,-0.6608207244383055,-0.75,1,1,96.3003249390741,2,7.5357097380178715,0.10999781681559707,1,1,1,1653333897.999,1,0,0,0,0,0,3,56.07126001066152,10.161240944661614,1,1,-1.1981520028430606,-3.0002639995938467,110.70065999898462,0.30000000000000004,0.30000000000000004,0.7001319997969235,28,4,1,287,4,14
2022-05-23 20:25:03.660999936+01:00,-0.021721687299407613,0.3532783127005924,10.28811325080237,0.9237734983952609,-0.6631132508023696,-0.75,1,1,96.3001218521529,2,7.536009798943949,0.10999832453290008,1,1,1,1653333897.9994867,1,0,0,0,0,0,3,56.071259999999995,10.16124099999999,1,1,-1.1988627709803437,-3.0001624612885207,110.70040615322131,0.30000000000000004,0.30000000000000004,0.7000812306442604,28,4,1,287,4,14
2022-05-23 20:25:03.661299968+01:00,-0.02137780834479637,0.35362219165520364,10.289488766620815,0.921022466758371,-0.6644887666208146,-0.75,1,1,96.30000000000018,2,7.536189835499597,0.10999862916328189,1,1,1,1653333897.9997785,1,0,0,0,0,0,3,56.071259993285324,10.161241034741135,1,1,-1.1992892318627155,-3.0001015383053247,110.70025384576331,0.30000000000000004,0.30000000000000004,0.7000507691526624,28,4,1,287,4,14
2022-05-23 20:25:03.661799936+01:00,-0.020804676753788498,0.3541953232462115,10.291781292984846,0.916437414030308,-0.666781292984846,-0.75,1,1,96.29980538120974,2,7.53648989642567,0.1099991368805849,1,1,1,1653333898.0002651,1,0,0,0,0,0,3,56.0712599820942,10.161241092643042,1,1,-1.1999999999999886,-3.0,110.7,0.30000000000000004,0.30000000000000004,0.7000000000000001,28,4,1,287,4,14
2022-05-23 20:25:03.662300160+01:00,-0.02023154516277248,0.3547684548372275,10.29407381934891,0.9118523613021798,-0.6690738193489101,-0.75,1,1,96.29961076241929,2,7.536789957351748,0.1099996445978879,1,1,1,1653333898.0007517,1,0,0,0,0,0,3,56.07125997090307,10.16124115054495,1,1,-1.1997080576099521,-3.0001946282600245,110.69985402880498,0.30000000000000004,0.30000000000000004,0.7000000000000001,35,4,1,287,4,14
2022-05-23 20:25:03.662650112+01:00,-0.019830353049066163,0.35516964695093384,10.295678587803735,0.9086428243925293,-0.6706785878037353,-0.75,1,1,96.29947452926598,2,7.537,0.11,1,1,1,1653333898.0010922,1,0,0,0,0,0,3,56.07125996306928,10.161241191076284,1,1,-1.1995036979369291,-3.0003308680420395,110.69975184896848,0.30000000000000004,0.30000000000000004,0.7000000000000001,35,4,1,287,4,14
2022-05-23 20:25:03.662950144+01:00,-0.01948647409445492,0.3555135259055451,10.29705410362218,0.9058917927556394,-0.6720541036221803,-0.75,1,1,96.29935775799171,2,7.537153554225662,0.11000175156911401,1,1,1,1653333898.0013843,1,0,0,0,0,0,3,56.07125995635461,10.16124122581743,1,1,-1.1993285325029066,-3.000447644998055,110.69966426625146,0.30000000000000004,0.30000000000000004,0.7000000000000001,35,4,1,287,4,14
2022-05-23 20:25:03.679950080+01:00,0.0,0.375,10.375,0.75,-0.75,-0.75,1,1,96.29274071911662,2,7.545854960346424,0.11010100715224058,1,1,1,1653333898.0179267,1,0,0,0,0,0,3,56.07125957585636,10.161243194482278,1,1,-1.1894024912417138,-3.0070650058388497,110.69470124562086,0.30000000000000004,0.30000000000000004,0.7000000000000001,35,4,1,287,4,14
2022-05-23 20:25:03.769949952+01:00,0.0,0.5,10.25,1.5,0.75,-0.75,1,1,96.2577093368367,2,7.591921228044569,0.11062647788643995,1,1,1,1653333898.1055052,1,0,0,0,0,0,3,56.07125756145387,10.161253616825604,1,1,-1.1368528610354105,-3.0420980926430516,110.66842643051771,0.30000000000000004,0.30000000000000004,0.7000000000000001,35,4,1,287,4,14
2022-05-23 20:25:03.871949824+01:00,0.0,0.25,9.875,2.0,1.75,-0.75,1,1,96.2180071035861,2,7.644129664769136,0.11122201138519927,1,1,1,1653333898.2047608,1,0,0,0,0,0,3,56.07125527846438,10.161265428814707,1,1,-1.077296613468262,-3.081802257687817,110.63864830673414,0.30000000000000004,0.30000000000000004,0.7000000000000001,35,4,1,287,4,14
2022-05-23 20:25:03.972950016+01:00,-0.125,0.25,9.125,-0.25,2.75,-0.5,1,1,96.17869410791641,2,7.6958262540748335,0.11181170632024524,1,1,1,1653333898.3030434,1,0,0,0,0,0,3,56.07125301785714,10.161277124999993,1,1,-1.0183242506811863,-3.1211171662125334,110.6091621253406,0.30000000000000004,0.30000000000000004,0.7000000000000001,35,4,1,287,4,14
2022-05-23 20:25:04.076950016+01:00,-0.125,1.125,9.875,3.25,-0.5,-0.5,1,1,96.13821339950405,2,7.749058385637135,0.1124189169464312,1,1,1,1653333898.4042451,1,0,0,0,0,0,3,56.07125069010315,10.161289168596724,1,1,-0.9576002335539004,-3.16159984429739,110.57880011677696,0.30000000000000004,0.30000000000000004,0.7000000000000001,35,4,1,287,4,14
2022-05-23 20:25:04.177999872+01:00,-0.25,0.375,10.25,0.25,-1.25,-0.5,1,1,96.09888094195531,2,7.800780567313777,0.11300890380966286,1,1,1,1653333898.502576,1,0,0,0,0,0,3,56.0712484283768,10.161300870572203,1,1,-0.8985986765278204,-3.2009342156481098,110.54929933826392,0.30000000000000004,0.30000000000000004,0.7000000000000001,35,4,1,287,4,14
2022-05-23 20:25:04.280000+01:00,-0.25,0.5,10.5,1.0,0.0,-0.25,1,1,96.05917870870472,2,7.85298900403834,0.11360443730842214,1,1,1,1653333898.6018317,1,0,0,0,0,0,3,56.071246145387306,10.161312682561306,1,1,-0.839042428960676,-3.240638380692872,110.51952121448035,0.30000000000000004,0.30000000000000004,0.7000000000000001,35,4,1,287,4,14
2022-05-23 20:25:04.380999936+01:00,-0.375,1.25,10.75,0.5,0.0,-0.75,1,1,96.01986571303503,2,7.904685593344038,0.11419413224346811,1,1,1,1653333898.7001143,1,0,0,0,0,0,3,56.07124388478007,10.161324378746592,1,1,-0.7800700661736004,-3.279953289217589,110.49003503308681,0.30000000000000004,0.30000000000000004,0.7000000000000001,35,4,1,287,4,14
2022-05-23 20:25:04.489000192+01:00,0.0,0.125,9.5,-1.0,-3.25,-0.5,1,1,95.97782805429912,2,7.9599651145818155,0.1148246971245074,1,1,1,1653333898.8052084,1,0,0,0,0,0,3,56.071241467497074,10.161336885558583,1,1,-0.7170105099260315,-3.321992993382634,110.45850525496303,0.30000000000000004,0.30000000000000004,0.7000000000000001,35,4,1,287,4,14
2022-05-23 20:25:04.588999936+01:00,-0.25,0.625,9.875,-1.0,2.75,-0.5,1,1,95.93890429621031,2,8.011149856468645,0.11540855349584006,1,1,1,1653333898.9025178,1,0,0,0,0,0,3,56.07123922927209,10.161348465940055,1,1,-0.6586220319190246,-3.3609186453873052,110.42931101595953,0.30000000000000004,0.30000000000000004,0.7000000000000001,35,4,1,287,4,14
2022-05-23 20:25:04.687699968+01:00,-0.25,0.5063701923076989,9.400480769230795,1.3725961538460227,0.140144230769375,-0.7372596153846023,1,1,95.90048654697665,2,8.061669196710943,0.11598481973434535,1,1,1,1653333898.998562,1,0,0,0,0,0,3,56.07123702014402,10.161359895776569,1,1,-0.6009926041261132,-3.3993382639159124,110.40049630206306,0.30000000000000004,0.30000000000000004,0.7000000000000001,35,4,1,287,4,13
2022-05-23 20:25:04.688150016+01:00,-0.25,0.5058293269230826,9.39831730769233,1.383413461538348,0.12824519230781695,-0.7383413461538348,1,1,95.90031139006526,2,8.061899528049434,0.11598744708801635,1,1,1,1653333898.999,1,0,0,0,0,0,3,56.07123701007201,10.161359947888286,1,1,-0.6007298559750812,-3.3995134293499336,110.40036492798755,0.30000000000000004,0.30000000000000004,0.7000000000000001,35,4,1,287,4,13
2022-05-23 20:25:04.688600064+01:00,-0.25,0.5052884615384663,9.396153846153865,1.3942307692306732,0.11634615384625935,-0.7394230769230674,1,1,95.90013623315386,2,8.062129859387925,0.11599007444168735,1,1,1,1653333898.9994767,1,0,0,0,0,0,3,56.071236999999996,10.161360000000002,1,1,-0.6004671078240493,-3.399688594783955,110.40023355391203,0.30000000000000004,0.30000000000000004,0.7000000000000001,35,4,1,287,4,13
2022-05-23 20:25:04.688950016+01:00,-0.25,0.5048677884615378,9.394471153846151,1.4026442307692433,0.10709134615383231,-0.7402644230769244,1,1,95.90000000000055,2,8.062309005984531,0.11599211793898705,1,1,1,1653333898.9998474,1,0,0,0,0,0,3,56.071236992214395,10.161360046342887,1,1,-0.6002627481510221,-3.399824834565973,110.40013137407551,0.30000000000000004,0.30000000000000004,0.7000000000000001,35,4,1,287,4,13
2022-05-23 20:25:04.689400064+01:00,-0.25,0.5043269230769301,9.392307692307721,1.4134615384613975,0.09519230769246212,-0.7413461538461398,1,1,95.8997616651666,2,8.062539337323019,0.115994745292658,1,1,1,1653333899.0003242,1,0,0,0,0,0,3,56.071236982204326,10.161360105926596,1,1,-0.5999999999999943,-3.3999999999999915,110.4,0.30000000000000004,0.30000000000000004,0.7000000000000001,35,4,1,287,4,13
2022-05-23 20:25:04.689900032+01:00,-0.25,0.5037259615384657,9.389903846153862,1.4254807692306861,0.08197115384624531,-0.7425480769230686,1,1,95.89949684868441,2,8.062795261032454,0.11599766457451469,1,1,1,1653333899.0008538,1,0,0,0,0,0,3,56.07123697108204,10.161360172130715,1,1,-0.600105926592866,-3.4002118531857346,110.39994703670357,0.30000000000000004,0.30000000000000004,0.6999470367035643,42,4,1,287,4,13
2022-05-23 20:25:04.690299904+01:00,-0.25,0.5032451923076976,9.38798076923079,1.4350961538460485,0.07139423076934648,-0.7435096153846048,1,1,95.89928499549866,2,8.063,0.116,1,1,1,1653333899.0012777,1,0,0,0,0,0,3,56.0712369621842,10.161360225094011,1,1,-0.6001906678671627,-3.400381335734328,110.39990466606642,0.30000000000000004,0.30000000000000004,0.6999046660664159,42,4,1,287,4,13
2022-05-23 20:25:04.690599936+01:00,-0.25,0.5028846153846173,9.38653846153847,1.4423076923076552,0.06346153846157865,-0.7442307692307656,1,1,95.89912610560935,2,8.063134738626134,0.11599618664265661,1,1,1,1653333899.0015955,1,0,0,0,0,0,3,56.07123695551083,10.161360264816484,1,1,-0.600254223822886,-3.400508447645775,110.39987288808857,0.30000000000000004,0.30000000000000004,0.6998728880885542,42,4,1,287,4,13
2022-05-23 20:25:04.693000192+01:00,-0.25,0.5,9.375,1.5,0.0,-0.75,1,1,95.8978549864949,2,8.064212647635191,0.1159656797839097,1,1,1,1653333899.0041378,1,0,0,0,0,0,3,56.07123690212382,10.161360582596263,1,1,-0.6007626714686677,-3.4015253429373384,110.39961866426567,0.30000000000000004,0.30000000000000004,0.6996186642656633,42,4,1,287,4,13
2022-05-23 20:25:04.790999808+01:00,-0.375,0.625,10.0,0.0,-1.0,-0.75,1,1,95.84595095598804,2,8.108227265505008,0.1147199830517451,1,1,1,1653333899.1079514,1,0,0,0,0,0,3,56.07123472215454,10.16137355860389,1,1,-0.6215242836714098,-3.4430485673428253,110.3892378581643,0.30000000000000004,0.30000000000000004,0.6892378581642917,42,4,1,287,4,13
2022-05-23 20:25:04.888999936+01:00,-0.25,0.375,11.5,0.5,-1.25,-0.75,1,1,95.79404692548118,2,8.152241883374822,0.11347428631958052,1,1,1,1653333899.2117648,1,0,0,0,0,0,3,56.071232542185264,10.161386534611516,1,1,-0.6422858958741517,-3.484571791748312,110.37885705206293,0.30000000000000004,0.30000000000000004,0.6788570520629201,42,4,1,287,4,13
2022-05-23 20:25:04.991049984+01:00,-0.25,0.375,9.75,0.5,1.5,-0.5,1,1,95.7399978814687,2,8.19807547269742,0.11217710926328056,1,1,1,1653333899.3198688,1,0,0,0,0,0,3,56.07123027212541,10.161400046872519,1,1,-0.6639055134791498,-3.5278110269583114,110.36804724326043,0.30000000000000004,0.30000000000000004,0.6680472432604205,42,4,1,287,4,13
2022-05-23 20:25:05.091049984+01:00,-0.125,0.375,9.75,-0.75,-0.5,-0.75,1,1,95.68703458503312,2,8.242988348074785,0.11090599014882686,1,1,1,1653333899.425801,1,0,0,0,0,0,3,56.07122804766696,10.161413287696627,1,1,-0.6850908320533768,-3.5701816641067685,110.35745458397331,0.30000000000000004,0.30000000000000004,0.6574545839733064,42,4,1,287,4,13
2022-05-23 20:25:05.193049856+01:00,-0.25,0.625,9.625,0.25,-1.25,-0.75,1,1,95.63301202266884,2,8.288799480959694,0.10960944865208416,1,1,1,1653333899.5338519,1,0,0,0,0,0,3,56.071225778719345,10.161426793337217,1,1,-0.7066998569990874,-3.613399713998193,110.34665007150046,0.30000000000000004,0.30000000000000004,0.6466500715004505,42,4,1,287,4,13
2022-05-23 20:25:05.297050112+01:00,-0.375,0.375,10.25,0.75,-1.0,-0.75,1,1,95.57793019437584,2,8.335508871352154,0.10828748477305225,1,1,1,1653333899.6440213,1,0,0,0,0,0,3,56.07122346528255,10.16144056379429,1,1,-0.7287325883162846,-3.6574651766325905,110.33563370584186,0.30000000000000004,0.30000000000000004,0.6356337058418513,42,4,1,287,4,13
2022-05-23 20:25:05.400100096+01:00,-0.25,0.5,10.5,0.25,-0.25,-0.75,1,1,95.52335151739899,2,8.381791589428525,0.10697759652560779,1,1,1,1653333899.7531843,1,0,0,0,0,0,3,56.07122117297812,10.161454208463535,1,1,-0.7505640591070245,-3.7011281182140734,110.32471797044649,0.30000000000000004,0.30000000000000004,0.6247179704464807,42,4,1,287,4,13
2022-05-23 20:25:05.506050048+01:00,-0.25,0.375,10.25,0.25,-0.75,-0.75,1,1,95.4672369048255,2,8.429376780890841,0.10563084582384412,1,1,1,1653333899.8654196,1,0,0,0,0,0,3,56.07121881616439,10.161468237116678,1,1,-0.7730099041364178,-3.746019808272863,110.3134950479318,0.30000000000000004,0.30000000000000004,0.6134950479317834,42,4,1,287,4,13
2022-05-23 20:25:05.609050112+01:00,-0.25,0.375,10.0,1.0,-0.75,-0.75,1,1,95.41268470949686,2,8.475637042529527,0.1043215931359568,1,1,1,1653333899.9745297,1,0,0,0,0,0,3,56.071216524972186,10.16148187516551,1,1,-0.7948307822678716,-3.789661564535774,110.30258460886607,0.30000000000000004,0.30000000000000004,0.6025846088660559,42,4,1,287,4,13
2022-05-23 20:25:05.631750144+01:00,-0.2804943578721129,0.4054943578721129,10.121977431488451,1.2439548629769033,-0.32307898979041916,-0.6890112842557742,1,1,95.40066204120599,2,8.485832265240187,0.10403304909697582,1,1,1,1653333899.9985764,1,0,0,0,0,0,3,56.07121602002012,10.161484880832582,1,1,-0.7996398495842212,-3.7992796991684736,110.30018007520789,0.30000000000000004,0.30000000000000004,0.600180075207881,42,4,1,287,4,13
2022-05-23 20:25:05.632150016+01:00,-0.28103170338527667,0.40603170338527667,10.124126813541107,1.248253627082213,-0.315556152606127,-0.6879365932294467,1,1,95.40045018802024,2,8.486011916741697,0.10402796462051801,1,1,1,1653333899.999,1,0,0,0,0,0,3,56.07121601112228,10.161484933795878,1,1,-0.7997245908585179,-3.7994491817170672,110.30013770457074,0.30000000000000004,0.30000000000000004,0.6001377045707326,42,4,1,287,4,13
2022-05-23 20:25:05.632649984+01:00,-0.28170338527673605,0.40670338527673605,10.126813541106944,1.2536270822138886,-0.306152606125695,-0.6865932294465279,1,1,95.40018537153807,2,8.486236481118585,0.10402160902494571,1,1,1,1653333899.9994845,1,0,0,0,0,0,3,56.07121599999999,10.161484999999999,1,1,-0.7998305174513896,-3.7996610349028104,110.3000847412743,0.30000000000000004,0.30000000000000004,0.6000847412742968,42,4,1,287,4,13
2022-05-23 20:25:05.632999936+01:00,-0.28217356260075194,0.40717356260075194,10.128694250403008,1.2573885008060155,-0.2995701235894728,-0.6856528747984961,1,1,95.40000000000055,2,8.486393676182404,0.10401716010804517,1,1,1,1653333899.9998238,1,0,0,0,0,0,3,56.07121599253767,10.161485044434752,1,1,-0.7999046660663988,-3.7998093321328286,110.3000476669668,0.30000000000000004,0.30000000000000004,0.6000476669667922,42,4,1,287,4,13
2022-05-23 20:25:05.633449984+01:00,-0.2827780763030635,0.4077780763030635,10.131112305212254,1.262224610424508,-0.2911069317571108,-0.684443847393873,1,1,95.39978194505069,2,8.486595784121603,0.10401144007203011,1,1,1,1653333900.0002599,1,0,0,0,0,0,3,56.07121598294325,10.161485101565148,1,1,-0.799999999999983,-3.799999999999997,110.30000000000001,0.30000000000000004,0.30000000000000004,0.6000000000000001,42,4,1,287,4,13
2022-05-23 20:25:05.633949952+01:00,-0.28344975819452295,0.40844975819452295,10.133799032778091,1.2675980655561836,-0.28170338527667876,-0.6831004836109541,1,1,95.39953966177309,2,8.48682034849849,0.10400508447645782,1,1,1,1653333900.0007443,1,0,0,0,0,0,3,56.071215972282786,10.161485165043368,1,1,-0.7999030866889392,-3.799999999999997,110.29995154334449,0.30000000000000004,0.30000000000000004,0.6000000000000001,50,4,1,287,4,13
2022-05-23 20:25:05.634350080+01:00,-0.28398710370768665,0.40898710370768665,10.135948414830747,1.2718968296614934,-0.2741805480923866,-0.6820257925846267,1,1,95.399345835151,2,8.487,0.10400000000000001,1,1,1,1653333900.001132,1,0,0,0,0,0,3,56.07121596375441,10.161485215825943,1,1,-0.7998255560401047,-3.799999999999997,110.29991277802007,0.30000000000000004,0.30000000000000004,0.6000000000000001,50,4,1,287,4,13
2022-05-23 20:25:05.634599936+01:00,-0.28432294465340685,0.40932294465340685,10.137291778613628,1.2745835572272548,-0.26947877485230426,-0.6813541106931863,1,1,95.3992246935122,2,8.487089644812713,0.10399806173377919,1,1,1,1653333900.0013742,1,0,0,0,0,0,3,56.07121595842418,10.161485247565052,1,1,-0.7997770993845843,-3.799999999999997,110.29988854969231,0.30000000000000004,0.30000000000000004,0.6000000000000001,50,4,1,287,4,13
2022-05-23 20:25:05.702099968+01:00,-0.375,0.5,10.5,2.0,1.0,-0.5,1,1,95.3665164510351,2,8.511293744245771,0.1034747298541455,1,1,1,1653333900.0667877,1,0,0,0,0,0,3,56.07121451926151,10.16149381712458,1,1,-0.7866938023937429,-3.799999999999997,110.29334690119688,0.30000000000000004,0.30000000000000004,0.6000000000000001,50,4,1,287,4,13
2022-05-23 20:25:05.802099968+01:00,-0.375,0.5,9.5,1.75,1.5,-0.75,1,1,95.31805979551346,2,8.547151669331782,0.10269942336579932,1,1,1,1653333900.1636963,1,0,0,0,0,0,3,56.07121238716867,10.161506512768325,1,1,-0.7673111401850893,-3.799999999999997,110.28365557009256,0.30000000000000004,0.30000000000000004,0.6000000000000001,50,4,1,287,4,13
2022-05-23 20:25:05.906099968+01:00,-0.375,0.5,9.75,0.75,-0.75,-1.0,1,1,95.26766487377095,2,8.584443911421232,0.1018931046179193,1,1,1,1653333900.2644813,1,0,0,0,0,0,3,56.07121016979211,10.16151971623782,1,1,-0.74715317148809,-3.799999999999997,110.27357658574407,0.30000000000000004,0.30000000000000004,0.6000000000000001,50,4,1,287,4,13
2022-05-23 20:25:06.008150016+01:00,-0.375,0.75,9.375,-0.25,-1.5,-0.75,1,1,95.21821485681113,2,8.621036923971506,0.10110190434656204,1,1,1,1653333900.3633764,1,0,0,0,0,0,3,56.071207993991365,10.161532672142261,1,1,-0.7273731647041597,-3.799999999999997,110.2636865823521,0.30000000000000004,0.30000000000000004,0.6000000000000001,50,4,1,287,4,13
2022-05-23 20:25:06.109149952+01:00,-0.375,0.375,10.25,-0.25,-1.75,-0.5,1,1,95.16927363473428,2,8.657253428308376,0.1003188447933324,1,1,1,1653333900.4612541,1,0,0,0,0,0,3,56.0712058405776,10.161545494742443,1,1,-0.70779667587342,-3.799999999999997,110.25389833793672,0.30000000000000004,0.30000000000000004,0.6000000000000001,50,4,1,287,4,13
2022-05-23 20:25:06.211149824+01:00,-0.375,0.5,10.5,1.5,-0.75,-0.75,1,1,95.1198478461022,2,8.693828511896108,0.09952803217521927,1,1,1,1653333900.560101,1,0,0,0,0,0,3,56.071203665842894,10.161558444299063,1,1,-0.688026360420593,-3.799999999999997,110.2440131802103,0.30000000000000004,0.30000000000000004,0.6000000000000001,50,4,1,287,4,13
2022-05-23 20:25:06.311150080+01:00,-0.375,0.75,10.125,1.25,0.75,-0.75,1,1,95.07139119058057,2,8.729686436982119,0.09875272568687309,1,1,1,1653333900.6570096,1,0,0,0,0,0,3,56.07120153375005,10.161571139942808,1,1,-0.6686436982119394,-3.799999999999997,110.23432184910598,0.30000000000000004,0.30000000000000004,0.6000000000000001,50,4,1,287,4,13
2022-05-23 20:25:06.419150080+01:00,-0.5,0.5,10.375,-0.5,0.5,-1.0,1,1,95.0190580026172,2,8.76841299607501,0.09791539467945924,1,1,1,1653333900.7616708,1,0,0,0,0,0,3,56.07119923108978,10.161584851238052,1,1,-0.6477104230265944,-3.799999999999997,110.22385521151331,0.30000000000000004,0.30000000000000004,0.6000000000000001,50,4,1,287,4,13
2022-05-23 20:25:06.521199872+01:00,-0.375,0.375,9.125,0.25,1.75,-0.75,1,1,94.96960798565738,2,8.805006008625282,0.09712419440810198,1,1,1,1653333900.8605661,1,0,0,0,0,0,3,56.07119705528903,10.161597807142494,1,1,-0.627930416242664,-3.799999999999997,110.21396520812134,0.30000000000000004,0.30000000000000004,0.6000000000000001,50,4,1,287,4,13
2022-05-23 20:25:06.619149824+01:00,-0.25,0.375,9.5,-1.0,-0.25,-0.5,1,1,94.92214469157393,2,8.840128846247032,0.09636478170276687,1,1,1,1653333900.9554882,1,0,0,0,0,0,3,56.071194966904095,10.161610242525542,1,1,-0.6089450986092872,-3.799999999999997,110.20447254930465,0.30000000000000004,0.30000000000000004,0.6000000000000001,50,4,1,287,4,13
2022-05-23 20:25:06.663650048+01:00,-0.48165018219677336,0.2591749089016133,9.84747527329516,0.8532014575741866,0.9082509109838666,-0.6158250910983867,1,1,94.9005814798668,2,8.856085622910307,0.09601977031545282,1,1,1,1653333900.9986124,1,0,0,0,0,0,3,56.07119401812278,10.16161589208701,1,1,-0.6003198139264367,-3.799999999999997,110.20015990696322,0.30000000000000004,0.30000000000000004,0.6000000000000001,50,4,1,287,4,13
2022-05-23 20:25:06.664050176+01:00,-0.48373243102550356,0.2581337844872482,9.850598646538256,0.8698594482040283,0.9186621551275178,-0.6168662155127518,1,1,94.90038765324472,2,8.85622905461065,0.09601666908949945,1,1,1,1653333900.999,1,0,0,0,0,0,3,56.07119400959441,10.161615942869584,1,1,-0.6002422832776022,-3.799999999999997,110.2001211416388,0.30000000000000004,0.30000000000000004,0.6000000000000001,50,4,1,287,4,13
2022-05-23 20:25:06.664499968+01:00,-0.4860749609578343,0.25696251952108284,9.854112441436751,0.8885996876626743,0.9303748047891716,-0.6180374804789172,1,1,94.90016959829487,2,8.856390415273538,0.09601318021030189,1,1,1,1653333900.9994693,1,0,0,0,0,0,3,56.07119399999999,10.16161599999998,1,1,-0.6001550612976632,-3.799999999999997,110.20007753064884,0.30000000000000004,0.30000000000000004,0.6000000000000001,50,4,1,287,4,13
2022-05-23 20:25:06.664849920+01:00,-0.48789692868296397,0.256051535658518,9.856845393024447,0.9031754294637118,0.9394846434148201,-0.618948464341482,1,1,94.90000000000055,2,8.856515918011338,0.09601046663759269,1,1,1,1653333900.9998343,1,0,0,0,0,0,3,56.07119399087686,10.161616049629842,1,1,-0.6000872219799334,-3.799999999999997,110.20004361098998,0.30000000000000004,0.30000000000000004,0.6000000000000001,50,4,1,287,4,13
2022-05-23 20:25:06.665299968+01:00,-0.4902394586152947,0.25488027069235264,9.860359187922942,0.9219156689223578,0.9511972930764736,-0.6201197293076474,1,1,94.89971848608124,2,8.856677278674224,0.09600697775839513,1,1,1,1653333901.0003035,1,0,0,0,0,0,3,56.07119397914711,10.161616113439663,1,1,-0.5999999999999943,-3.799999999999997,110.2,0.30000000000000004,0.30000000000000004,0.6000000000000001,50,4,1,287,4,13
2022-05-23 20:25:06.665849856+01:00,-0.49310255075478954,0.25344872462260526,9.864653826132184,0.9448204060383163,0.9655127537739476,-0.6215512753773947,1,1,94.89937441351321,2,8.856874497262197,0.09600271357270924,1,1,1,1653333901.000877,1,0,0,0,0,0,3,56.07119396481075,10.161616191429445,1,1,-0.599770618287974,-3.8001146908560073,110.199942654572,0.30000000000000004,0.30000000000000004,0.599942654571995,59,4,1,287,4,13
2022-05-23 20:25:06.666199808+01:00,-0.4949245184799562,0.2525377407600219,9.867386777719934,0.9593961478396498,0.9746225923997811,-0.6224622592399781,1,1,94.89915545824265,2,8.857,0.096,1,1,1,1653333901.001242,1,0,0,0,0,0,3,56.07119395568761,10.161616241059308,1,1,-0.5996246481075945,-3.800187675946197,110.1999061620269,0.30000000000000004,0.30000000000000004,0.5999061620269002,59,4,1,287,4,13
2022-05-23 20:25:06.666449920+01:00,-0.49622592399792187,0.25188703800103907,9.869338885996882,0.9698073919833747,0.9811296199896093,-0.6231129619989609,1,1,94.89899906162081,2,8.857056045044574,0.09599947865074814,1,1,1,1653333901.0015025,1,0,0,0,0,0,3,56.07119394917109,10.161616276509209,1,1,-0.5995203836930387,-3.8002398081534747,110.19988009592326,0.30000000000000004,0.30000000000000004,0.5998800959232612,59,4,1,287,4,13
2022-05-23 20:25:06.715200+01:00,-0.75,0.125,10.25,3.0,2.25,-0.75,1,1,94.86850172036337,2,8.86798482873677,0.0958978155466347,1,1,1,1653333901.052334,1,0,0,0,0,0,3,56.07119267844854,10.161623189239894,1,1,-0.5791888228547533,-3.8104055885726176,110.1947972057137,0.30000000000000004,0.30000000000000004,0.5947972057136899,59,4,1,287,4,13
2022-05-23 20:25:06.819200+01:00,-0.5,0.75,9.75,1.5,-1.25,-0.75,1,1,94.80344072568082,2,8.89129956728012,0.09568093425785934,1,1,1,1653333901.1607747,1,0,0,0,0,0,3,56.07118996757376,10.161637936398687,1,1,-0.5358148263997431,-3.832092586800123,110.18395370659994,0.30000000000000004,0.30000000000000004,0.5839537065999375,59,4,1,287,4,13
2022-05-23 20:25:06.922200064+01:00,-0.5,0.5,12.0,-1.5,-0.5,-0.75,1,1,94.73900531748559,2,8.91439012564517,0.09546613836609144,1,1,1,1653333901.2681727,1,0,0,0,0,0,3,56.07118728276509,10.161652541757878,1,1,-0.4928578876029531,-3.853571056198518,110.17321447190075,0.30000000000000004,0.30000000000000004,0.5732144719007402,59,4,1,287,4,13
2022-05-23 20:25:07.022249984+01:00,-0.375,0.5,11.0,0.25,3.25,-0.5,1,1,94.676415389428,2,8.936819352484228,0.09525749439549555,1,1,1,1653333901.3724947,1,0,0,0,0,0,3,56.071184674851416,10.161666728808237,1,1,-0.4511312688979182,-3.874434365551035,110.16278281722448,0.30000000000000004,0.30000000000000004,0.5627828172244815,59,4,1,287,4,13
2022-05-23 20:25:07.122200064+01:00,-0.5,0.625,10.125,3.0,-0.5,-0.75,1,1,94.61388802001915,2,8.959226161305457,0.09504905896460039,1,1,1,1653333901.4767125,1,0,0,0,0,0,3,56.071182069544356,10.161680901678636,1,1,-0.4094463559587038,-3.895276822020642,110.15236158898968,0.30000000000000004,0.30000000000000004,0.5523615889896781,59,4,1,287,4,13
2022-05-23 20:25:07.224250112+01:00,-0.375,0.625,10.0,0.5,0.75,-0.75,1,1,94.55004691898688,2,8.982103748501121,0.09483624419998957,1,1,1,1653333901.5831199,1,0,0,0,0,0,3,56.071179409498484,10.161695372328204,1,1,-0.3668856219372224,-3.916557189031383,110.14172140548432,0.30000000000000004,0.30000000000000004,0.5417214054843079,59,4,1,287,4,13
2022-05-23 20:25:07.327249920+01:00,-0.5,0.875,8.625,2.0,-1.25,-0.75,1,1,94.48561151079166,2,9.00519430686617,0.09462144830822168,1,1,1,1653333901.6905177,1,0,0,0,0,0,3,56.071176724689806,10.161709977687394,1,1,-0.3239286831404355,-3.9380356584297767,110.13098217078512,0.30000000000000004,0.30000000000000004,0.5309821707851113,59,4,1,287,4,13
2022-05-23 20:25:07.432250112+01:00,-0.625,0.5,10.25,0.75,-0.75,-0.75,1,1,94.41992492962177,2,9.028733225587823,0.09440248162243887,1,1,1,1653333901.8000011,1,0,0,0,0,0,3,56.07117398774893,10.161724866645793,1,1,-0.280137629027202,-3.9599311854863934,110.12003440725681,0.30000000000000004,0.30000000000000004,0.520034407256803,59,4,1,287,4,13
2022-05-23 20:25:07.532249856+01:00,-0.5,0.75,10.125,0.0,0.0,-0.75,1,1,94.35736628088854,2,9.051151243417968,0.09419394192169334,1,1,1,1653333901.904271,1,0,0,0,0,0,3,56.07117138113856,10.161739046606172,1,1,-0.23843186320507587,-3.9807840683974565,110.10960796580127,0.30000000000000004,0.30000000000000004,0.5096079658012717,59,4,1,287,4,13
2022-05-23 20:25:07.622700032+01:00,-0.602784090909088,0.5444318181818238,10.433352272727264,1.2334090909090567,-0.20556818181817613,-0.75,1,1,94.30078198310935,2,9.071428340545332,0.094005317762369,1,1,1,1653333901.998583,1,0,0,0,0,0,3,56.07116902345949,10.161751872380336,1,1,-0.20070899801896458,-3.999645500990512,110.10017724950475,0.30000000000000004,0.30000000000000004,0.500177249504744,59,4,1,287,4,12
2022-05-23 20:25:07.623100160+01:00,-0.6032386363636325,0.5435227272727351,10.434715909090897,1.2388636363635894,-0.20647727272726493,-0.75,1,1,94.30053174851442,2,9.071518012616652,0.09400448360356603,1,1,1,1653333901.999,1,0,0,0,0,0,3,56.07116901303305,10.161751929100177,1,1,-0.20054217495567644,-3.9997289125221562,110.10013554373893,0.30000000000000004,0.30000000000000004,0.500135543738922,59,4,1,287,4,12
2022-05-23 20:25:07.623600128+01:00,-0.603806818181817,0.5423863636363659,10.43642045454545,1.245681818181804,-0.207613636363634,-0.75,1,1,94.30021895527075,2,9.071630102705804,0.0940034409050623,1,1,1,1653333901.999482,1,0,0,0,0,0,3,56.071169,10.161751999999979,1,1,-0.20033364612656485,-3.9998331769367117,110.10008341153166,0.30000000000000004,0.30000000000000004,0.500083411531644,59,4,1,287,4,12
2022-05-23 20:25:07.623950080+01:00,-0.6042045454545413,0.5415909090909173,10.437613636363624,1.250454545454496,-0.20840909090908266,-0.75,1,1,94.30000000000018,2,9.071708565768208,0.0940027110161097,1,1,1,1653333901.999819,1,0,0,0,0,0,3,56.07116899156789,10.161752046882507,1,1,-0.20018767594618847,-3.9999061620269,110.10004691898656,0.30000000000000004,0.30000000000000004,0.50004691898655,59,4,1,287,4,12
2022-05-23 20:25:07.624399872+01:00,-0.6047159090909058,0.5405681818181884,10.439147727272717,1.2565909090908696,-0.20943181818181159,-0.75,1,1,94.29969644405915,2,9.071809446848444,0.09400177258745633,1,1,1,1653333902.0002527,1,0,0,0,0,0,3,56.071168980726604,10.161752107160044,1,1,-0.19999999999998863,-4.0,110.10000000000001,0.30000000000000004,0.30000000000000004,0.5,59,4,1,287,4,12
2022-05-23 20:25:07.624900096+01:00,-0.6052840909090903,0.5394318181818194,10.440852272727271,1.2634090909090838,-0.21056818181818066,-0.75,1,1,94.29935915968024,2,9.071921536937596,0.09400072988895261,1,1,1,1653333902.0007346,1,0,0,0,0,0,3,56.07116896868073,10.161752174135085,1,1,-0.19990363303458392,-3.999903633034595,110.10000000000001,0.30000000000000004,0.30000000000000004,0.5,68,4,1,287,4,12
2022-05-23 20:25:07.625250048+01:00,-0.6056818181818147,0.5386363636363707,10.442045454545443,1.2681818181817759,-0.21136363636362931,-0.75,1,1,94.299123060615,2,9.072000000000001,0.094,1,1,1,1653333902.001072,1,0,0,0,0,0,3,56.07116896024863,10.161752221017613,1,1,-0.19983617615880145,-3.9998361761588126,110.10000000000001,0.30000000000000004,0.30000000000000004,0.5,68,4,1,287,4,12
2022-05-23 20:25:07.625550080+01:00,-0.606022727272727,0.537954545454546,10.44306818181818,1.272272727272724,-0.21204545454545398,-0.75,1,1,94.29892068998765,2,9.072021970609493,0.093999421826066,1,1,1,1653333902.001361,1,0,0,0,0,0,3,56.0711689530211,10.161752261202638,1,1,-0.19977835597955834,-3.99977835597957,110.10000000000001,0.30000000000000004,0.30000000000000004,0.5,68,4,1,287,4,12
2022-05-23 20:25:07.642249984+01:00,-0.625,0.5,10.5,1.5,-0.25,-0.75,1,1,94.2876553917319,2,9.07324500120453,0.09396723681040713,1,1,1,1653333902.0174534,1,0,0,0,0,0,3,56.07116855068902,10.161754498169007,1,1,-0.19655969933505624,-3.996559699335067,110.10000000000001,0.30000000000000004,0.30000000000000004,0.5,68,4,1,287,4,12
2022-05-23 20:25:07.733299968+01:00,-0.625,0.625,10.25,0.5,0.25,-0.75,1,1,94.22623590633151,2,9.079913081185257,0.09379176102144061,1,1,1,1653333902.1051915,1,0,0,0,0,0,3,56.07116635713597,10.161766694323966,1,1,-0.17901127493494245,-3.9790112749349524,110.10000000000001,0.30000000000000004,0.30000000000000004,0.5,68,4,1,287,4,12
2022-05-23 20:25:07.835300096+01:00,-0.625,0.5,9.375,1.0,0.0,-0.75,1,1,94.15742989303288,2,9.087383088412432,0.0935951818838834,1,1,1,1653333902.203481,1,0,0,0,0,0,3,56.071163899778355,10.161780357232324,1,1,-0.1593524139924739,-3.9593524139924825,110.10000000000001,0.30000000000000004,0.30000000000000004,0.5,68,4,1,287,4,12
2022-05-23 20:25:07.937299968+01:00,-0.5,0.625,9.875,0.5,-0.5,-0.75,1,1,94.08862387973427,2,9.094853095639605,0.09339860274632619,1,1,1,1653333902.3017704,1,0,0,0,0,0,3,56.07116144242074,10.16179402014068,1,1,-0.13969355305000675,-3.939693553050014,110.10000000000001,0.30000000000000004,0.30000000000000004,0.5,68,4,1,287,4,12
2022-05-23 20:25:08.039299840+01:00,-0.625,0.625,10.25,0.5,-1.0,-0.75,1,1,94.01981786643564,2,9.10232310286678,0.09320202360876896,1,1,1,1653333902.4000602,1,0,0,0,0,0,3,56.07115898506312,10.161807683049037,1,1,-0.12003469210753823,-3.920034692107544,110.10000000000001,0.30000000000000004,0.30000000000000004,0.5,68,4,1,287,4,12
2022-05-23 20:25:08.141350144+01:00,-0.75,0.5,10.375,1.75,0.75,-0.75,1,1,93.95097812469912,2,9.109796771862202,0.09300534810888943,1,1,1,1653333902.4983978,1,0,0,0,0,0,3,56.071156526500914,10.161821352654897,1,1,-0.10036619446853032,-3.9003661944685346,110.10000000000001,0.30000000000000004,0.30000000000000004,0.5,68,4,1,287,4,12
2022-05-23 20:25:08.242350080+01:00,-1.0,0.625,10.0,0.25,0.25,-0.75,1,1,93.88284668015834,2,9.117193543724404,0.09281069621777885,1,1,1,1653333902.5957239,1,0,0,0,0,0,3,56.07115409323504,10.161834881613172,1,1,-0.08090006745687121,-3.8809000674568743,110.10000000000001,0.30000000000000004,0.30000000000000004,0.5,68,4,1,287,4,12
2022-05-23 20:25:08.345350144+01:00,-1.0,0.75,10.0,-1.0,-1.25,-0.5,1,1,93.81336609810188,2,9.12473678631655,0.09261218983377499,1,1,1,1653333902.694977,1,0,0,0,0,0,3,56.07115161178568,10.161848678471612,1,1,-0.06104847258359461,-3.861048472583596,110.10000000000001,0.30000000000000004,0.30000000000000004,0.5,68,4,1,287,4,12
2022-05-23 20:25:08.449350144+01:00,-1.0,0.5,10.125,0.25,-0.75,-0.75,1,1,93.7432109472876,2,9.132353264273668,0.0924117562033245,1,1,1,1653333902.7951937,1,0,0,0,0,0,3,56.07114910624458,10.161862609280131,1,1,-0.04100414377950998,-3.84100414377951,110.10000000000001,0.30000000000000004,0.30000000000000004,0.5,68,4,1,287,4,12
2022-05-23 20:25:08.550349824+01:00,-1.0,0.625,10.25,0.0,-0.5,-0.75,1,1,93.6750795027468,2,9.13975003613587,0.09221710431221393,1,1,1,1653333902.8925197,1,0,0,0,0,0,3,56.071146672978706,10.161876138238407,1,1,-0.02153801676785086,-3.8215380167678497,110.10000000000001,0.30000000000000004,0.30000000000000004,0.5,68,4,1,287,4,12
2022-05-23 20:25:08.655350016+01:00,-1.0,1.0,10.625,-0.5,0.0,-1.0,1,1,93.6042497831747,2,9.147439749457961,0.09201474343531679,1,1,1,1653333902.9937,1,0,0,0,0,0,3,56.07114414334586,10.161890202997009,1,1,-0.001300954032956797,-3.801300954032954,110.10000000000001,0.30000000000000004,0.30000000000000004,0.5,68,4,1,287,4,12
2022-05-23 20:25:08.660450048+01:00,-1.0,0.9731578947368482,10.578026315789485,-0.4597368421052724,0.053684210526303504,-0.9865789473684241,1,1,93.60080948250976,2,9.14781324981932,0.09200491447843893,1,1,1,1653333902.9986145,1,0,0,0,0,0,3,56.07114402047798,10.161890886142427,1,1,-0.0003180109858336444,-3.8003180109858308,110.10000000000001,0.30000000000000004,0.30000000000000004,0.5,68,4,1,287,4,12
2022-05-23 20:25:08.660850176+01:00,-1.0,0.9710526315789584,10.574342105263177,-0.45657894736843757,0.05789473684208321,-0.9855263157894792,1,1,93.60053965500663,2,9.147842543965309,0.09200414357986027,1,1,1,1653333902.999,1,0,0,0,0,0,3,56.07114401084129,10.16189093972246,1,1,-0.0002409174135104275,-3.8002409174135074,110.10000000000001,0.30000000000000004,0.30000000000000004,0.5,68,4,1,287,4,12
2022-05-23 20:25:08.661299968+01:00,-1.0,0.9686842105263229,10.570197368421065,-0.45302631578948444,0.06263157894735409,-0.9843421052631615,1,1,93.6002360990656,2,9.147875499879547,0.09200327631895928,1,1,1,1653333902.9994717,1,0,0,0,0,0,3,56.071144000000004,10.161890999999997,1,1,-0.00015418714464646155,-3.800154187144644,110.10000000000001,0.30000000000000004,0.30000000000000004,0.5,68,4,1,287,4,12
2022-05-23 20:25:08.661649920+01:00,-1.0,0.9668421052631787,10.566973684210563,-0.450263157894768,0.06631578947364264,-0.9834210526315893,1,1,93.60000000000036,2,9.147901132257287,0.09200260178270296,1,1,1,1653333902.9998384,1,0,0,0,0,0,3,56.07114399046522,10.161891049874264,1,1,-8.673026886396595e-05,-3.8000867302688612,110.10000000000001,0.30000000000000004,0.30000000000000004,0.5,68,4,1,287,4,12
2022-05-23 20:25:08.662099968+01:00,-1.0,0.9644736842105432,10.56282894736845,-0.44671052631581487,0.0710526315789135,-0.9822368421052716,1,1,93.59971711456896,2,9.147934088171525,0.09200173452180198,1,1,1,1653333903.0003097,1,0,0,0,0,0,3,56.07114397820621,10.16189111399832,1,1,0.0,-3.799999999999997,110.10000000000001,0.30000000000000004,0.30000000000000004,0.5,68,4,1,287,4,12
2022-05-23 20:25:08.662650112+01:00,-1.0,0.9615789473684541,10.557763157894794,-0.44236842105268104,0.07684210526309192,-0.980789473684227,1,1,93.59937136570836,2,9.14797436762226,0.09200067453625634,1,1,1,1653333903.000886,1,0,0,0,0,0,3,56.07114396322297,10.161891192372169,1,1,-0.00017287443029920154,-3.799884750379798,110.09994237518991,0.30000000000000004,0.30000000000000004,0.5,77,4,1,287,4,12
2022-05-23 20:25:08.663000064+01:00,-1.0,0.9597368421052723,10.554539473684226,-0.43960526315790854,0.08052631578945525,-0.9798684210526362,1,1,93.59915134370615,2,9.148,0.092,1,1,1,1653333903.001253,1,0,0,0,0,0,3,56.071143953688185,10.161891242246435,1,1,-0.00028288543140072376,-3.7998114097123965,110.09990570485621,0.30000000000000004,0.30000000000000004,0.5,77,4,1,287,4,12
2022-05-23 20:25:08.663249920+01:00,-1.0,0.9584210526315818,10.552236842105268,-0.4376315789473728,0.08315789473683627,-0.979210526315791,1,1,93.59899418513317,2,9.147950756980459,0.09200235737859501,1,1,1,1653333903.0015147,1,0,0,0,0,0,3,56.071143946877626,10.161891277870911,1,1,-0.00036146471790117295,-3.7997590235213963,110.0998795117607,0.30000000000000004,0.30000000000000004,0.5,77,4,1,287,4,12
2022-05-23 20:25:08.750350080+01:00,-1.0,0.5,9.75,0.25,1.0,-0.75,1,1,93.54424013829987,2,9.130794488972706,0.09282366808109382,1,1,1,1653333903.0927763,1,0,0,0,0,0,3,56.071141574077956,10.161903689438388,1,1,-0.027738488134526798,-3.781507674576978,110.0907538372885,0.30000000000000004,0.30000000000000004,0.5,77,4,1,287,4,12
2022-05-23 20:25:08.851399936+01:00,-0.875,0.5,9.375,-0.25,-0.75,-0.75,1,1,93.48071664309317,2,9.110890460474618,0.09377652050919379,1,1,1,1653333903.1986544,1,0,0,0,0,0,3,56.07113882124895,10.161918088851632,1,1,-0.05950023573785694,-3.7603331761747563,110.08016658808738,0.30000000000000004,0.30000000000000004,0.5,77,4,1,287,4,12
2022-05-23 20:25:08.952349952+01:00,-0.75,0.625,10.125,-0.75,-1.75,-0.75,1,1,93.41725601131567,2,9.091006129184347,0.09472842998585572,1,1,1,1653333903.3044276,1,0,0,0,0,0,3,56.071136071144174,10.161932474015085,1,1,-0.09123055162658601,-3.7391796322489355,110.06958981612448,0.30000000000000004,0.30000000000000004,0.5,77,4,1,287,4,12
