timestamps,AccelerationX,AccelerationY,AccelerationZ,AngularRateX,AngularRateY,AngularRateZ,ImuValid,AltitudeValid,Altitude,AltitudeAccuracy,Speed,SpeedAccuracy,SpeedValid,TimeValid,TimeConfirmed,Epoch,FenceValid,FenceCombined,Fence1,Fence2,Fence3,Fence4,PositionAccuracy,Latitude,Longitude,PositionValid,AttitudeValid,Roll,Pitch,Heading,RollAccuracy,PitchAccuracy,HeadingAccuracy,DistanceTrip,DistanceAccuracy,DistanceValid,DistanceTotal,FixType,Satellites
,m/s^2,m/s^2,m/s^2,deg/s,deg/s,deg/s,,,m,m,m/s,m/s,,,,sec,,,,,,,m,deg,deg,,,deg,deg,deg,deg,deg,deg,m,m,,km,,
2022-05-24 06:44:59.194099968+01:00,-1.75,0.625,10.125,0,-0.75,-1.25,1,1,32.3,3,15.437,0.109,1,1,1,1653371093,1,0,0,0,0,0,5,56.429188,10.21237,1,1,0.8,-3.9,28,0.2,0.2,0.3,8192,20,1,299,4,14
2022-05-24 06:44:59.294150144+01:00,-1.625,0.5,9.875,0.5,-1.25,-1.25,1,1,32.3,3,15.437,0.109,1,1,1,1653371093,1,0,0,0,0,0,5,56.429188,10.21237,1,1,0.8,-3.9,28,0.2,0.2,0.3,8192,20,1,299,4,14
2022-05-24 06:44:59.397100032+01:00,-1.375,0.625,10.25,-1,-1.25,-1.25,1,1,32.3,3,15.437,0.109,1,1,1,1653371093,1,0,0,0,0,0,5,56.429188,10.21237,1,1,0.8,-3.9,28,0.2,0.2,0.3,8192,20,1,299,4,14
2022-05-24 06:44:59.499099904+01:00,-1.375,0.625,10.125,-0.5,-1.5,-1.25,1,1,32.3,3,15.437,0.109,1,1,1,1653371093,1,0,0,0,0,0,5,56.429188,10.21237,1,1,0.8,-3.9,28,0.2,0.2,0.3,8192,20,1,299,4,14
2022-05-24 06:44:59.601100032+01:00,-1.25,0.5,10.25,-0.75,-1,-1.25,1,1,32.3,3,15.437,0.109,1,1,1,1653371093,1,0,0,0,0,0,5,56.429188,10.21237,1,1,0.8,-3.9,28,0.2,0.2,0.3,8192,20,1,299,4,14
2022-05-24 06:44:59.709149952+01:00,-1.375,0.75,10.125,-1.25,-0.75,-1.75,1,1,32.3,3,15.437,0.109,1,1,1,1653371093,1,0,0,0,0,0,5,56.429188,10.21237,1,1,0.8,-3.9,28,0.2,0.2,0.3,8192,20,1,299,4,14
2022-05-24 06:44:59.811150080+01:00,-1.25,0.625,9.875,-0.75,-0.25,-1.75,1,1,32.3,3,15.437,0.109,1,1,1,1653371093,1,0,0,0,0,0,5,56.429188,10.21237,1,1,0.8,-3.9,28,0.2,0.2,0.3,8192,20,1,299,4,14
2022-05-24 06:44:59.865349888+01:00,-1.25,0.553684211,9.946315789,-0.892631579,-0.963157895,-1.75,1,1,32.3,3,15.437,0.109,1,1,1,1653371093,1,0,0,0,0,0,5,56.429188,10.21237,1,1,0.8,-3.9,28,0.2,0.2,0.3,8192,20,1,299,4,14
2022-05-24 06:44:59.865750016+01:00,-1.25,0.553157895,9.946842105,-0.893684211,-0.968421053,-1.75,1,1,32.3,3,15.437,0.109,1,1,1,1653371093,1,0,0,0,0,0,5,56.429188,10.21237,1,1,0.8,-3.9,28,0.2,0.2,0.3,8192,20,1,299,4,14
2022-05-24 06:44:59.866200064+01:00,-1.25,0.552565789,9.947434211,-0.894868421,-0.974342105,-1.75,1,1,32.3,3,15.437,0.109,1,1,1,1653371093,1,0,0,0,0,0,5,56.429188,10.21237,1,1,0.8,-3.9,28,0.2,0.2,0.3,8192,20,1,299,4,14
2022-05-24 06:44:59.866599936+01:00,-1.25,0.552039474,9.947960526,-0.895921053,-0.979605263,-1.75,1,1,32.3,3,15.437,0.109,1,1,1,1653371093,1,0,0,0,0,0,5,56.429188,10.21237,1,1,0.8,-3.9,28,0.2,0.2,0.3,8192,20,1,299,4,14
2022-05-24 06:44:59.867049984+01:00,-1.25,0.551447368,9.948552632,-0.897105263,-0.985526316,-1.75,1,1,32.29959237,3,15.437,0.109,1,1,1,1653371093,1,0,0,0,0,0,5,56.429188,10.21237,1,1,0.8,-3.9,28,0.2,0.2,0.3,8192,20,1,299,4,14
2022-05-24 06:44:59.867549952+01:00,-1.25,0.550789474,9.949210526,-0.898421053,-0.992105263,-1.75,1,1,32.29913945,3,15.437,0.109,1,1,1,1653371093,1,0,0,0,0,0,5,56.429188,10.21237,1,1,0.799647746,-3.899949678,28.00005032,0.2,0.2,0.3,8192,20,1,299,4,14
2022-05-24 06:44:59.867899904+01:00,-1.25,0.550328947,9.949671053,-0.899342105,-0.996710526,-1.75,1,1,32.2988224,3,15.437,0.109,1,1,1,1653371093,1,0,0,0,0,0,5,56.429188,10.21237,1,1,0.799401167,-3.899914452,28.00008555,0.2,0.2,0.3,8192,20,1,299,4,14
2022-05-24 06:44:59.868199936+01:00,-1.25,0.549934211,9.950065789,-0.900131579,-1.000657895,-1.75,1,1,32.29855065,3,15.43688194,0.108998792,1,1,1,1653371093,1,0,0,0,0,0,5,56.429188,10.21237,1,1,0.799189815,-3.899884259,28.00011574,0.2,0.2,0.3,8192,20,1,299,4,14
2022-05-24 06:44:59.906150144+01:00,-1.25,0.5,10,-1,-1.5,-1.75,1,1,32.26417392,3,15.42194792,0.108846014,1,1,1,1653371093,1,0,0,0,0,0,5,56.429188,10.21237,1,1,0.772453704,-3.896064815,28.00393519,0.2,0.2,0.3,8192,20,1,299,4,14
2022-05-24 06:45:00.007149824+01:00,-1.375,0.375,10.25,0,-1.25,-1.5,1,1,32.17268381,3,15.38220255,0.108439412,1,1,1,1653371093,1,0,0,0,0,0,5,56.429188,10.21237,1,1,0.701298309,-3.885899758,28.01410024,0.2,0.2,0.3,8192,20,1,299,4,14
2022-05-24 06:45:00.109200128+01:00,-1.375,0.375,9.875,0.25,-0.5,-1,1,1,32.08024256,3,15.34204398,0.108028583,1,1,1,1653371093,1,0,0,0,0,0,5,56.429188,10.21237,1,1,0.62940318,-3.875629026,28.02437097,0.2,0.2,0.3,8192,20,1,299,4,14
2022-05-24 06:45:00.210200064+01:00,-1.25,0.875,10.75,-0.5,1,-0.25,1,1,31.98875245,3,15.30229861,0.107621981,1,1,1,1653371093,1,0,0,0,0,0,5,56.429188,10.21237,1,1,0.558247786,-3.865463969,28.03453603,0.2,0.2,0.3,8192,20,1,299,4,14
2022-05-24 06:45:00.311200+01:00,-1.375,0.5,10.25,1.75,0.25,0,1,1,31.89726234,3,15.26255324,0.107215378,1,1,1,1653371093,1,0,0,0,0,0,5,56.429188,10.21237,1,1,0.487092391,-3.855298913,28.04470109,0.2,0.2,0.3,8192,20,1,299,4,14
2022-05-24 06:45:00.414200064+01:00,-1.375,0.875,10.25,2.25,-0.5,-0.25,1,1,31.80396055,3,15.22202083,0.106800725,1,1,1,1653371094,1,0,0,0,0,0,5,56.429188,10.21237,1,1,0.414527979,-3.844932568,28.05506743,0.2,0.2,0.3,8192,20,1,299,4,14
2022-05-24 06:45:00.516200192+01:00,-1,1.125,9.875,-1.75,-0.5,-0.5,1,1,31.71156459,3,15.18188194,0.106390097,1,1,1,1653371094,1,0,0,0,0,0,5,56.429188,10.21237,1,1,0.342668076,-3.834666868,28.06533313,0.2,0.2,0.3,8192,20,1,299,4,14
2022-05-24 06:45:00.621200128+01:00,-1.125,0.625,9.875,0,0.25,-1.5,1,1,31.61645111,3,15.1405625,0.105967391,1,1,1,1653371094,1,0,0,0,0,0,5,56.429188,10.21237,1,1,0.268694646,-3.824099235,28.07590076,0.2,0.2,0.3,8192,20,1,299,4,14
2022-05-24 06:45:00.722249984+01:00,-1.25,0.5,9.375,-0.5,0.5,-2.25,1,1,31.52491571,3,15.10079745,0.105560588,1,1,1,1653371094,1,0,0,0,0,0,5,56.429188,10.21237,1,1,0.197504026,-3.813929147,28.08607085,0.2,0.2,0.3,8192,20,1,299,4,14
2022-05-24 06:45:00.823200+01:00,-1.25,0.125,9.75,-0.75,-1.75,-2.25,1,1,31.43347089,3,15.06107176,0.105154187,1,1,1,1653371094,1,0,0,0,0,0,5,56.429188,10.21237,1,1,0.126383857,-3.803769122,28.09623088,0.2,0.2,0.3,8192,20,1,299,4,14
2022-05-24 06:45:00.858949888+01:00,-1.295576237,0.125,10.02345742,-0.203085161,-1.294237634,-1.97654258,1,1,31.40108701,3,15.04700347,0.105010266,1,1,1,1653371094,1,0,0,0,0,0,5,56.429188,10.21237,1,1,0.101197665,-3.800171095,28.0998289,0.2,0.2,0.3,8192,20,1,299,4,13
2022-05-24 06:45:00.859350016+01:00,-1.296086181,0.125,10.02651708,-0.196965834,-1.289138195,-1.973482917,1,1,31.40072467,3,15.04684606,0.105008655,1,1,1,1653371094,1,0,0,0,0,0,5,56.429188,10.21237,1,1,0.100915862,-3.800130837,28.09986916,0.2,0.2,0.3,8192,20,1,299,4,13
2022-05-24 06:45:00.859849984+01:00,-1.29672361,0.125,10.03034166,-0.189316675,-1.282763896,-1.969658338,1,1,31.40027175,3,15.04664931,0.105006643,1,1,1,1653371094,1,0,0,0,0,0,5,56.429188,10.21237,1,1,0.100563607,-3.800080515,28.09991948,0.2,0.2,0.3,8192,20,1,299,4,13
2022-05-24 06:45:00.860150016+01:00,-1.297106068,0.125,10.03263641,-0.18472718,-1.278939317,-1.96736359,1,1,31.4,3,15.04653125,0.105005435,1,1,1,1653371094,1,0,0,0,0,0,5,56.429188,10.21237,1,1,0.100352254,-3.800050322,28.09994968,0.2,0.2,0.3,8192,20,1,299,4,13
2022-05-24 06:45:00.860649984+01:00,-1.297743498,0.125,10.03646099,-0.177078021,-1.272565018,-1.963539011,1,1,31.39960084,3,15.04633449,0.105003422,1,1,1,1653371094,1,0,0,0,0,0,5,56.429188,10.21237,1,1,0.1,-3.8,28.1,0.2,0.2,0.3,8192,20,1,299,4,13
2022-05-24 06:45:00.861149952+01:00,-1.298380928,0.125,10.04028557,-0.169428863,-1.266190719,-1.959714431,1,1,31.39920168,3,15.04613773,0.105001409,1,1,1,1653371094,1,0,0,0,0,0,5,56.429188,10.21237,1,1,0.099650733,-3.799850314,28.10034927,0.2,0.2,0.3,8207,20,1,299,4,13
2022-05-24 06:45:00.861499904+01:00,-1.298827129,0.125,10.04296277,-0.164074452,-1.26172871,-1.957037226,1,1,31.39892226,3,15.046,0.105,1,1,1,1653371094,1,0,0,0,0,0,5,56.429188,10.21237,1,1,0.099406247,-3.799745534,28.10059375,0.2,0.2,0.3,8207,20,1,299,4,13
2022-05-24 06:45:00.861799936+01:00,-1.299209587,0.125,10.04525752,-0.159484957,-1.257904131,-1.954742478,1,1,31.39868277,3,15.04589911,0.104998803,1,1,1,1653371094,1,0,0,0,0,0,5,56.429188,10.21237,1,1,0.099196687,-3.799655723,28.10080331,0.2,0.2,0.3,8207,20,1,299,4,13
2022-05-24 06:45:00.921250048+01:00,-1.375,0.125,10.5,0.75,-0.5,-1.5,1,1,31.35122243,3,15.02590645,0.104761501,1,1,1,1653371094,1,0,0,0,0,0,5,56.429188,10.21237,1,1,0.057668895,-3.781858098,28.1423311,0.2,0.2,0.3,8207,20,1,299,4,13
2022-05-24 06:45:01.024250112+01:00,-1.25,0.375,9.875,-0.5,0,-1.5,1,1,31.26899511,3,14.99126819,0.104350364,1,1,1,1653371094,1,0,0,0,0,0,5,56.429188,10.21237,1,1,-0.014280012,-3.751022852,28.21428001,0.2,0.2,0.3,8207,20,1,299,4,13
2022-05-24 06:45:01.128249856+01:00,-1.25,0.5,9.75,1.25,-1.5,-1.5,1,1,31.18596946,3,14.95629363,0.103935236,1,1,1,1653371094,1,0,0,0,0,0,5,56.429188,10.21237,1,1,-0.086927452,-3.719888235,28.28692745,0.2,0.2,0.3,8207,20,1,299,4,13
2022-05-24 06:45:01.227250176+01:00,-1.375,0.25,10.375,-0.75,-0.75,-1.75,1,1,31.10693544,3,14.92300055,0.103540066,1,1,1,1653371094,1,0,0,0,0,0,5,56.429188,10.21237,1,1,-0.156082227,-3.690250474,28.35608223,0.2,0.2,0.3,8207,20,1,299,4,13
2022-05-24 06:45:01.330300160+01:00,-1.125,0.25,10.125,0,-2.5,-1.5,1,1,31.0246682,3,14.88834547,0.10312873,1,1,1,1653371094,1,0,0,0,0,0,5,56.429188,10.21237,1,1,-0.228066061,-3.659400259,28.42806606,0.2,0.2,0.3,8207,20,1,299,4,13
2022-05-24 06:45:01.430249984+01:00,-1.25,0.625,10.75,-0.75,-1.75,-1.5,1,1,30.94487576,3,14.85473291,0.102729767,1,1,1,1653371095,1,0,0,0,0,0,5,56.429188,10.21237,1,1,-0.297884443,-3.629478096,28.49788444,0.2,0.2,0.3,8207,20,1,299,4,13
2022-05-24 06:45:01.532300032+01:00,-1.25,0.375,10.125,0.25,0.5,-1.5,1,1,30.86340685,3,14.82041413,0.102322423,1,1,1,1653371095,1,0,0,0,0,0,5,56.429188,10.21237,1,1,-0.369169744,-3.598927253,28.56916974,0.2,0.2,0.3,8207,20,1,299,4,13
2022-05-24 06:45:01.637299968+01:00,-1.25,0.375,9.5,-0.5,0.25,-1.5,1,1,30.77958288,3,14.78510328,0.101903303,1,1,1,1653371095,1,0,0,0,0,0,5,56.429188,10.21237,1,1,-0.442515717,-3.567493264,28.64251572,0.2,0.2,0.3,8207,20,1,299,4,13
2022-05-24 06:45:01.737299968+01:00,-1.125,0.5,9.5,-0.75,0,-1.25,1,1,30.69975052,3,14.7514739,0.101504141,1,1,1,1653371095,1,0,0,0,0,0,5,56.429188,10.21237,1,1,-0.512369025,-3.537556132,28.71236903,0.2,0.2,0.3,8207,20,1,299,4,13
2022-05-24 06:45:01.842299904+01:00,-1.25,0.375,10.125,-1.25,-1.25,-2.25,1,1,30.61592655,3,14.71616306,0.101085021,1,1,1,1653371095,1,0,0,0,0,0,5,56.429188,10.21237,1,1,-0.585714999,-3.506122143,28.785715,0.2,0.2,0.3,8207,20,1,299,4,13
2022-05-24 06:45:01.860999936+01:00,-1.25,0.303480367,10.10116012,-1.011601224,-1.34535951,-2.297679755,1,1,30.6009979,3,14.70987436,0.101010378,1,1,1,1653371095,1,0,0,0,0,0,5,56.429188,10.21237,1,1,-0.598777567,-3.5005239,28.79877757,0.2,0.2,0.3,8207,20,1,299,4,14
2022-05-24 06:45:01.861449984+01:00,-1.25,0.301759306,10.10058644,-1.005864355,-1.347654258,-2.298827129,1,1,30.60063866,3,14.70972303,0.101008582,1,1,1,1653371095,1,0,0,0,0,0,5,56.429188,10.21237,1,1,-0.599091907,-3.500389183,28.79909191,0.2,0.2,0.3,8207,20,1,299,4,14
2022-05-24 06:45:01.861900032+01:00,-1.25,0.300038246,10.10001275,-1.000127486,-1.349949006,-2.299974503,1,1,30.60027941,3,14.7095717,0.101006786,1,1,1,1653371095,1,0,0,0,0,0,4,56.429188,10.21237,1,1,-0.599406247,-3.500254466,28.79940625,0.2,0.2,0.3,8207,20,1,299,4,14
2022-05-24 06:45:01.862249984+01:00,-1.25,0.298699643,10.09956655,-0.995665477,-1.351733809,-2.300866905,1,1,30.6,3,14.709454,0.101005389,1,1,1,1653371095,1,0,0,0,0,0,4,56.429188,10.21237,1,1,-0.599650733,-3.500149686,28.79965073,0.2,0.2,0.3,8207,20,1,299,4,14
2022-05-24 06:45:01.862749952+01:00,-1.25,0.296787353,10.09892912,-0.989291178,-1.354283529,-2.302141764,1,1,30.5996599,3,14.70928585,0.101003393,1,1,1,1653371095,1,0,0,0,0,0,4,56.429188,10.21237,1,1,-0.6,-3.5,28.8,0.2,0.2,0.3,8207,20,1,299,4,14
2022-05-24 06:45:01.863200+01:00,-1.25,0.295066293,10.09835543,-0.983554309,-1.356578276,-2.303289138,1,1,30.5993538,3,14.70913452,0.101001597,1,1,1,1653371095,1,0,0,0,0,0,4,56.429188,10.21237,1,1,-0.600393567,-3.500349837,28.80056849,0.2,0.2,0.3,8221,20,1,299,4,14
2022-05-24 06:45:01.863600128+01:00,-1.25,0.293536461,10.09784549,-0.97845487,-1.358618052,-2.304309026,1,1,30.59908172,3,14.709,0.101,1,1,1,1653371095,1,0,0,0,0,0,4,56.429188,10.21237,1,1,-0.600743404,-3.500660804,28.80107381,0.2,0.2,0.3,8221,20,1,299,4,14
2022-05-24 06:45:01.863899904+01:00,-1.25,0.292389087,10.09746303,-0.974630291,-1.360147884,-2.305073942,1,1,30.59887766,3,14.70887202,0.100998542,1,1,1,1653371095,1,0,0,0,0,0,4,56.429188,10.21237,1,1,-0.601005782,-3.500894028,28.8014528,0.2,0.2,0.3,8221,20,1,299,4,14
2022-05-24 06:45:01.940349952+01:00,-1.25,0,10,0,-1.75,-2.5,1,1,30.54687591,3,14.6762595,0.100627101,1,1,1,1653371095,1,0,0,0,0,0,4,56.429188,10.21237,1,1,-0.667868422,-3.560327487,28.89803217,0.2,0.2,0.3,8221,20,1,299,4,14
2022-05-24 06:45:02.040349952+01:00,-1.125,0,11,-1.75,-0.5,-2.5,1,1,30.47885531,3,14.63360086,0.10014124,1,1,1,1653371095,1,0,0,0,0,0,4,56.429188,10.21237,1,1,-0.755327729,-3.638069093,29.02436228,0.2,0.2,0.3,8221,20,1,299,4,14
2022-05-24 06:45:02.139350016+01:00,-1.25,-0.125,10.5,-0.25,1.5,-2,1,1,30.41151492,3,14.59136882,0.099660237,1,1,1,1653371095,1,0,0,0,0,0,4,56.429188,10.21237,1,1,-0.841912444,-3.715033283,29.14942909,0.2,0.2,0.3,8221,20,1,299,4,14
2022-05-24 06:45:02.242350080+01:00,-1.25,0.125,9.5,-0.25,3,-2,1,1,30.3414537,3,14.54743042,0.0991598,1,1,1,1653371095,1,0,0,0,0,0,4,56.429188,10.21237,1,1,-0.93199553,-3.795107138,29.2795491,0.2,0.2,0.3,8221,20,1,299,4,14
2022-05-24 06:45:02.346350080+01:00,-1.375,-0.125,9,-1.25,2.25,-2.5,1,1,30.27071227,3,14.50306545,0.098654504,1,1,1,1653371095,1,0,0,0,0,0,4,56.429188,10.21237,1,1,-1.022953209,-3.875958408,29.41093241,0.2,0.2,0.3,8221,20,1,299,4,14
2022-05-24 06:45:02.447400192+01:00,-1.625,0,8.625,1.5,-0.25,-2.5,1,1,30.20197746,3,14.4599589,0.098163541,1,1,1,1653371096,1,0,0,0,0,0,4,56.429188,10.21237,1,1,-1.111330839,-3.954516301,29.53858899,0.2,0.2,0.3,8221,20,1,299,4,14
2022-05-24 06:45:02.547399936+01:00,-1.875,-0.125,9.875,0.75,0.25,-2.25,1,1,30.13395686,3,14.41730026,0.09767768,1,1,1,1653371096,1,0,0,0,0,0,4,56.429188,10.21237,1,1,-1.198790146,-4.032257908,29.6649191,0.2,0.2,0.3,8221,20,1,299,4,14
2022-05-24 06:45:02.655399936+01:00,-1.875,-0.25,10,2.25,-0.25,-2,1,1,30.06049461,3,14.37122894,0.097152949,1,1,1,1653371096,1,0,0,0,0,0,4,56.429188,10.21237,1,1,-1.293246198,-4.116218843,29.80135562,0.2,0.2,0.3,8221,20,1,299,4,14
2022-05-24 06:45:02.755399936+01:00,-1.75,0.125,9.5,2.5,1.75,-2,1,1,29.99247401,3,14.3285703,0.096667088,1,1,1,1653371096,1,0,0,0,0,0,4,56.429188,10.21237,1,1,-1.380705505,-4.193960449,29.92768573,0.2,0.2,0.3,8221,20,1,299,4,14
2022-05-24 06:45:02.861399808+01:00,-1.875,0,9.625,2.75,-0.5,-2,1,1,29.92037217,3,14.28335215,0.096152075,1,1,1,1653371096,1,0,0,0,0,0,4,56.429188,10.21237,1,1,-1.473412371,-4.276366552,30.06159565,0.2,0.2,0.3,8221,20,1,299,4,14
2022-05-24 06:45:02.890150144+01:00,-1.796016484,0.039491758,9.901442308,2.276098901,-0.657967033,-2.078983516,1,1,29.90081625,3,14.2710878,0.096012389,1,1,1,1653371096,1,0,0,0,0,0,4,56.429188,10.21237,1,1,-1.498556921,-4.298717263,30.09791555,0.2,0.2,0.3,8221,20,1,299,4,14
2022-05-24 06:45:02.890550016+01:00,-1.794917582,0.040041209,9.905288462,2.269505495,-0.660164835,-2.080082418,1,1,29.90054416,3,14.27091716,0.096010446,1,1,1,1653371096,1,0,0,0,0,0,4,56.429188,10.21237,1,1,-1.498906759,-4.29902823,30.09842087,0.2,0.2,0.3,8221,20,1,299,4,14
2022-05-24 06:45:02.891000064+01:00,-1.793681319,0.040659341,9.909615385,2.262087912,-0.662637363,-2.081318681,1,1,29.90023807,3,14.2707252,0.09600826,1,1,1,1653371096,1,0,0,0,0,0,4,56.429188,10.21237,1,1,-1.499300326,-4.299378067,30.09898936,0.2,0.2,0.3,8221,20,1,299,4,14
2022-05-24 06:45:02.891350016+01:00,-1.79271978,0.04114011,9.912980769,2.256318681,-0.66456044,-2.08228022,1,1,29.9,3,14.27057589,0.096006559,1,1,1,1653371096,1,0,0,0,0,0,4,56.429188,10.21237,1,1,-1.499606433,-4.299650163,30.09943151,0.2,0.2,0.3,8221,20,1,299,4,14
2022-05-24 06:45:02.891799808+01:00,-1.791483516,0.041758242,9.917307692,2.248901099,-0.667032967,-2.083516484,1,1,29.89961705,3,14.27038393,0.096004373,1,1,1,1653371096,1,0,0,0,0,0,4,56.429188,10.21237,1,1,-1.5,-4.3,30.1,0.2,0.2,0.3,8221,20,1,299,4,14
2022-05-24 06:45:02.892299776+01:00,-1.79010989,0.042445055,9.922115385,2.240659341,-0.66978022,-2.08489011,1,1,29.89919155,3,14.27017063,0.096001943,1,1,1,1653371096,1,0,0,0,0,0,4,56.429188,10.21237,1,1,-1.499324206,-4.299874853,30.10015018,0.2,0.2,0.3,8236,20,1,299,4,14
2022-05-24 06:45:02.892699904+01:00,-1.789010989,0.042994505,9.925961538,2.234065934,-0.671978022,-2.085989011,1,1,29.89885115,3,14.27,0.096,1,1,1,1653371096,1,0,0,0,0,0,4,56.429188,10.21237,1,1,-1.498783571,-4.299774735,30.10027032,0.2,0.2,0.3,8236,20,1,299,4,14
2022-05-24 06:45:02.892950016+01:00,-1.788324176,0.043337912,9.928365385,2.229945055,-0.673351648,-2.086675824,1,1,29.8986384,3,14.26988211,0.095999625,1,1,1,1653371096,1,0,0,0,0,0,4,56.429188,10.21237,1,1,-1.498445674,-4.299712162,30.10034541,0.2,0.2,0.3,8236,20,1,299,4,14
2022-05-24 06:45:02.952399872+01:00,-1.625,0.125,10.5,1.25,-1,-2.25,1,1,29.84804645,3,14.24184752,0.095910342,1,1,1,1653371096,1,0,0,0,0,0,4,56.429188,10.21237,1,1,-1.41809376,-4.284832178,30.11820139,0.2,0.2,0.3,8236,20,1,299,4,14
2022-05-24 06:45:03.057449984+01:00,-1.75,0,11.125,4,-1.25,-2,1,1,29.75864891,3,14.19230952,0.095752578,1,1,1,1653371096,1,0,0,0,0,0,4,56.429188,10.21237,1,1,-1.276109429,-4.258538783,30.14975346,0.2,0.2,0.3,8236,20,1,299,4,14
2022-05-24 06:45:03.160450048+01:00,-1.75,0.25,10.5,1,0,-2,1,1,29.67099592,3,14.14373824,0.095597892,1,1,1,1653371096,1,0,0,0,0,0,4,56.429188,10.21237,1,1,-1.136895853,-4.232758491,30.18068981,0.2,0.2,0.3,8236,20,1,299,4,14
2022-05-24 06:45:03.259449856+01:00,-1.5,0.25,9.125,1.75,0.75,-2,1,1,29.58674693,3,14.09705321,0.095449214,1,1,1,1653371096,1,0,0,0,0,0,4,56.429188,10.21237,1,1,-1.003088629,-4.207979376,30.21042475,0.2,0.2,0.3,8236,20,1,299,4,14
2022-05-24 06:45:03.361499904+01:00,-1.625,0.375,9.75,2.5,-0.25,-2,1,1,29.49990239,3,14.04892992,0.095295955,1,1,1,1653371096,1,0,0,0,0,0,4,56.429188,10.21237,1,1,-0.865159062,-4.182436863,30.24107576,0.2,0.2,0.3,8236,20,1,299,4,14
2022-05-24 06:45:03.460450048+01:00,-1.375,0.125,9.5,1.75,-2.75,-1.75,1,1,29.41569594,3,14.00226847,0.095147352,1,1,1,1653371097,1,0,0,0,0,0,4,56.429188,10.21237,1,1,-0.731419418,-4.157670263,30.27079568,0.2,0.2,0.3,8236,20,1,299,4,14
2022-05-24 06:45:03.566450176+01:00,-1.375,0.5,10,1.5,-2.25,-1.25,1,1,29.32548995,3,13.95228249,0.094988161,1,1,1,1653371097,1,0,0,0,0,0,4,56.429188,10.21237,1,1,-0.588151078,-4.131139088,30.30263309,0.2,0.2,0.3,8236,20,1,299,4,14
2022-05-24 06:45:03.670449920+01:00,-1.125,0.625,10.375,4,-1.5,-1.5,1,1,29.23698596,3,13.90323964,0.094831973,1,1,1,1653371097,1,0,0,0,0,0,4,56.429188,10.21237,1,1,-0.447585913,-4.105108502,30.3338698,0.2,0.2,0.3,8236,20,1,299,4,14
2022-05-24 06:45:03.771500032+01:00,-1.375,0.375,10.625,0,-0.5,-1.75,1,1,29.15099242,3,13.85558791,0.094680216,1,1,1,1653371097,1,0,0,0,0,0,4,56.429188,10.21237,1,1,-0.311007934,-4.079816284,30.36422046,0.2,0.2,0.3,8236,20,1,299,4,14
2022-05-24 06:45:03.876499968+01:00,-1.625,0.375,10.75,4.75,1.5,-0.75,1,1,29.06163742,3,13.80607349,0.094522527,1,1,1,1653371097,1,0,0,0,0,0,4,56.429188,10.21237,1,1,-0.169091182,-4.053535404,30.39575752,0.2,0.2,0.3,8236,20,1,299,4,14
2022-05-24 06:45:03.971500032+01:00,-1.25,0.5,9.625,1.25,-1.5,-1.25,1,1,28.98079243,3,13.76127473,0.094379856,1,1,1,1653371097,1,0,0,0,0,0,4,56.429188,10.21237,1,1,-0.040690311,-4.029757465,30.42429104,0.2,0.2,0.3,8236,20,1,299,4,14
2022-05-24 06:45:04.071549952+01:00,-1.25,0.625,10.5,1,-1.75,-0.75,1,1,28.89564989,3,13.71409456,0.094229601,1,1,1,1653371097,1,0,0,0,0,0,4,56.429188,10.21237,1,1,0.09453608,-4.004715541,30.45434135,0.2,0.2,0.3,8236,20,1,299,4,14
2022-05-24 06:45:04.173500160+01:00,-1.25,0.75,10.75,2.5,-2,-0.5,1,1,28.80889045,3,13.66601842,0.094076492,1,1,1,1653371097,1,0,0,0,0,0,4,56.429188,10.21237,1,1,0.232330488,-3.979198058,30.48496233,0.2,0.2,0.3,8236,20,1,299,4,14
2022-05-24 06:45:04.274550016+01:00,-1.375,0.625,9.875,2.25,0.75,-0.5,1,1,28.7228969,3,13.61836669,0.093924735,1,1,1,1653371097,1,0,0,0,0,0,4,56.429188,10.21237,1,1,0.368908467,-3.953905839,30.51531299,0.2,0.2,0.3,8236,20,1,299,4,14
2022-05-24 06:45:04.376549888+01:00,-1.25,0.75,9.75,2.25,0.25,0.75,1,1,28.63609491,3,13.57026697,0.093771551,1,1,1,1653371097,1,0,0,0,0,0,4,56.429188,10.21237,1,1,0.506770455,-3.928375842,30.54594899,0.2,0.2,0.3,8236,20,1,299,4,14
2022-05-24 06:45:04.477550080+01:00,-1.25,1.125,9.375,1.5,-0.75,1.5,1,1,28.55014392,3,13.52263882,0.093619869,1,1,1,1653371098,1,0,0,0,0,0,4,56.429188,10.21237,1,1,0.643280855,-3.903096138,30.57628463,0.2,0.2,0.3,8236,20,1,299,4,14
2022-05-24 06:45:04.581549824+01:00,-1.625,1.5,10.125,1.25,-2.25,2.25,1,1,28.46163993,3,13.47359597,0.093463681,1,1,1,1653371098,1,0,0,0,0,0,4,56.429188,10.21237,1,1,0.783846019,-3.877065552,30.60752134,0.2,0.2,0.3,8236,20,1,299,4,14
2022-05-24 06:45:04.689600+01:00,-1.625,1.75,10.375,1.75,-4,2.75,1,1,28.36968939,3,13.42264327,0.093301412,1,1,1,1653371098,1,0,0,0,0,0,4,56.429188,10.21237,1,1,0.929885115,-3.850021275,30.63997447,0.2,0.2,0.3,8236,20,1,299,4,14
2022-05-24 06:45:04.787549952+01:00,-1.75,1.625,11.125,0.75,-2.75,3.25,1,1,28.28633394,3,13.37645339,0.09315431,1,1,1,1653371098,1,0,0,0,0,0,4,56.429188,10.21237,1,1,1.062273171,-3.825504968,30.66939404,0.2,0.2,0.3,8236,20,1,299,4,14
2022-05-24 06:45:04.887749888+01:00,-1.520288858,1.854711142,10.55072215,0.290577717,-1.601444292,4.168844567,1,1,28.20106375,3,13.32920249,0.09300383,1,1,1,1653371098,1,0,0,0,0,0,4,56.429188,10.21237,1,1,1.1977023,-3.8004255,30.6994894,0.2,0.2,0.3,8236,20,1,299,4,14
2022-05-24 06:45:04.888150016+01:00,-1.519371848,1.855628152,10.54842962,0.288743696,-1.596859239,4.172512609,1,1,28.20072335,3,13.32901387,0.093003229,1,1,1,1653371098,1,0,0,0,0,0,4,56.429188,10.21237,1,1,1.198242935,-3.800325382,30.69960954,0.2,0.2,0.3,8236,20,1,299,4,14
2022-05-24 06:45:04.888649984+01:00,-1.518225585,1.856774415,10.54556396,0.286451169,-1.591127923,4.177097662,1,1,28.20029785,3,13.32877808,0.093002478,1,1,1,1653371098,1,0,0,0,0,0,4,56.429188,10.21237,1,1,1.19891873,-3.800200235,30.69975972,0.2,0.2,0.3,8236,20,1,299,4,14
2022-05-24 06:45:04.888999936+01:00,-1.5174232,1.8575768,10.543558,0.284846401,-1.587116002,4.180307199,1,1,28.2,3,13.32861304,0.093001952,1,1,1,1653371098,1,0,0,0,0,0,4,56.429188,10.21237,1,1,1.199391785,-3.800112632,30.69986484,0.2,0.2,0.3,8236,20,1,299,4,14
2022-05-24 06:45:04.889449984+01:00,-1.516391564,1.858608436,10.54097891,0.282783127,-1.581957818,4.184433746,1,1,28.19973336,3,13.32840083,0.093001277,1,1,1,1653371098,1,0,0,0,0,0,4,56.429188,10.21237,1,1,1.2,-3.8,30.7,0.2,0.2,0.3,8236,20,1,299,4,14
2022-05-24 06:45:04.889900032+01:00,-1.515359927,1.859640073,10.53839982,0.280719853,-1.576799633,4.188560293,1,1,28.19946672,3,13.32818863,0.093000601,1,1,1,1653371098,1,0,0,0,0,0,4,56.429188,10.21237,1,1,1.199777811,-3.799600059,30.69711154,0.2,0.2,0.3,8263,20,1,299,4,14
2022-05-24 06:45:04.890300160+01:00,-1.514442916,1.860557084,10.53610729,0.278885832,-1.57221458,4.192228336,1,1,28.19922971,3,13.328,0.093,1,1,1,1653371098,1,0,0,0,0,0,4,56.429188,10.21237,1,1,1.199580309,-3.799244556,30.69454402,0.2,0.2,0.3,8263,20,1,299,4,14
2022-05-24 06:45:04.890550016+01:00,-1.513869785,1.861130215,10.53467446,0.277739569,-1.569348923,4.194520862,1,1,28.19908157,3,13.32783385,0.09300395,1,1,1,1653371098,1,0,0,0,0,0,4,56.429188,10.21237,1,1,1.199456871,-3.799022367,30.69293932,0.2,0.2,0.3,8263,20,1,299,4,14
2022-05-24 06:45:04.896600064+01:00,-1.5,1.875,10.5,0.25,-1.5,4.25,1,1,28.19549674,3,13.32381306,0.093099541,1,1,1,1653371098,1,0,0,0,0,0,4,56.429188,10.21237,1,1,1.196469659,-3.793645386,30.65410556,0.2,0.2,0.3,8263,20,1,299,4,14
2022-05-24 06:45:04.988600064+01:00,-1.375,1.875,10.25,-0.25,-0.5,5.25,1,1,28.14098361,3,13.26267052,0.094553153,1,1,1,1653371098,1,0,0,0,0,0,4,56.429188,10.21237,1,1,1.15104429,-3.711879722,30.06357577,0.2,0.2,0.3,8263,20,1,299,4,14
2022-05-24 06:45:05.087599872+01:00,-1.375,1.875,9.75,1.75,2.25,5.75,1,1,28.08232273,3,13.19687582,0.096117365,1,1,1,1653371098,1,0,0,0,0,0,4,56.429188,10.21237,1,1,1.102162643,-3.623892757,29.42811435,0.2,0.2,0.3,8263,20,1,299,4,14
2022-05-24 06:45:05.190650112+01:00,-1.375,2.625,9.875,-4.5,-4.5,7,1,1,28.0212621,3,13.12838952,0.097745569,1,1,1,1653371098,1,0,0,0,0,0,4,56.429188,10.21237,1,1,1.051281292,-3.532306325,28.76665679,0.2,0.2,0.3,8263,20,1,299,4,14
2022-05-24 06:45:05.291650048+01:00,-1.5,2.25,11.5,-1.75,-2.5,7.75,1,1,27.96141616,3,13.06126564,0.099341382,1,1,1,1653371098,1,0,0,0,0,0,4,56.429188,10.21237,1,1,1.001412136,-3.442541846,28.11835777,0.2,0.2,0.3,8263,20,1,299,4,14
2022-05-24 06:45:05.394649856+01:00,-1.375,2.75,11.75,-2.5,2.25,7.75,1,1,27.90038515,3,12.99281257,0.100968795,1,1,1,1653371099,1,0,0,0,0,0,4,56.429188,10.21237,1,1,0.950555473,-3.350999852,27.45722115,0.2,0.2,0.3,8263,20,1,299,4,14
2022-05-24 06:45:05.495650048+01:00,-1.25,2.875,8.75,-0.5,3.75,8.25,1,1,27.84053921,3,12.92568869,0.102564608,1,1,1,1653371099,1,0,0,0,0,0,4,56.429188,10.21237,1,1,0.900686318,-3.261235373,26.80892213,0.2,0.2,0.3,8263,20,1,299,4,14
2022-05-24 06:45:05.594650112+01:00,-1.25,2.375,9.125,0.5,1.75,9,1,1,27.78187833,3,12.85989399,0.10412882,1,1,1,1653371099,1,0,0,0,0,0,4,56.429188,10.21237,1,1,0.851804671,-3.173248408,26.17346072,0.2,0.2,0.3,8263,20,1,299,4,14
2022-05-24 06:45:05.703650048+01:00,-1.25,3,8.75,1.25,-2,9.5,1,1,27.71729212,3,12.78745336,0.105851034,1,1,1,1653371099,1,0,0,0,0,0,4,56.429188,10.21237,1,1,0.797985484,-3.076373871,25.47381129,0.2,0.2,0.3,8263,20,1,299,4,14
2022-05-24 06:45:05.804649984+01:00,-1.25,3,10.125,1.75,-2.25,10,1,1,27.65744618,3,12.72032948,0.107446847,1,1,1,1653371099,1,0,0,0,0,0,4,56.429188,10.21237,1,1,0.748116328,-2.986609391,24.82551227,0.2,0.2,0.3,8263,20,1,299,4,14
2022-05-24 06:45:05.900399872+01:00,-1.136011905,3.22797619,10.69494048,0.610119048,-2.02202381,10.22797619,1,1,27.60071104,3,12.65669471,0.10895971,1,1,1,1653371099,1,0,0,0,0,0,4,56.429188,10.21237,1,1,0.700839382,-2.901510887,24.21091196,0.2,0.2,0.3,8263,20,1,299,4,15
2022-05-24 06:45:05.900800+01:00,-1.135535714,3.228928571,10.69732143,0.605357143,-2.021071429,10.22892857,1,1,27.60047403,3,12.65642887,0.10896603,1,1,1,1653371099,1,0,0,0,0,0,4,56.429188,10.21237,1,1,0.70064188,-2.901155384,24.20834444,0.2,0.2,0.3,8263,20,1,299,4,15
2022-05-24 06:45:05.901299968+01:00,-1.134940476,3.230119048,10.70029762,0.599404762,-2.019880952,10.23011905,1,1,27.60017776,3,12.65609658,0.10897393,1,1,1,1653371099,1,0,0,0,0,0,4,56.429188,10.21237,1,1,0.700395003,-2.900711006,24.20513504,0.2,0.2,0.3,8263,20,1,299,4,15
2022-05-24 06:45:05.901600+01:00,-1.134583333,3.230833333,10.70208333,0.595833333,-2.019166667,10.23083333,1,1,27.6,3,12.6558972,0.10897867,1,1,1,1653371099,1,0,0,0,0,0,4,56.429188,10.21237,1,1,0.700246877,-2.900444379,24.2032094,0.2,0.2,0.3,8263,20,1,299,4,15
2022-05-24 06:45:05.902099968+01:00,-1.133988095,3.23202381,10.70505952,0.589880952,-2.01797619,10.23202381,1,1,27.59979398,3,12.6555649,0.10898657,1,1,1,1653371099,1,0,0,0,0,0,4,56.429188,10.21237,1,1,0.7,-2.9,24.2,0.2,0.2,0.3,8263,20,1,299,4,15
2022-05-24 06:45:05.902599936+01:00,-1.133392857,3.233214286,10.70803571,0.583928571,-2.016785714,10.23321429,1,1,27.59958797,3,12.65523261,0.10899447,1,1,1,1653371099,1,0,0,0,0,0,4,56.429188,10.21237,1,1,0.700618079,-2.899690961,24.19366469,0.2,0.2,0.3,8276,20,1,299,4,15
2022-05-24 06:45:05.902950144+01:00,-1.13297619,3.234047619,10.71011905,0.579761905,-2.015952381,10.23404762,1,1,27.59944376,3,12.655,0.109,1,1,1,1653371099,1,0,0,0,0,0,4,56.429188,10.21237,1,1,0.701050734,-2.899474633,24.18922998,0.2,0.2,0.3,8276,20,1,299,4,15
2022-05-24 06:45:05.903249920+01:00,-1.132619048,3.234761905,10.71190476,0.576190476,-2.015238095,10.2347619,1,1,27.59932015,3,12.65485352,0.10900309,1,1,1,1653371099,1,0,0,0,0,0,4,56.429188,10.21237,1,1,0.701421581,-2.899289209,24.18542879,0.2,0.2,0.3,8276,20,1,299,4,15
2022-05-24 06:45:05.909650176+01:00,-1.125,3.25,10.75,0.5,-2,10.25,1,1,27.59668315,3,12.65172851,0.109069019,1,1,1,1653371099,1,0,0,0,0,0,4,56.429188,10.21237,1,1,0.70933299,-2.895333505,24.10433685,0.2,0.2,0.3,8276,20,1,299,4,15
2022-05-24 06:45:06.001699840+01:00,-1.25,3,10.5,1.5,-0.25,11,1,1,27.55875567,3,12.60678213,0.110017255,1,1,1,1653371099,1,0,0,0,0,0,4,56.429188,10.21237,1,1,0.823121298,-2.838439351,22.9380067,0.2,0.2,0.3,8276,20,1,299,4,15
2022-05-24 06:45:06.105700096+01:00,-1.125,3.375,10.25,0.5,1,12,1,1,27.51590441,3,12.55600077,0.111088591,1,1,1,1653371099,1,0,0,0,0,0,4,56.429188,10.21237,1,1,0.951681689,-2.774159155,21.62026268,0.2,0.2,0.3,8276,20,1,299,4,15
2022-05-24 06:45:06.206749952+01:00,-1.125,3.625,9.125,2.25,-0.25,13,1,1,27.47426864,3,12.50665985,0.112129539,1,1,1,1653371099,1,0,0,0,0,0,4,56.429188,10.21237,1,1,1.076595416,-2.711702292,20.33989699,0.2,0.2,0.3,8276,20,1,299,4,15
2022-05-24 06:45:06.306749952+01:00,-0.875,4,9.25,2.5,0,13.75,1,1,27.43306551,3,12.45783163,0.11315967,1,1,1,1653371099,1,0,0,0,0,0,4,56.429188,10.21237,1,1,1.200211177,-2.649894412,19.07283544,0.2,0.2,0.3,8276,20,1,299,4,15
2022-05-24 06:45:06.409750016+01:00,-1,4,9.5,0.5,-1.25,13.25,1,1,27.39062629,3,12.40753855,0.114220706,1,1,1,1653371100,1,0,0,0,0,0,4,56.429188,10.21237,1,1,1.327535411,-2.586232295,17.76776204,0.2,0.2,0.3,8276,20,1,299,4,15
2022-05-24 06:45:06.511699968+01:00,-0.875,4,10.375,1.25,-2.75,12.75,1,1,27.3486197,3,12.35775818,0.115270925,1,1,1,1653371100,1,0,0,0,0,0,4,56.429188,10.21237,1,1,1.453561679,-2.52321916,16.47599279,0.2,0.2,0.3,8276,20,1,299,4,15
2022-05-24 06:45:06.614749952+01:00,-0.75,3.875,10.125,0.75,-1,12.5,1,1,27.30615987,3,12.30744069,0.116332475,1,1,1,1653371100,1,0,0,0,0,0,4,56.429188,10.21237,1,1,1.580947721,-2.45952614,15.17028586,0.2,0.2,0.3,8276,20,1,299,4,15
2022-05-24 06:45:06.716749824+01:00,-0.375,3.5,10.5,-0.5,-1.25,12.25,1,1,27.26413267,3,12.2576359,0.117383209,1,1,1,1653371100,1,0,0,0,0,0,4,56.429188,10.21237,1,1,1.707035797,-2.396482101,13.87788308,0.2,0.2,0.3,8276,20,1,299,4,15
2022-05-24 06:45:06.821750016+01:00,-0.5,3.75,10.125,-0.25,0,12,1,1,27.22086939,3,12.20636626,0.118464847,1,1,1,1653371100,1,0,0,0,0,0,4,56.429188,10.21237,1,1,1.836832346,-2.331583827,12.54746845,0.2,0.2,0.3,8276,20,1,299,4,15
2022-05-24 06:45:06.871099904+01:00,-0.370199895,3.620199895,9.930299842,1.177801157,-1.038400842,11.87019989,1,1,27.20053564,3,12.18226953,0.118973217,1,1,1,1653371100,1,0,0,0,0,0,4,56.429188,10.21237,1,1,1.897836724,-2.301081638,11.92217358,0.2,0.2,0.3,8276,20,1,299,4,15
2022-05-24 06:45:06.871550208+01:00,-0.369016307,3.619016307,9.928524461,1.190820621,-1.047869542,11.86901631,1,1,27.20035023,3,12.18204981,0.118977852,1,1,1,1653371100,1,0,0,0,0,0,4,56.429188,10.21237,1,1,1.898392995,-2.300803502,11.9164718,0.2,0.2,0.3,8276,20,1,299,4,15
2022-05-24 06:45:06.872049920+01:00,-0.36770121,3.61770121,9.926551815,1.205286691,-1.058390321,11.86770121,1,1,27.20014421,3,12.18180567,0.118983003,1,1,1,1653371100,1,0,0,0,0,0,4,56.429188,10.21237,1,1,1.899011074,-2.300494463,11.91013649,0.2,0.2,0.3,8276,20,1,299,4,15
2022-05-24 06:45:06.872400128+01:00,-0.366780642,3.616780642,9.925170963,1.215412941,-1.065754866,11.86678064,1,1,27.2,3,12.18163477,0.118986608,1,1,1,1653371100,1,0,0,0,0,0,4,56.429188,10.21237,1,1,1.899443729,-2.300278135,11.90570178,0.2,0.2,0.3,8276,20,1,299,4,15
2022-05-24 06:45:06.872849920+01:00,-0.365597054,3.615597054,9.923395581,1.228432404,-1.075223567,11.86559705,1,1,27.19991022,3,12.18141504,0.118991244,1,1,1,1653371100,1,0,0,0,0,0,4,56.429188,10.21237,1,1,1.9,-2.3,11.9,0.2,0.2,0.3,8276,20,1,299,4,15
2022-05-24 06:45:06.873349888+01:00,-0.364281957,3.614281957,9.921422935,1.242898474,-1.085744345,11.86428196,1,1,27.19981045,3,12.1811709,0.118996395,1,1,1,1653371100,1,0,0,0,0,0,4,56.429188,10.21237,1,1,1.900448923,-2.299650838,11.89416401,0.2,0.2,0.3,8288,20,1,300,4,15
2022-05-24 06:45:06.873699840+01:00,-0.363361389,3.613361389,9.920042083,1.253024724,-1.09310889,11.86336139,1,1,27.19974062,3,12.181,0.119,1,1,1,1653371100,1,0,0,0,0,0,4,56.429188,10.21237,1,1,1.900763168,-2.299406425,11.89007881,0.2,0.2,0.3,8288,20,1,300,4,15
2022-05-24 06:45:06.874000128+01:00,-0.36257233,3.61257233,9.918858496,1.261704366,-1.099421357,11.86257233,1,1,27.19968077,3,12.1810814,0.118999701,1,1,1,1653371100,1,0,0,0,0,0,4,56.429188,10.21237,1,1,1.901032522,-2.299196927,11.88657721,0.2,0.2,0.3,8288,20,1,300,4,15
2022-05-24 06:45:06.916800+01:00,-0.25,3.5,9.75,2.5,-2,11.75,1,1,27.19114126,3,12.19269455,0.118957005,1,1,1,1653371100,1,0,0,0,0,0,4,56.429188,10.21237,1,1,1.939460295,-2.269308659,11.38701616,0.2,0.2,0.3,8288,20,1,300,4,15
2022-05-24 06:45:07.019800064+01:00,-0.125,3.5,10,1.25,-0.5,11.75,1,1,27.17059058,3,12.22064208,0.118854257,1,1,1,1653371100,1,0,0,0,0,0,4,56.429188,10.21237,1,1,2.031938348,-2.197381285,10.18480148,0.2,0.2,0.3,8288,20,1,300,4,15
2022-05-24 06:45:07.121799936+01:00,-0.125,3.75,9.75,2.75,0.25,11.25,1,1,27.15023943,3,12.24831827,0.118752506,1,1,1,1653371100,1,0,0,0,0,0,4,56.429188,10.21237,1,1,2.123518555,-2.126152235,8.994258779,0.2,0.2,0.3,8288,20,1,300,4,15
2022-05-24 06:45:07.221800192+01:00,0,3.75,10.125,1.25,0.25,10.75,1,1,27.13028731,3,12.27545179,0.118652751,1,1,1,1653371100,1,0,0,0,0,0,4,56.429188,10.21237,1,1,2.213303073,-2.056319832,7.827060056,0.2,0.2,0.3,8288,20,1,300,4,15
2022-05-24 06:45:07.320849920+01:00,0,3.5,10,0.5,0,10.25,1,1,27.11052474,3,12.30232755,0.118553943,1,1,1,1653371100,1,0,0,0,0,0,4,56.429188,10.21237,1,1,2.302234637,-1.987150838,6.670949721,0.2,0.2,0.3,8288,20,1,300,4,15
2022-05-24 06:45:07.426800128+01:00,0,3.625,10.625,-1,-1.25,9,1,1,27.08938547,3,12.33107551,0.118448252,1,1,1,1653371101,1,0,0,0,0,0,4,56.429188,10.21237,1,1,2.397361333,-1.913163408,5.434302674,0.2,0.2,0.3,8288,20,1,300,4,15
2022-05-24 06:45:07.525799936+01:00,0.25,3.125,9.875,-1,-0.75,7.75,1,1,27.06963288,3,12.3579377,0.118349494,1,1,1,1653371101,1,0,0,0,0,0,4,56.429188,10.21237,1,1,2.486248005,-1.84402933,4.278775938,0.2,0.2,0.3,8288,20,1,300,4,15
2022-05-24 06:45:07.635849984+01:00,0,3.25,10.75,-0.5,-0.25,6.75,1,1,27.04767558,3,12.38779814,0.118239713,1,1,1,1653371101,1,0,0,0,0,0,4,56.429188,10.21237,1,1,2.585055866,-1.767178771,2.994273743,0.2,0.2,0.3,8288,20,1,300,4,15
2022-05-24 06:45:07.734850048+01:00,0.125,2.625,9.75,-1.5,-1.5,5.5,1,1,27.02792298,3,12.41466033,0.118140955,1,1,1,1653371101,1,0,0,0,0,0,4,56.429188,10.21237,1,1,2.673942538,-1.698044693,1.838747007,0.2,0.2,0.3,8288,20,1,300,4,15
2022-05-24 06:45:07.837850112+01:00,0.125,2.375,10.5,-2.75,-0.75,4.75,1,1,27.00737231,3,12.44260786,0.118038206,1,1,1,1653371101,1,0,0,0,0,0,4,56.429188,10.21237,1,1,2.766420591,-1.626117318,0.636532322,0.2,0.2,0.3,8288,20,1,300,4,15
2022-05-24 06:45:07.873549824+01:00,0.125,2.327526596,10.4525266,-2.180319149,-0.844946809,4.560106383,1,1,27.0002494,3,12.45229453,0.118002594,1,1,1,1653371101,1,0,0,0,0,0,4,56.429188,10.21237,1,1,2.798473663,-1.601187151,0.219842378,0.2,0.2,0.3,8288,20,1,300,4,15
2022-05-24 06:45:07.874000128+01:00,0.125,2.326928191,10.45192819,-2.173138298,-0.846143617,4.557712766,1,1,27.00015962,3,12.45241663,0.118002145,1,1,1,1653371101,1,0,0,0,0,0,4,56.429188,10.21237,1,1,2.798877694,-1.600872905,0.214589984,0.2,0.2,0.3,8288,20,1,300,4,15
2022-05-24 06:45:07.874449920+01:00,0.125,2.326329787,10.45132979,-2.165957447,-0.847340426,4.555319149,1,1,27.00006983,3,12.45253873,0.118001696,1,1,1,1653371101,1,0,0,0,0,0,4,56.429188,10.21237,1,1,2.799281724,-1.600558659,0.20933759,0.2,0.2,0.3,8288,20,1,300,4,15
2022-05-24 06:45:07.874799872+01:00,0.125,2.325864362,10.45086436,-2.16037234,-0.848271277,4.553457447,1,1,27,3,12.4526337,0.118001347,1,1,1,1653371101,1,0,0,0,0,0,4,56.429188,10.21237,1,1,2.79959597,-1.600314246,0.205252394,0.2,0.2,0.3,8288,20,1,300,4,15
2022-05-24 06:45:07.875250176+01:00,0.125,2.325265957,10.45026596,-2.153191489,-0.849468085,4.55106383,1,1,26.99986364,3,12.4527558,0.118000898,1,1,1,1653371101,1,0,0,0,0,0,4,56.429188,10.21237,1,1,2.8,-1.6,0.2,0.2,0.2,0.3,8288,20,1,300,4,15
2022-05-24 06:45:07.875750144+01:00,0.125,2.324601064,10.44960106,-2.145212766,-0.850797872,4.548404255,1,1,26.99971214,3,12.45289147,0.118000399,1,1,1,1653371101,1,0,0,0,0,0,4,56.429188,10.21237,1,1,2.799141501,-1.599798,0.379476821,0.2,0.2,0.3,8301,20,1,300,4,15
2022-05-24 06:45:07.876150016+01:00,0.125,2.324069149,10.44906915,-2.138829787,-0.851861702,4.546276596,1,1,26.99959093,3,12.453,0.118,1,1,1,1653371101,1,0,0,0,0,0,4,56.429188,10.21237,1,1,2.798454702,-1.5996364,0.523058277,0.2,0.2,0.3,8301,20,1,300,4,15
2022-05-24 06:45:07.876399872+01:00,0.125,2.323736702,10.4487367,-2.134840426,-0.852526596,4.544946809,1,1,26.99951518,3,12.45315201,0.118001263,1,1,1,1653371101,1,0,0,0,0,0,4,56.429188,10.21237,1,1,2.798025452,-1.5995354,0.612796687,0.2,0.2,0.3,8301,20,1,300,4,15
2022-05-24 06:45:07.931849984+01:00,0.125,2.25,10.375,-1.25,-1,4.25,1,1,26.98271299,3,12.48686839,0.118281299,1,1,1,1653371101,1,0,0,0,0,0,4,56.429188,10.21237,1,1,2.702817897,-1.577133623,20.51677608,0.2,0.2,0.3,8301,20,1,300,4,15
2022-05-24 06:45:08.034899968+01:00,0.375,2.125,10,-1,-0.5,4.25,1,1,26.9514873,3,12.54952795,0.118801727,1,1,1,1653371101,1,0,0,0,0,0,4,56.429188,10.21237,1,1,2.525881224,-1.535501464,57.50694879,0.2,0.2,0.3,8301,20,1,300,4,15
2022-05-24 06:45:08.135899904+01:00,0.25,2,10.375,-2,-1.25,3.75,1,1,26.92088278,3,12.61094101,0.119311802,1,1,1,1653371101,1,0,0,0,0,0,4,56.429188,10.21237,1,1,2.352464398,-1.494697505,93.76126654,0.2,0.2,0.3,8301,20,1,300,4,15
2022-05-24 06:45:08.236900096+01:00,0,1.875,10,-2.25,-0.5,3.25,1,1,26.89027827,3,12.67235407,0.119821878,1,1,1,1653371101,1,0,0,0,0,0,4,56.429188,10.21237,1,1,2.179047571,-1.453893546,130.0155843,0.2,0.2,0.3,8301,20,1,300,4,15
2022-05-24 06:45:08.337900032+01:00,0.125,1.875,10.25,-2.25,0.25,2.25,1,1,26.85967375,3,12.73376713,0.120331953,1,1,1,1653371101,1,0,0,0,0,0,4,56.429188,10.21237,1,1,2.005630744,-1.413089587,166.269902,0.2,0.2,0.3,8301,20,1,300,4,15
2022-05-24 06:45:08.440900096+01:00,0.25,1.375,9.375,-0.75,-0.25,1.25,1,1,26.82846321,3,12.79639629,0.120852129,1,1,1,1653371102,1,0,0,0,0,0,4,56.429188,10.21237,1,1,1.828779921,-1.371477629,203.2421271,0.2,0.2,0.3,8301,20,1,300,4,15
2022-05-24 06:45:08.541949952+01:00,0.375,1.125,10,-1.25,-0.5,0.75,1,1,26.79784354,3,12.85783976,0.121362456,1,1,1,1653371102,1,0,0,0,0,0,4,56.429188,10.21237,1,1,1.655277245,-1.330653469,239.5143925,0.2,0.2,0.3,8301,20,1,300,4,15
2022-05-24 06:45:08.646949888+01:00,0.25,1.125,10,0.5,-0.5,1,1,1,26.76602697,3,12.92168502,0.121892733,1,1,1,1653371102,1,0,0,0,0,0,4,56.429188,10.21237,1,1,1.474992425,-1.288233512,277.2045248,0.2,0.2,0.3,8301,20,1,300,4,15
2022-05-24 06:45:08.749949952+01:00,0,1.25,10.25,1.25,0,1,1,1,26.73481642,3,12.98431418,0.122412908,1,1,1,1653371102,1,0,0,0,0,0,4,56.429188,10.21237,1,1,1.298141602,-1.246621553,314.1767498,0.2,0.2,0.3,8301,20,1,300,4,15
2022-05-24 06:45:08.854949888+01:00,0.125,1.25,10,-1.25,-0.25,1,1,1,26.70299985,3,13.04815944,0.122943185,1,1,1,1653371102,1,0,0,0,0,0,4,56.429188,10.21237,1,1,1.117856782,-1.204201596,351.8668821,0.2,0.2,0.3,8301,20,1,300,4,15
2022-05-24 06:45:08.863650048+01:00,0.147894737,1.238552632,9.954210526,-0.975263158,-0.341578947,1,1,1,26.70036362,3,13.05344947,0.122987122,1,1,1,1653371102,1,0,0,0,0,0,4,56.429188,10.21237,1,1,1.102918897,-1.200686799,354.9897788,0.2,0.2,0.3,8301,20,1,300,4,15
2022-05-24 06:45:08.864049920+01:00,0.148947368,1.238026316,9.952105263,-0.962631579,-0.345789474,1,1,1,26.70024241,3,13.05369269,0.122989142,1,1,1,1653371102,1,0,0,0,0,0,4,56.429188,10.21237,1,1,1.102232098,-1.200525199,355.1333603,0.2,0.2,0.3,8301,20,1,300,4,15
2022-05-24 06:45:08.864550144+01:00,0.150263158,1.237368421,9.949473684,-0.946842105,-0.351052632,1,1,1,26.7000909,3,13.05399672,0.122991667,1,1,1,1653371102,1,0,0,0,0,0,4,56.429188,10.21237,1,1,1.101373599,-1.2003232,355.3128371,0.2,0.2,0.3,8301,20,1,300,4,15
2022-05-24 06:45:08.864849920+01:00,0.151052632,1.236973684,9.947894737,-0.937368421,-0.354210526,1,1,1,26.7,3,13.05417913,0.122993182,1,1,1,1653371102,1,0,0,0,0,0,4,56.429188,10.21237,1,1,1.100858499,-1.200202,355.4205232,0.2,0.2,0.3,8301,20,1,300,4,15
2022-05-24 06:45:08.865349888+01:00,0.152368421,1.236315789,9.945263158,-0.921578947,-0.359473684,1,1,1,26.69990075,3,13.05448316,0.122995707,1,1,1,1653371102,1,0,0,0,0,0,4,56.429188,10.21237,1,1,1.1,-1.2,355.6,0.2,0.2,0.3,8301,20,1,300,4,15
2022-05-24 06:45:08.865849856+01:00,0.153684211,1.235657895,9.942631579,-0.905789474,-0.364736842,1,1,1,26.6998015,3,13.05478718,0.122998232,1,1,1,1653371102,1,0,0,0,0,0,4,56.429188,10.21237,1,1,1.100198511,-1.199900744,355.5991563,0.2,0.2,0.3,8314,20,1,300,4,15
2022-05-24 06:45:08.866200064+01:00,0.154605263,1.235197368,9.940789474,-0.894736842,-0.368421053,1,1,1,26.69973202,3,13.055,0.123,1,1,1,1653371102,1,0,0,0,0,0,4,56.429188,10.21237,1,1,1.100337469,-1.199831266,355.5985658,0.2,0.2,0.3,8314,20,1,300,4,15
2022-05-24 06:45:08.866499840+01:00,0.155394737,1.234802632,9.939210526,-0.885263158,-0.371578947,1,1,1,26.69967247,3,13.05518521,0.123000596,1,1,1,1653371102,1,0,0,0,0,0,4,56.429188,10.21237,1,1,1.100456576,-1.199771712,355.5980596,0.2,0.2,0.3,8314,20,1,300,4,15
2022-05-24 06:45:08.949949952+01:00,0.375,1.125,9.5,1.75,-1.25,1,1,1,26.68310754,3,13.10670471,0.123166253,1,1,1,1653371102,1,0,0,0,0,0,4,56.429188,10.21237,1,1,1.133588089,-1.183205955,355.4572506,0.2,0.2,0.3,8314,20,1,300,4,15
2022-05-24 06:45:09.049999872+01:00,0.125,1.5,10.375,1.25,-1,1,1,1,26.66324748,3,13.16847256,0.123364864,1,1,1,1653371102,1,0,0,0,0,0,4,56.429188,10.21237,1,1,1.173310174,-1.163344913,355.2884318,0.2,0.2,0.3,8314,20,1,300,4,15
2022-05-24 06:45:09.150949888+01:00,0.125,1.25,10.5,2.5,-0.75,1,1,1,26.64320877,3,13.23079603,0.123565261,1,1,1,1653371102,1,0,0,0,0,0,4,56.429188,10.21237,1,1,1.213389578,-1.143305211,355.1180943,0.2,0.2,0.3,8314,20,1,300,4,15
2022-05-24 06:45:09.250999808+01:00,0.25,1.375,10.375,1.25,-0.5,0.75,1,1,26.62334872,3,13.29256387,0.123763871,1,1,1,1653371102,1,0,0,0,0,0,4,56.429188,10.21237,1,1,1.253111663,-1.123444169,354.9492754,0.2,0.2,0.3,8314,20,1,300,4,15
2022-05-24 06:45:09.352999936+01:00,0.125,1.375,9.75,1,-0.25,0.25,1,1,26.60310158,3,13.35553558,0.123966352,1,1,1,1653371102,1,0,0,0,0,0,4,56.429188,10.21237,1,1,1.29360794,-1.10319603,354.7771663,0.2,0.2,0.3,8314,20,1,300,4,15
2022-05-24 06:45:09.456000+01:00,0.125,1.25,10,0.75,-0.25,0.25,1,1,26.58265595,3,13.41912467,0.124170819,1,1,1,1653371103,1,0,0,0,0,0,4,56.429188,10.21237,1,1,1.334501241,-1.08274938,354.6033697,0.2,0.2,0.3,8314,20,1,300,4,15
2022-05-24 06:45:09.558000128+01:00,0.125,1.375,10.25,-0.5,-0.75,0,1,1,26.56240881,3,13.48209638,0.1243733,1,1,1,1653371103,1,0,0,0,0,0,4,56.429188,10.21237,1,1,1.374997519,-1.062501241,354.4312605,0.2,0.2,0.3,8314,20,1,300,4,15
2022-05-24 06:45:09.663000064+01:00,0.125,0.875,10.375,-0.25,-1.5,0,1,1,26.54156618,3,13.5469202,0.124581737,1,1,1,1653371103,1,0,0,0,0,0,4,56.429188,10.21237,1,1,1.416684864,-1.041657568,354.2540893,0.2,0.2,0.3,8314,20,1,300,4,15
2022-05-24 06:45:09.767049984+01:00,0.25,1.125,9.5,0.25,-0.5,0,1,1,26.52091211,3,13.61115752,0.124788288,1,1,1,1653371103,1,0,0,0,0,0,4,56.429188,10.21237,1,1,1.457995037,-1.021002481,354.0785211,0.2,0.2,0.3,8314,20,1,300,4,15
2022-05-24 06:45:09.870050048+01:00,0.125,1.25,9.75,0.25,-0.75,-0.25,1,1,26.50046648,3,13.6747466,0.124992754,1,1,1,1653371103,1,0,0,0,0,0,4,56.429188,10.21237,1,1,1.498888337,-1.000555831,353.9047246,0.2,0.2,0.3,8314,20,1,300,4,15
2022-05-24 06:45:09.871200+01:00,0.123454301,1.248454301,9.767002688,0.25,-0.746908602,-0.243817204,1,1,26.5002382,3,13.67545658,0.124995037,1,1,1,1653371103,1,0,0,0,0,0,4,56.429188,10.21237,1,1,1.499344913,-1.000327543,353.9027841,0.2,0.2,0.3,8314,20,1,300,4,14
2022-05-24 06:45:09.871599872+01:00,0.122916667,1.247916667,9.772916667,0.25,-0.745833333,-0.241666667,1,1,26.5001588,3,13.67570352,0.124995831,1,1,1,1653371103,1,0,0,0,0,0,4,56.429188,10.21237,1,1,1.499503722,-1.000248139,353.9021092,0.2,0.2,0.3,8314,20,1,300,4,14
2022-05-24 06:45:09.872049920+01:00,0.122311828,1.247311828,9.779569892,0.25,-0.744623656,-0.239247312,1,1,26.50006948,3,13.67598134,0.124996725,1,1,1,1653371103,1,0,0,0,0,0,4,56.429188,10.21237,1,1,1.499682382,-1.000158809,353.9013499,0.2,0.2,0.3,8314,20,1,300,4,14
2022-05-24 06:45:09.872400128+01:00,0.121841398,1.246841398,9.784744624,0.25,-0.743682796,-0.237365591,1,1,26.5,3,13.67619742,0.124997419,1,1,1,1653371103,1,0,0,0,0,0,4,56.429188,10.21237,1,1,1.49982134,-1.00008933,353.9007593,0.2,0.2,0.3,8314,20,1,300,4,14
2022-05-24 06:45:09.872849920+01:00,0.121236559,1.246236559,9.791397849,0.25,-0.742473118,-0.234946237,1,1,26.49995556,3,13.67647524,0.124998313,1,1,1,1653371103,1,0,0,0,0,0,4,56.429188,10.21237,1,1,1.5,-1,353.9,0.2,0.2,0.3,8314,20,1,300,4,14
2022-05-24 06:45:09.873349888+01:00,0.120564516,1.245564516,9.798790323,0.25,-0.741129032,-0.232258065,1,1,26.49990618,3,13.67678392,0.124999305,1,1,1,1653371103,1,0,0,0,0,0,4,56.429188,10.21237,1,1,1.499851874,-0.999851874,353.8995556,0.2,0.2,0.3,8327,20,1,300,4,14
2022-05-24 06:45:09.873699840+01:00,0.120094086,1.245094086,9.803965054,0.25,-0.740188172,-0.230376344,1,1,26.49987162,3,13.677,0.125,1,1,1,1653371103,1,0,0,0,0,0,4,56.429188,10.21237,1,1,1.499748185,-0.999748185,353.8992446,0.2,0.2,0.3,8327,20,1,300,4,14
2022-05-24 06:45:09.874000128+01:00,0.11969086,1.24469086,9.808400538,0.25,-0.73938172,-0.228763441,1,1,26.49984199,3,13.67714605,0.125000296,1,1,1,1653371103,1,0,0,0,0,0,4,56.429188,10.21237,1,1,1.49965931,-0.99965931,353.8989779,0.2,0.2,0.3,8327,20,1,300,4,14
2022-05-24 06:45:09.963049984+01:00,0,1.125,11.125,0.25,-0.5,0.25,1,1,26.4910478,3,13.72049714,0.125088229,1,1,1,1653371103,1,0,0,0,0,0,4,56.429188,10.21237,1,1,1.473278033,-0.973278033,353.8198341,0.2,0.2,0.3,8327,20,1,300,4,14
2022-05-24 06:45:10.068100096+01:00,0.25,1.125,10.375,0.5,-0.5,0,1,1,26.48067351,3,13.77163731,0.125191962,1,1,1,1653371103,1,0,0,0,0,0,4,56.429188,10.21237,1,1,1.442156718,-0.942156718,353.7264702,0.2,0.2,0.3,8327,20,1,300,4,14
2022-05-24 06:45:10.169049856+01:00,0,1,10.375,0,-0.75,0,1,1,26.47070413,3,13.82078152,0.125291646,1,1,1,1653371103,1,0,0,0,0,0,4,56.429188,10.21237,1,1,1.412250037,-0.912250037,353.6367501,0.2,0.2,0.3,8327,20,1,300,4,14
2022-05-24 06:45:10.271100160+01:00,0.25,1,10.25,0.25,-0.5,0,1,1,26.46062611,3,13.87046124,0.125392416,1,1,1,1653371103,1,0,0,0,0,0,4,56.429188,10.21237,1,1,1.382017479,-0.882017479,353.5460524,0.2,0.2,0.3,8327,20,1,300,4,14
2022-05-24 06:45:10.371099904+01:00,0,1.125,10.25,-0.75,-0.75,0,1,1,26.45075054,3,13.91914298,0.125491162,1,1,1,1653371103,1,0,0,0,0,0,4,56.429188,10.21237,1,1,1.352392238,-0.852392238,353.4571767,0.2,0.2,0.3,8327,20,1,300,4,14
2022-05-24 06:45:10.472100096+01:00,0.125,1,10.375,0.5,-0.75,0,1,1,26.44077622,3,13.96831154,0.125590896,1,1,1,1653371104,1,0,0,0,0,0,4,56.429188,10.21237,1,1,1.322470745,-0.822470745,353.3674122,0.2,0.2,0.3,8327,20,1,300,4,14
2022-05-24 06:45:10.574099968+01:00,0,1,10.125,0,-0.25,0.75,1,1,26.43070314,3,14.01796692,0.125691616,1,1,1,1653371104,1,0,0,0,0,0,4,56.429188,10.21237,1,1,1.292253,-0.792253,353.276759,0.2,0.2,0.3,8327,20,1,300,4,14
2022-05-24 06:45:10.682099968+01:00,0.125,1.25,9.625,-0.25,-0.25,1,1,1,26.42003753,3,14.0705432,0.125798262,1,1,1,1653371104,1,0,0,0,0,0,4,56.429188,10.21237,1,1,1.26025774,-0.76025774,353.1807732,0.2,0.2,0.3,8327,20,1,300,4,14
2022-05-24 06:45:10.780100096+01:00,0.125,1.375,10.125,0.25,0,0.75,1,1,26.41035947,3,14.11825131,0.125895033,1,1,1,1653371104,1,0,0,0,0,0,4,56.429188,10.21237,1,1,1.231225004,-0.731225004,353.093675,0.2,0.2,0.3,8327,20,1,300,4,14
2022-05-24 06:45:10.882100224+01:00,0,1.5,9.875,0.75,0,0.5,1,1,26.40028639,3,14.16790669,0.125995754,1,1,1,1653371104,1,0,0,0,0,0,4,56.429188,10.21237,1,1,1.201007258,-0.701007258,353.0030218,0.2,0.2,0.3,8327,20,1,300,4,14
2022-05-24 06:45:10.883800064+01:00,0.002125,1.49575,9.872875,0.7415,-0.017,0.49575,1,1,26.40011851,3,14.16873427,0.125997433,1,1,1,1653371104,1,0,0,0,0,0,4,56.429188,10.21237,1,1,1.200503629,-0.700503629,353.0015109,0.2,0.2,0.3,8327,20,1,300,4,14
2022-05-24 06:45:10.884200192+01:00,0.002625,1.49475,9.872375,0.7395,-0.021,0.49475,1,1,26.400079,3,14.168929,0.125997828,1,1,1,1653371104,1,0,0,0,0,0,4,56.429188,10.21237,1,1,1.200385128,-0.700385128,353.0011554,0.2,0.2,0.3,8327,20,1,300,4,14
2022-05-24 06:45:10.884649984+01:00,0.0031875,1.493625,9.8718125,0.73725,-0.0255,0.493625,1,1,26.40003456,3,14.16914807,0.125998272,1,1,1,1653371104,1,0,0,0,0,0,4,56.429188,10.21237,1,1,1.200251815,-0.700251815,353.0007554,0.2,0.2,0.3,8327,20,1,300,4,14
2022-05-24 06:45:10.884999936+01:00,0.003625,1.49275,9.871375,0.7355,-0.029,0.49275,1,1,26.4,3,14.16931846,0.125998618,1,1,1,1653371104,1,0,0,0,0,0,4,56.429188,10.21237,1,1,1.200148126,-0.700148126,353.0004444,0.2,0.2,0.3,8327,20,1,300,4,14
2022-05-24 06:45:10.885499904+01:00,0.00425,1.4915,9.87075,0.733,-0.034,0.4915,1,1,26.39994836,3,14.16956186,0.125999111,1,1,1,1653371104,1,0,0,0,0,0,4,56.429188,10.21237,1,1,1.2,-0.7,353,0.2,0.2,0.3,8327,20,1,300,4,14
2022-05-24 06:45:10.885999872+01:00,0.004875,1.49025,9.870125,0.7305,-0.039,0.49025,1,1,26.39989671,3,14.16980527,0.125999605,1,1,1,1653371104,1,0,0,0,0,0,4,56.429188,10.21237,1,1,1.199948355,-0.699948355,352.999277,0.2,0.2,0.3,8342,20,1,300,4,14
2022-05-24 06:45:10.886400+01:00,0.005375,1.48925,9.869625,0.7285,-0.043,0.48925,1,1,26.39985539,3,14.17,0.126,1,1,1,1653371104,1,0,0,0,0,0,4,56.429188,10.21237,1,1,1.199907039,-0.699907039,352.9986985,0.2,0.2,0.3,8342,20,1,300,4,14
2022-05-24 06:45:10.886650112+01:00,0.0056875,1.488625,9.8693125,0.72725,-0.0455,0.488625,1,1,26.39982957,3,14.17009452,0.125999484,1,1,1,1653371104,1,0,0,0,0,0,4,56.429188,10.21237,1,1,1.199881217,-0.699881217,352.998337,0.2,0.2,0.3,8342,20,1,300,4,14
2022-05-24 06:45:10.982099968+01:00,0.125,1.25,9.75,0.25,-1,0.25,1,1,26.38997056,3,14.20618035,0.125802293,1,1,1,1653371104,1,0,0,0,0,0,4,56.429188,10.21237,1,1,1.190022207,-0.690022207,352.8603109,0.2,0.2,0.3,8342,20,1,300,4,14
2022-05-24 06:45:11.082149888+01:00,0,1.125,10.375,0.75,-1,0.5,1,1,26.37963642,3,14.24400527,0.1255956,1,1,1,1653371104,1,0,0,0,0,0,4,56.429188,10.21237,1,1,1.179688065,-0.679688065,352.7156329,0.2,0.2,0.3,8342,20,1,300,4,14
2022-05-24 06:45:11.186150144+01:00,0,1.125,10.625,0.25,-0.75,0.5,1,1,26.36889428,3,14.28332352,0.125380746,1,1,1,1653371104,1,0,0,0,0,0,4,56.429188,10.21237,1,1,1.168945928,-0.668945928,352.565243,0.2,0.2,0.3,8342,20,1,300,4,14
2022-05-24 06:45:11.286149888+01:00,0,1.125,10.25,0.5,0,0.5,1,1,26.3585653,3,14.32112953,0.125174156,1,1,1,1653371104,1,0,0,0,0,0,4,56.429188,10.21237,1,1,1.15861695,-0.65861695,352.4206373,0.2,0.2,0.3,8342,20,1,300,4,14
2022-05-24 06:45:11.389199872+01:00,0,1.375,9.875,0,-0.5,0.25,1,1,26.34792129,3,14.36008863,0.124961264,1,1,1,1653371105,1,0,0,0,0,0,4,56.429188,10.21237,1,1,1.147972938,-0.647972938,352.2716211,0.2,0.2,0.3,8342,20,1,300,4,14
2022-05-24 06:45:11.490149888+01:00,-0.125,1.125,9.625,-0.25,-1,0,1,1,26.33749419,3,14.3982538,0.124752711,1,1,1,1653371105,1,0,0,0,0,0,4,56.429188,10.21237,1,1,1.137545835,-0.637545835,352.1256417,0.2,0.2,0.3,8342,20,1,300,4,14
2022-05-24 06:45:11.591200+01:00,0,1,10,0.5,-0.75,0.25,1,1,26.32705676,3,14.43645677,0.124543952,1,1,1,1653371105,1,0,0,0,0,0,4,56.429188,10.21237,1,1,1.127108403,-0.627108403,351.9795176,0.2,0.2,0.3,8342,20,1,300,4,14
2022-05-24 06:45:11.696199936+01:00,0.125,1,10.125,-0.25,-1,0.25,1,1,26.31621133,3,14.47615308,0.124327032,1,1,1,1653371105,1,0,0,0,0,0,4,56.429188,10.21237,1,1,1.116262976,-0.616262976,351.8276817,0.2,0.2,0.3,8342,20,1,300,4,14
2022-05-24 06:45:11.797199872+01:00,0,1.125,10.25,0.25,-0.75,0.25,1,1,26.30577906,3,14.51433716,0.124118376,1,1,1,1653371105,1,0,0,0,0,0,4,56.429188,10.21237,1,1,1.105830708,-0.605830708,351.6816299,0.2,0.2,0.3,8342,20,1,300,4,14
2022-05-24 06:45:11.851949824+01:00,0,0.983891753,10.10889175,-0.032216495,-0.467783505,-0.032216495,1,1,26.30012395,3,14.53503595,0.124005268,1,1,1,1653371105,1,0,0,0,0,0,4,56.429188,10.21237,1,1,1.100175593,-0.600175593,351.6024583,0.2,0.2,0.3,8342,20,1,300,4,14
2022-05-24 06:45:11.852349952+01:00,0,0.982860825,10.10786082,-0.034278351,-0.465721649,-0.034278351,1,1,26.30008263,3,14.53518717,0.124004442,1,1,1,1653371105,1,0,0,0,0,0,4,56.429188,10.21237,1,1,1.100134277,-0.600134277,351.6018799,0.2,0.2,0.3,8342,20,1,300,4,14
2022-05-24 06:45:11.852800+01:00,0,0.981701031,10.10670103,-0.036597938,-0.463402062,-0.036597938,1,1,26.30003615,3,14.5353573,0.124003512,1,1,1,1653371105,1,0,0,0,0,0,4,56.429188,10.21237,1,1,1.100087796,-0.600087796,351.6012291,0.2,0.2,0.3,8342,20,1,300,4,14
2022-05-24 06:45:11.853149952+01:00,0,0.980798969,10.10579897,-0.038402062,-0.461597938,-0.038402062,1,1,26.3,3,14.53548962,0.124002789,1,1,1,1653371105,1,0,0,0,0,0,4,56.429188,10.21237,1,1,1.100051645,-0.600051645,351.600723,0.2,0.2,0.3,8342,20,1,300,4,14
2022-05-24 06:45:11.853650176+01:00,0,0.979510309,10.10451031,-0.040979381,-0.459020619,-0.040979381,1,1,26.3,3,14.53567865,0.124001756,1,1,1,1653371105,1,0,0,0,0,0,4,56.429188,10.21237,1,1,1.1,-0.6,351.6,0.2,0.2,0.3,8342,20,1,300,4,14
2022-05-24 06:45:11.854150144+01:00,0,0.978221649,10.10322165,-0.043556701,-0.456443299,-0.043556701,1,1,26.3,3,14.53586768,0.124000723,1,1,1,1653371105,1,0,0,0,0,0,4,56.429188,10.21237,1,1,1.09980199,-0.600099005,351.599505,0.2,0.2,0.3,8356,20,1,300,4,14
2022-05-24 06:45:11.854500096+01:00,0,0.977319588,10.10231959,-0.045360825,-0.454639175,-0.045360825,1,1,26.3,3,14.536,0.124,1,1,1,1653371105,1,0,0,0,0,0,4,56.429188,10.21237,1,1,1.099663383,-0.600168308,351.5991585,0.2,0.2,0.3,8356,20,1,300,4,14
2022-05-24 06:45:11.854749952+01:00,0,0.976675258,10.10167526,-0.046649485,-0.453350515,-0.046649485,1,1,26.3,3,14.53608638,0.12400198,1,1,1,1653371105,1,0,0,0,0,0,4,56.429188,10.21237,1,1,1.099564378,-0.600217811,351.5989109,0.2,0.2,0.3,8356,20,1,300,4,14
2022-05-24 06:45:11.894200064+01:00,0,0.875,10,-0.25,-0.25,-0.25,1,1,26.3,3,14.54971744,0.12431444,1,1,1,1653371105,1,0,0,0,0,0,4,56.429188,10.21237,1,1,1.083941389,-0.608029305,351.5598535,0.2,0.2,0.3,8356,20,1,300,4,14
2022-05-24 06:45:11.996200192+01:00,0,1.125,9.875,-0.25,-0.5,-0.5,1,1,26.3,3,14.58496124,0.125122321,1,1,1,1653371105,1,0,0,0,0,0,4,56.429188,10.21237,1,1,1.043547349,-0.628226325,351.4588684,0.2,0.2,0.3,8356,20,1,300,4,14
2022-05-24 06:45:12.098249984+01:00,-0.125,1,10,-0.5,-1.25,-0.5,1,1,26.3,3,14.62022232,0.125930597,1,1,1,1653371105,1,0,0,0,0,0,4,56.429188,10.21237,1,1,1.003133508,-0.648433246,351.3578338,0.2,0.2,0.3,8356,20,1,300,4,14
2022-05-24 06:45:12.198249984+01:00,0,0.75,9.875,0,-0.5,-0.25,1,1,26.3,3,14.65477506,0.126722637,1,1,1,1653371105,1,0,0,0,0,0,4,56.429188,10.21237,1,1,0.963531508,-0.668234246,351.2588288,0.2,0.2,0.3,8356,20,1,300,4,14
2022-05-24 06:45:12.302249984+01:00,0,1,10.75,-0.25,-0.25,0.25,1,1,26.3,3,14.69070992,0.127546359,1,1,1,1653371105,1,0,0,0,0,0,4,56.429188,10.21237,1,1,0.922345428,-0.688827286,351.1558636,0.2,0.2,0.3,8356,20,1,300,4,14
2022-05-24 06:45:12.404249856+01:00,-0.125,1,10.875,2.5,1.75,0.75,1,1,26.3,3,14.72595372,0.12835424,1,1,1,1653371106,1,0,0,0,0,0,4,56.429188,10.21237,1,1,0.881951389,-0.709024306,351.0548785,0.2,0.2,0.3,8356,20,1,300,4,14
2022-05-24 06:45:12.506249984+01:00,-0.125,1.25,8.625,0,1,0.75,1,1,26.3,3,14.76119751,0.129162121,1,1,1,1653371106,1,0,0,0,0,0,4,56.429188,10.21237,1,1,0.841557349,-0.729221326,350.9538934,0.2,0.2,0.3,8356,20,1,300,4,14
2022-05-24 06:45:12.611249920+01:00,-0.375,1,10.75,-0.5,-3,1,1,1,26.3,3,14.7974779,0.129993763,1,1,1,1653371106,1,0,0,0,0,0,4,56.429188,10.21237,1,1,0.799975249,-0.750012376,350.8499381,0.2,0.2,0.3,8356,20,1,300,4,14
2022-05-24 06:45:12.714299904+01:00,-0.25,1.125,11.625,0.5,-1.75,1,1,1,26.3,3,14.8330845,0.13080996,1,1,1,1653371106,1,0,0,0,0,0,4,56.429188,10.21237,1,1,0.759165388,-0.770417306,350.7479135,0.2,0.2,0.3,8356,20,1,300,4,14
2022-05-24 06:45:12.816300032+01:00,-0.125,1.25,10.625,0.25,-0.25,1,1,1,26.3,3,14.8683283,0.131617841,1,1,1,1653371106,1,0,0,0,0,0,4,56.429188,10.21237,1,1,0.718771348,-0.790614326,350.6469284,0.2,0.2,0.3,8356,20,1,300,4,14
2022-05-24 06:45:12.861999872+01:00,-0.065494792,1.25,10.50598958,0.488020833,-0.369010417,1,1,1,26.3,3,14.88411891,0.131979803,1,1,1,1653371106,1,0,0,0,0,0,4,56.429188,10.21237,1,1,0.700673234,-0.799663383,350.6016831,0.2,0.2,0.3,8356,20,1,300,4,15
2022-05-24 06:45:12.862449920+01:00,-0.064908854,1.25,10.50481771,0.490364583,-0.370182292,1,1,1,26.3,3,14.88427439,0.131983367,1,1,1,1653371106,1,0,0,0,0,0,4,56.429188,10.21237,1,1,0.700495025,-0.799752488,350.6012376,0.2,0.2,0.3,8356,20,1,300,4,15
2022-05-24 06:45:12.862899968+01:00,-0.064322917,1.25,10.50364583,0.492708333,-0.371354167,1,1,1,26.3,3,14.88442988,0.131986931,1,1,1,1653371106,1,0,0,0,0,0,4,56.429188,10.21237,1,1,0.700316816,-0.799841592,350.600792,0.2,0.2,0.3,8356,20,1,300,4,15
2022-05-24 06:45:12.863200+01:00,-0.063932292,1.25,10.50286458,0.494270833,-0.372135417,1,1,1,26.3,3,14.88453354,0.131989307,1,1,1,1653371106,1,0,0,0,0,0,4,56.429188,10.21237,1,1,0.70019801,-0.799900995,350.600495,0.2,0.2,0.3,8356,20,1,300,4,15
2022-05-24 06:45:12.863699968+01:00,-0.06328125,1.25,10.5015625,0.496875,-0.3734375,1,1,1,26.2999497,3,14.8847063,0.131993268,1,1,1,1653371106,1,0,0,0,0,0,4,56.429188,10.21237,1,1,0.7,-0.8,350.6,0.2,0.2,0.3,8356,20,1,300,4,15
2022-05-24 06:45:12.864200192+01:00,-0.062630208,1.25,10.50026042,0.499479167,-0.374739583,1,1,1,26.29989941,3,14.88487907,0.131997228,1,1,1,1653371106,1,0,0,0,0,0,4,56.429188,10.21237,1,1,0.700100594,-0.799949703,350.5989941,0.2,0.200050297,0.3,8371,20,1,300,4,15
2022-05-24 06:45:12.864550144+01:00,-0.062174479,1.25,10.49934896,0.501302083,-0.375651042,1,1,1,26.2998642,3,14.885,0.132,1,1,1,1653371106,1,0,0,0,0,0,4,56.429188,10.21237,1,1,0.700171009,-0.799914496,350.5982899,0.2,0.200085504,0.3,8371,20,1,300,4,15
2022-05-24 06:45:12.864849920+01:00,-0.061783854,1.25,10.49856771,0.502864583,-0.376432292,1,1,1,26.29983402,3,14.88506096,0.132004828,1,1,1,1653371106,1,0,0,0,0,0,4,56.429188,10.21237,1,1,0.700231365,-0.799884317,350.5976863,0.2,0.200115683,0.3,8371,20,1,300,4,15
2022-05-24 06:45:12.912300032+01:00,0,1.25,10.375,0.75,-0.5,1,1,1,26.29506086,3,14.89470275,0.132768534,1,1,1,1653371106,1,0,0,0,0,0,4,56.429188,10.21237,1,1,0.709777688,-0.795111156,350.5022231,0.2,0.204888844,0.3,8371,20,1,300,4,15
2022-05-24 06:45:13.015300096+01:00,-0.125,1.375,10.125,0.25,-0.25,1.25,1,1,26.28469973,3,14.91563223,0.134426315,1,1,1,1653371106,1,0,0,0,0,0,4,56.429188,10.21237,1,1,0.73049995,-0.784750025,350.2950005,0.2,0.215249975,0.3,8371,20,1,300,4,15
2022-05-24 06:45:13.117350144+01:00,0,1.125,9.625,0.75,-0.25,1,1,1,26.27443416,3,14.93636868,0.136068806,1,1,1,1653371106,1,0,0,0,0,0,4,56.429188,10.21237,1,1,0.751031083,-0.774484458,350.0896892,0.2,0.225515542,0.3,8371,20,1,300,4,15
2022-05-24 06:45:13.217349888+01:00,-0.125,1.25,10.5,0.25,-0.5,1.25,1,1,26.26437481,3,14.95668856,0.137678302,1,1,1,1653371106,1,0,0,0,0,0,4,56.429188,10.21237,1,1,0.771149784,-0.764425108,349.8885022,0.2,0.235574892,0.3,8371,20,1,300,4,15
2022-05-24 06:45:13.318350080+01:00,-0.125,1.375,10.5,0.5,0,1.25,1,1,26.25421487,3,14.97721165,0.139303893,1,1,1,1653371106,1,0,0,0,0,0,4,56.429188,10.21237,1,1,0.791469671,-0.754265164,349.6853033,0.2,0.245734836,0.3,8371,20,1,300,4,15
2022-05-24 06:45:13.421349888+01:00,-0.375,1.25,10,0.5,1.25,1.25,1,1,26.24385374,3,14.99814113,0.140961674,1,1,1,1653371107,1,0,0,0,0,0,4,56.429188,10.21237,1,1,0.812191932,-0.743904034,349.4780807,0.2,0.256095966,0.3,8371,20,1,300,4,15
2022-05-24 06:45:13.522350080+01:00,-0.5,1.375,10.125,0.25,0,1.5,1,1,26.23369379,3,15.01866422,0.142587265,1,1,1,1653371107,1,0,0,0,0,0,4,56.429188,10.21237,1,1,0.83251182,-0.73374409,349.2748818,0.2,0.26625591,0.3,8371,20,1,300,4,15
2022-05-24 06:45:13.630350080+01:00,-0.625,1.375,9.625,1.25,-0.25,1,1,1,26.2228297,3,15.0406097,0.144325521,1,1,1,1653371107,1,0,0,0,0,0,4,56.429188,10.21237,1,1,0.854240016,-0.722879992,349.0575998,0.2,0.277120008,0.3,8371,20,1,300,4,15
