timestamps,AccelerationX,AccelerationY,AccelerationZ,AngularRateX,AngularRateY,AngularRateZ,ImuValid,AltitudeValid,Altitude,AltitudeAccuracy,Speed,SpeedAccuracy,SpeedValid,TimeValid,TimeConfirmed,Epoch,FenceValid,FenceCombined,Fence1,Fence2,Fence3,Fence4,PositionAccuracy,Latitude,Longitude,PositionValid,AttitudeValid,Roll,Pitch,Heading,RollAccuracy,PitchAccuracy,HeadingAccuracy,DistanceTrip,DistanceAccuracy,DistanceValid,DistanceTotal,FixType,Satellites
,m/s^2,m/s^2,m/s^2,deg/s,deg/s,deg/s,,,m,m,m/s,m/s,,,,sec,,,,,,,m,deg,deg,,,deg,deg,deg,deg,deg,deg,m,m,,km,,
2022-05-24 06:54:59.169850112+01:00,-0.25,0.875,10.125,0.5,-0.5,-1.0,1,1,42.600000000000364,3,0.006,0.033,1,1,1,1653371692.999,1,0,0,0,0,0,4,56.14512099999999,10.20872799999998,1,1,2.0,0.0,1.1,0.2,0.2,1.1,9977,25,1,301,4,8
2022-05-24 06:54:59.271849984+01:00,-0.25,0.875,10.0,0.5,-0.5,-1.0,1,1,42.600000000000364,3,0.006,0.033,1,1,1,1653371692.999,1,0,0,0,0,0,4,56.14512099999999,10.20872799999998,1,1,2.0,0.0,1.1,0.2,0.2,1.1,9977,25,1,301,4,8
2022-05-24 06:54:59.371900160+01:00,-0.25,1.0,10.0,0.5,-0.5,-1.0,1,1,42.600000000000364,3,0.006,0.033,1,1,1,1653371692.999,1,0,0,0,0,0,4,56.14512099999999,10.20872799999998,1,1,2.0,0.0,1.1,0.2,0.2,1.1,9977,25,1,301,4,8
2022-05-24 06:54:59.475899904+01:00,-0.375,0.875,10.125,0.25,0.0,-0.75,1,1,42.600000000000364,3,0.006,0.033,1,1,1,1653371692.999,1,0,0,0,0,0,4,56.14512099999999,10.20872799999998,1,1,2.0,0.0,1.1,0.2,0.2,1.1,9977,25,1,301,4,8
2022-05-24 06:54:59.577900032+01:00,-0.375,0.875,10.125,0.5,-0.25,-0.75,1,1,42.600000000000364,3,0.006,0.033,1,1,1,1653371692.999,1,0,0,0,0,0,4,56.14512099999999,10.20872799999998,1,1,2.0,0.0,1.1,0.2,0.2,1.1,9977,25,1,301,4,8
2022-05-24 06:54:59.681900032+01:00,-0.5,0.875,10.0,0.5,-0.25,-0.75,1,1,42.600000000000364,3,0.006,0.033,1,1,1,1653371692.999,1,0,0,0,0,0,4,56.14512099999999,10.20872799999998,1,1,2.0,0.0,1.1,0.2,0.2,1.1,9977,25,1,301,4,8
2022-05-24 06:54:59.782899968+01:00,-0.5,0.875,10.0,0.25,-0.5,-1.0,1,1,42.600000000000364,3,0.006,0.033,1,1,1,1653371692.999,1,0,0,0,0,0,4,56.14512099999999,10.20872799999998,1,1,2.0,0.0,1.1,0.2,0.2,1.1,9977,25,1,301,4,8
2022-05-24 06:54:59.857600+01:00,-0.5,0.875,10.088089622641387,0.25,-0.6761792452827765,-1.0,1,1,42.600000000000364,3,0.006,0.033,1,1,1,1653371692.999,1,0,0,0,0,0,4,56.14512099999999,10.20872799999998,1,1,2.0,0.0,1.1,0.2,0.2,1.1,9977,25,1,301,4,8
2022-05-24 06:54:59.858050048+01:00,-0.5,0.875,10.088620283018747,0.25,-0.6772405660374953,-1.0,1,1,42.600000000000364,3,0.006,0.033,1,1,1,1653371692.999,1,0,0,0,0,0,4,56.14512099999999,10.20872799999998,1,1,2.0,0.0,1.1,0.2,0.2,1.1,9977,25,1,301,4,8
2022-05-24 06:54:59.858500096+01:00,-0.5,0.875,10.089150943396106,0.25,-0.678301886792214,-1.0,1,1,42.600000000000364,3,0.006,0.033,1,1,1,1653371692.9994602,1,0,0,0,0,0,4,56.14512099999999,10.20872799999998,1,1,2.0,0.0,1.1,0.2,0.2,1.1,9977,25,1,301,4,8
2022-05-24 06:54:59.858850048+01:00,-0.5,0.875,10.089563679245193,0.25,-0.6791273584903882,-1.0,1,1,42.600000000000364,3,0.006,0.033,1,1,1,1653371692.999818,1,0,0,0,0,0,4,56.145121001073555,10.208728000357834,1,1,2.0,0.0,1.1,0.2,0.2,1.1,9977,25,1,301,4,8
2022-05-24 06:54:59.859299840+01:00,-0.5,0.875,10.090094339622553,0.25,-0.680188679245107,-1.0,1,1,42.600000000000364,3,0.006,0.033,1,1,1,1653371693.0002782,1,0,0,0,0,0,4,56.14512100245385,10.208728000817933,1,1,2.0,0.0,1.1,0.2,0.2,1.1,9977,25,1,301,4,8
2022-05-24 06:54:59.859800064+01:00,-0.5,0.875,10.090683962264183,0.25,-0.6813679245283661,-1.0,1,1,42.600000000000364,3,0.006,0.033,1,1,1,1653371693.0007894,1,0,0,0,0,0,4,56.14512100398751,10.208728001329154,1,1,2.0,-5.112213078082573e-05,1.1,0.2,0.2,1.1,9977,25,1,301,4,8
2022-05-24 06:54:59.860199936+01:00,-0.5,0.875,10.091155660377272,0.25,-0.6823113207545445,-1.0,1,1,42.600000000000364,3,0.006,0.033,1,1,1,1653371693.0011985,1,0,0,0,0,0,4,56.14512100521445,10.208728001738132,1,1,2.0,-9.201983538688819e-05,1.1,0.2,0.2,1.1,9977,25,1,301,4,8
2022-05-24 06:54:59.860450048+01:00,-0.5,0.875,10.091450471698087,0.25,-0.682900943396174,-1.0,1,1,42.600000000000364,3,0.006001789274577329,0.033,1,1,1,1653371693.001454,1,0,0,0,0,0,4,56.14512100598128,10.208728001993743,1,1,2.0,-0.00011758090077730105,1.1,0.2,0.2,1.1,9977,25,1,301,4,8
2022-05-24 06:54:59.888900096+01:00,-0.5,0.875,10.125,0.25,-0.75,-1.0,1,1,42.600000000000364,3,0.006205408721436035,0.033,1,1,1,1653371693.030544,1,0,0,0,0,0,4,56.14512109324676,10.208728031082236,1,1,2.0,-0.0030264301416157947,1.1,0.2,0.2,1.1,9977,25,1,301,4,8
2022-05-24 06:54:59.982899968+01:00,-0.375,0.875,10.0,0.25,-0.5,-0.75,1,1,42.600000000000364,3,0.006878175962375044,0.033,1,1,1,1653371693.1266587,1,0,0,0,0,0,4,56.14512138157557,10.208728127191844,1,1,2.0,-0.012637390726458229,1.1,0.2,0.2,1.1,9977,25,1,301,4,8
2022-05-24 06:55:00.085949952+01:00,-0.375,0.875,10.125,0.5,-0.75,-1.0,1,1,42.600000000000364,3,0.007615714942999367,0.033,1,1,1,1653371693.2320266,1,0,0,0,0,0,4,56.145121697663704,10.208728232554558,1,1,2.0,-0.02317366187823368,1.1,0.2,0.2,1.1,9977,25,1,301,4,8
2022-05-24 06:55:00.183949824+01:00,-0.25,1.0,10.0,0.75,-0.75,-0.75,1,1,42.600000000000364,3,0.008317110577169131,0.033,1,1,1,1653371693.332231,1,0,0,0,0,0,4,56.145121998261835,10.208728332753937,1,1,2.0,-0.033193599509229725,1.1,0.2,0.2,1.1,9977,25,1,301,4,8
2022-05-24 06:55:00.286950144+01:00,-0.375,1.0,10.125,0.25,-0.25,-0.75,1,1,42.600000000000364,3,0.009054291702878966,0.033,1,1,1,1653371693.4375482,1,0,0,0,0,0,4,56.1451223141966,10.20872843806553,1,1,2.0,-0.04372475844794104,1.1,0.2,0.2,1.1,9977,25,1,301,4,8
2022-05-24 06:55:00.388999936+01:00,-0.375,1.0,10.0,0.5,-0.75,-1.0,1,1,42.600000000000364,3,0.0097846735851956,0.033,1,1,1,1653371693.5418937,1,0,0,0,0,0,4,56.145122627217404,10.208728542405801,1,1,2.0,-0.05415878533817809,1.1,0.2,0.2,1.1,9977,25,1,301,4,8
2022-05-24 06:55:00.491950080+01:00,-0.5,0.875,10.125,0.25,-0.5,-1.0,1,1,42.600000000000364,3,0.010521496855989318,0.033,1,1,1,1653371693.6471596,1,0,0,0,0,0,4,56.14512294299881,10.208728647666272,1,1,2.0,-0.06468483206380202,1.1,0.2,0.2,1.1,9977,25,1,301,4,8
2022-05-24 06:55:00.592999936+01:00,-0.625,0.875,10.125,0.5,0.0,-1.0,1,1,42.600000000000364,3,0.011244721639998264,0.033,1,1,1,1653371693.7504828,1,0,0,0,0,0,4,56.14512325295229,10.2087287509841,1,1,2.0,-0.07501661469250066,1.1,0.2,0.2,1.1,9977,25,1,301,4,8
2022-05-24 06:55:00.695950080+01:00,-0.625,1.0,10.0,0.75,-0.5,-0.75,1,1,42.600000000000364,3,0.01198154491079198,0.033,1,1,1,1653371693.8557487,1,0,0,0,0,0,4,56.14512356873369,10.20872885624457,1,1,2.0,-0.0855426614181246,1.1,0.2,0.2,1.1,9977,25,1,301,4,8
2022-05-24 06:55:00.797949952+01:00,-0.625,1.0,10.0,0.25,-0.5,-0.75,1,1,42.600000000000364,3,0.012711568938194126,0.033,1,1,1,1653371693.960043,1,0,0,0,0,0,4,56.14512388160113,10.208728960533719,1,1,2.0,-0.09597157609529751,1.1,0.2,0.2,1.1,9977,25,1,301,4,8
2022-05-24 06:55:00.835650048+01:00,-0.625,0.9519377868436554,10.0,0.1538755736873107,-0.3077511473746214,-0.8461244263126892,1,1,42.600000000000364,3,0.012981391544399359,0.033,1,1,1,1653371693.9985912,1,0,0,0,0,0,4,56.14512399723939,10.208728999079806,1,1,2.0,-0.09982618475537205,1.1,0.2,0.2,1.1,9977,25,1,301,4,10
2022-05-24 06:55:00.836049920+01:00,-0.625,0.9514278429373235,10.0,0.15285568587464693,-0.30571137174929386,-0.8471443141253531,1,1,42.600000000000364,3,0.012984254383723411,0.033,1,1,1,1653371693.999,1,0,0,0,0,0,4,56.14512399846632,10.208728999488784,1,1,2.0,-0.09986708246000137,1.1,0.2,0.2,1.1,9977,25,1,301,4,10
2022-05-24 06:55:00.836549888+01:00,-0.625,0.950790413054771,10.0,0.15158082610954188,-0.30316165221908375,-0.8484191738904581,1,1,42.600000000000364,3,0.012987832932876442,0.033,1,1,1,1653371693.999493,1,0,0,0,0,0,4,56.14512399999998,10.208729000000005,1,1,2.0,-0.09991820459075894,1.1,0.2,0.2,1.1,9977,25,1,301,4,10
2022-05-24 06:55:00.836900096+01:00,-0.625,0.9503442121368393,10.0,0.15068842427367848,-0.30137684854735697,-0.8493115757263215,1,1,42.600000000000364,3,0.012990337917284378,0.033,1,1,1,1653371693.9998379,1,0,0,0,0,0,4,56.14512400034499,10.208729000000005,1,1,2.0,-0.09995399008230087,1.1,0.2,0.2,1.1,9977,25,1,301,4,10
2022-05-24 06:55:00.837349888+01:00,-0.625,0.949770525242397,10.0,0.1495410504847941,-0.2990821009695882,-0.850458949515206,1,1,42.600000000000364,3,0.012993558611522918,0.033,1,1,1,1653371694.0002816,1,0,0,0,0,0,4,56.145124000788584,10.208729000000005,1,1,2.0,-0.09999999999999432,1.1,0.2,0.2,1.1,9977,25,1,301,4,10
2022-05-24 06:55:00.837850112+01:00,-0.625,0.9491330953595547,10.0,0.1482661907191093,-0.2965323814382186,-0.8517338092808907,1,1,42.600000000000364,3,0.012997137160677576,0.033,1,1,1,1653371694.0007744,1,0,0,0,0,0,4,56.14512400128147,10.208729000000005,1,1,2.0,-0.10009857072450923,1.1,0.2,0.2,1.1,9977,25,1,301,4,10
2022-05-24 06:55:00.838249984+01:00,-0.625,0.9486231514535126,10.0,0.14724630290702528,-0.29449260581405057,-0.8527536970929748,1,1,42.600000000000364,3,0.013000000000000001,0.033,1,1,1,1653371694.0011687,1,0,0,0,0,0,4,56.14512400167577,10.208729000000005,1,1,2.0,-0.10017742730408528,1.1,0.2,0.2,1.1,9977,25,1,301,4,10
2022-05-24 06:55:00.838500096+01:00,-0.625,0.9483044365120914,10.0,0.14660887302418288,-0.29321774604836576,-0.8533911269758171,1,1,42.600000000000364,3,0.013005914534970893,0.033,1,1,1,1653371694.001415,1,0,0,0,0,0,4,56.145124001922206,10.208729000000005,1,1,2.0,-0.10022671266634274,1.1,0.2,0.2,1.1,9977,25,1,301,4,10
2022-05-24 06:55:00.896000+01:00,-0.625,0.875,10.0,0.0,0.0,-1.0,1,1,42.600000000000364,3,0.014366257578001765,0.033,1,1,1,1653371694.0580933,1,0,0,0,0,0,4,56.145124058603166,10.208729000000005,1,1,2.0,-0.11156234598327111,1.1,0.2,0.2,1.1,9977,25,1,301,4,10
2022-05-24 06:55:00.997999872+01:00,-0.625,0.875,10.0,0.5,-0.5,-0.75,1,1,42.600000000000364,3,0.016779387845630905,0.033,1,1,1,1653371694.1586354,1,0,0,0,0,0,4,56.145124159150264,10.208729000000005,1,1,2.0,-0.1316707737801885,1.1,0.2,0.2,1.1,9977,25,1,301,4,10
2022-05-24 06:55:01.101000192+01:00,-0.625,1.0,10.0,0.5,-0.5,-0.75,1,1,42.600000000000364,3,0.019216176253143615,0.033,1,1,1,1653371694.2601633,1,0,0,0,0,0,4,56.14512426068312,10.208729000000005,1,1,2.0,-0.15197634302613566,1.1,0.2,0.2,1.1,9977,25,1,301,4,10
2022-05-24 06:55:01.203049984+01:00,-0.625,1.0,10.125,0.5,-0.5,-1.0,1,1,42.600000000000364,3,0.021630489427769087,0.033,1,1,1,1653371694.3607547,1,0,0,0,0,0,4,56.1451243612795,10.208729000000005,1,1,2.0,-0.1720946278955225,1.1,0.2,0.2,1.1,9977,25,1,301,4,10
2022-05-24 06:55:01.303049984+01:00,-0.625,0.875,10.0,0.25,-0.5,-0.75,1,1,42.600000000000364,3,0.023996303415641847,0.033,1,1,1,1653371694.4593253,1,0,0,0,0,0,4,56.14512445985509,10.208729000000005,1,1,2.0,-0.19180877279446987,1.1,0.2,0.2,1.1,9977,25,1,301,4,10
2022-05-24 06:55:01.406050048+01:00,-0.625,0.875,10.0,0.25,-0.5,-0.75,1,1,42.600000000000364,3,0.026433091823154557,0.033,1,1,1,1653371694.5608532,1,0,0,0,0,0,4,56.14512456138794,10.208729000000005,1,1,2.0,-0.21211434204041707,1.1,0.2,0.2,1.1,9977,25,1,301,4,10
2022-05-24 06:55:01.504049920+01:00,-0.625,0.875,10.125,0.25,-0.25,-0.75,1,1,42.600000000000364,3,0.028751589531270938,0.033,1,1,1,1653371694.6574526,1,0,0,0,0,0,4,56.145124657992014,10.208729000000005,1,1,2.0,-0.23143420404139448,1.1,0.2,0.2,1.1,9977,25,1,301,4,10
2022-05-24 06:55:01.608050176+01:00,-0.5,0.875,10.0,0.5,-0.75,-0.75,1,1,42.600000000000364,3,0.031212036078661836,0.033,1,1,1,1653371694.7599661,1,0,0,0,0,0,4,56.145124760510626,10.208729000000005,1,1,2.0,-0.2519369147363266,1.1,0.2,0.2,1.1,9977,25,1,301,4,10
2022-05-24 06:55:01.712049920+01:00,-0.625,1.0,10.125,0.25,-0.25,-0.75,1,1,42.600000000000364,3,0.033672482626052734,0.033,1,1,1,1653371694.8624797,1,0,0,0,0,0,4,56.14512486302923,10.208729000000005,1,1,2.0,-0.2724396254312588,1.1,0.2,0.2,1.1,9977,25,1,301,4,10
2022-05-24 06:55:01.814050048+01:00,-0.5,0.875,10.0,0.25,-0.75,-1.0,1,1,42.600000000000364,3,0.03608561289368725,0.033,1,1,1,1653371694.9630218,1,0,0,0,0,0,4,56.14512496357633,10.208729000000005,1,1,2.0,-0.292548053228221,1.1,0.2,0.2,1.1,9977,25,1,301,4,10
2022-05-24 06:55:01.850150144+01:00,-0.45397756246829646,0.875,10.0,0.34204487506340714,-0.75,-0.9079551249365929,1,1,42.600000000000364,3,0.03693967174330551,0.033,1,1,1,1653371694.9986057,1,0,0,0,0,0,4,56.145124999162114,10.208729000000005,1,1,2.0,-0.2996648595367092,1.1,0.2,0.2,1.1,9977,25,1,301,4,10
2022-05-24 06:55:01.850550016+01:00,-0.4534676185619634,0.875,10.0,0.3430647628760733,-0.75,-0.9069352371239268,1,1,42.600000000000364,3,0.03694913499926,0.033,1,1,1,1653371694.999,1,0,0,0,0,0,4,56.145124999556415,10.208729000000005,1,1,2.0,-0.2997437161163301,1.1,0.2,0.2,1.1,9977,25,1,301,4,10
2022-05-24 06:55:01.851000064+01:00,-0.45289393166751984,0.875,10.0,0.3442121366649603,-0.75,-0.9057878633350397,1,1,42.600000000000364,3,0.03695978116220546,0.033,1,1,1,1653371694.9994612,1,0,0,0,0,0,4,56.14512500000001,10.208729000000005,1,1,2.0,-0.2998324297683756,1.1,0.2,0.2,1.1,9977,25,1,301,4,10
2022-05-24 06:55:01.851350016+01:00,-0.4524477307495871,0.875,10.0,0.3451045385008258,-0.75,-0.9048954614991742,1,1,42.600000000000364,3,0.036968061511163636,0.033,1,1,1,1653371694.9998195,1,0,0,0,0,0,4,56.14512500071711,10.208729000000005,1,1,2.0,-0.2999014292755271,1.1,0.2,0.2,1.1,9977,25,1,301,4,10
2022-05-24 06:55:01.851849984+01:00,-0.4518103008670331,0.875,10.0,0.3463793982659338,-0.75,-0.9036206017340662,1,1,42.600000000000364,3,0.03697989058110004,0.033,1,1,1,1653371695.0003319,1,0,0,0,0,0,4,56.14512500174154,10.208729000000005,1,1,2.0,-0.29999999999999716,1.1,0.2,0.2,1.1,9977,25,1,301,4,10
2022-05-24 06:55:01.852349952+01:00,-0.45117287098418923,0.875,10.0,0.34765425803162153,-0.75,-0.9023457419683785,1,1,42.600000000000364,3,0.036991719651041824,0.033,1,1,1,1653371695.000844,1,0,0,0,0,0,4,56.14512500276597,10.208729000000005,1,1,2.0,-0.300051224259817,1.1,0.2,0.2,1.1,9977,25,1,301,4,10
2022-05-24 06:55:01.852699904+01:00,-0.4507266700662565,0.875,10.0,0.348546659867487,-0.75,-0.901453340132513,1,1,42.600000000000364,3,0.037,0.033,1,1,1,1653371695.0012026,1,0,0,0,0,0,4,56.14512500348308,10.208729000000005,1,1,2.0,-0.30008708124168626,1.1,0.2,0.2,1.1,9977,25,1,301,4,10
2022-05-24 06:55:01.852999936+01:00,-0.4503442121367241,0.875,10.0,0.3493115757265518,-0.75,-0.9006884242734482,1,1,42.600000000000364,3,0.0369892434564387,0.033,1,1,1,1653371695.00151,1,0,0,0,0,0,4,56.145125004097736,10.208729000000005,1,1,2.0,-0.30011781579756425,1.1,0.2,0.2,1.1,9977,25,1,301,4,10
2022-05-24 06:55:01.912100096+01:00,-0.375,0.875,10.0,0.5,-0.75,-0.75,1,1,42.600000000000364,3,0.03487020437433234,0.033,1,1,1,1653371695.062054,1,0,0,0,0,0,4,56.145125125185686,10.208729000000005,1,1,2.0,-0.3061725233070341,1.1,0.2,0.2,1.1,9977,25,1,301,4,10
2022-05-24 06:55:02.013100032+01:00,-0.375,1.0,10.0,0.5,-0.75,-1.0,1,1,42.600000000000364,3,0.031248834707781004,0.033,1,1,1,1653371695.1655216,1,0,0,0,0,0,4,56.1451253321211,10.208729000000005,1,1,2.0,-0.31651982378855215,1.1,0.2,0.2,1.1,9977,25,1,301,4,10
2022-05-24 06:55:02.118099968+01:00,-0.25,0.875,10.25,0.75,-0.5,-0.75,1,1,42.600000000000364,3,0.027484044460379702,0.033,1,1,1,1653371695.273087,1,0,0,0,0,0,4,56.145125547251965,10.208729000000005,1,1,2.0,-0.32727691834853606,1.1,0.2,0.2,1.1,9977,25,1,301,4,10
2022-05-24 06:55:02.219099904+01:00,-0.25,0.875,10.0,0.25,-0.25,-0.75,1,1,42.600000000000364,3,0.023862674793836518,0.033,1,1,1,1653371695.3765547,1,0,0,0,0,0,4,56.145125754187376,10.208729000000005,1,1,2.0,-0.33762421883003085,1.1,0.2,0.2,1.1,9977,25,1,301,4,10
2022-05-24 06:55:02.319099904+01:00,-0.25,0.875,10.0,0.5,-0.5,-1.0,1,1,42.600000000000364,3,0.020277160272497673,0.033,1,1,1,1653371695.478998,1,0,0,0,0,0,4,56.145125959073916,10.208729000000005,1,1,2.0,-0.34786907079193247,1.1,0.2,0.2,1.1,9977,25,1,301,4,10
2022-05-24 06:55:02.422099968+01:00,-0.25,0.875,10.125,0.25,-0.75,-0.75,1,1,42.600000000000364,3,0.016584080315529506,0.033,1,1,1,1653371695.5845146,1,0,0,0,0,0,4,56.145126170107055,10.208729000000005,1,1,2.0,-0.3584212683126602,1.1,0.2,0.2,1.1,9977,25,1,301,4,10
2022-05-24 06:55:02.522150144+01:00,-0.25,0.875,10.0,0.5,-0.25,-0.75,1,1,42.600000000000364,3,0.012996773036934525,0.033,1,1,1,1653371695.687009,1,0,0,0,0,0,4,56.14512637509605,10.208729000000005,1,1,2.0,-0.3686712427005298,1.1,0.2,0.2,1.1,9977,25,1,301,4,10
2022-05-24 06:55:02.626149888+01:00,-0.25,0.875,10.0,0.5,-0.5,-1.0,1,1,42.600000000000364,3,0.009267837934745712,0.033,1,1,1,1653371695.79355,1,0,0,0,0,0,4,56.14512658817805,10.208729000000005,1,1,2.0,-0.37932588874089723,1.1,0.2,0.2,1.1,9977,25,1,301,4,10
2022-05-24 06:55:02.729149952+01:00,-0.25,0.875,10.125,0.5,-0.25,-1.0,1,1,42.600000000000364,3,0.005574757977769393,0.033,1,1,1,1653371695.8990667,1,0,0,0,0,0,4,56.14512679921119,10.208729000000005,1,1,2.0,-0.3898780862616482,1.1,0.2,0.2,1.1,9977,25,1,301,4,10
2022-05-24 06:55:02.826249984+01:00,-0.25,0.875,10.125,0.2596534653463736,-0.4903465346536264,-0.7596534653463736,1,1,42.600000000000364,3,0.002093223377555742,0.033,1,1,1,1653371695.998539,1,0,0,0,0,0,4,56.14512699815602,10.208729000000005,1,1,2.0,-0.39982583751663653,1.1,0.2,0.2,1.1,9977,25,1,301,4,10
2022-05-24 06:55:02.826700032+01:00,-0.25,0.875,10.125,0.2585396039602319,-0.4914603960397681,-0.7585396039602319,1,1,42.600000000000364,3,0.002077088562209714,0.033,1,1,1,1653371695.999,1,0,0,0,0,0,4,56.145126999078016,10.208729000000005,1,1,2.0,-0.39987193935046506,1.1,0.2,0.2,1.1,9977,25,1,301,4,10
2022-05-24 06:55:02.827150080+01:00,-0.25,0.875,10.125,0.25742574257409023,-0.49257425742590977,-0.7574257425740902,1,1,42.600000000000364,3,0.0020609537468636863,0.033,1,1,1,1653371695.9994388,1,0,0,0,0,0,4,56.145127,10.208729000000005,1,1,2.0,-0.39991804118429364,1.1,0.2,0.2,1.1,9977,25,1,301,4,10
2022-05-24 06:55:02.827500032+01:00,-0.25,0.875,10.125,0.256559405940362,-0.493440594059638,-0.756559405940362,1,1,42.600000000000364,3,0.002048404446038092,0.033,1,1,1,1653371695.99978,1,0,0,0,0,0,4,56.145127000682464,10.208729000000005,1,1,2.0,-0.3999538981661629,1.1,0.2,0.2,1.1,9977,25,1,301,4,10
2022-05-24 06:55:02.827950080+01:00,-0.25,0.875,10.125,0.2554455445542203,-0.4945544554457797,-0.7554455445542203,1,1,42.600000000000364,3,0.0020322696306920643,0.033,1,1,1,1653371696.0002189,1,0,0,0,0,0,4,56.14512700155991,10.208729000000005,1,1,2.0,-0.3999999999999915,1.1,0.2,0.2,1.1,9977,25,1,301,4,10
2022-05-24 06:55:02.828450048+01:00,-0.25,0.875,10.125,0.2542079207921533,-0.4957920792078467,-0.7542079207921533,1,1,42.600000000000364,3,0.0020143420580898894,0.033,1,1,1,1653371696.0007062,1,0,0,0,0,0,4,56.145127002534856,10.208729000000005,1,1,2.0,-0.39995125280296756,1.1,0.2,0.2,1.1,9977,25,1,301,4,10
2022-05-24 06:55:02.828849920+01:00,-0.25,0.875,10.125,0.25321782178193697,-0.49678217821806303,-0.753217821781937,1,1,42.600000000000364,3,0.002,0.033,1,1,1,1653371696.0010962,1,0,0,0,0,0,4,56.14512700331481,10.208729000000005,1,1,2.0,-0.39991225504532624,1.1,0.2,0.2,1.1,9977,25,1,301,4,10
2022-05-24 06:55:02.829149952+01:00,-0.25,0.875,10.125,0.25247524752469674,-0.49752475247530326,-0.7524752475246967,1,1,42.600000000000364,3,0.0020058496636428725,0.033,1,1,1,1653371696.0013888,1,0,0,0,0,0,4,56.14512700389978,10.208729000000005,1,1,2.0,-0.39988300672711186,1.1,0.2,0.2,1.1,9977,25,1,301,4,10
2022-05-24 06:55:02.830149888+01:00,-0.25,0.875,10.125,0.25,-0.5,-0.75,1,1,42.600000000000364,3,0.0020253485424568812,0.033,1,1,1,1653371696.0023637,1,0,0,0,0,0,4,56.145127005849666,10.208729000000005,1,1,2.0,-0.3997855123330418,1.1,0.2,0.2,1.1,9977,25,1,301,4,10
2022-05-24 06:55:02.930200064+01:00,-0.25,0.875,10.0,0.5,-0.5,-0.75,1,1,42.600000000000364,3,0.003976211367844781,0.033,1,1,1,1653371696.0999067,1,0,0,0,0,0,4,56.145127200935946,10.208729000000005,1,1,2.0,-0.3900311982061029,1.1,0.2,0.2,1.1,9977,25,1,301,4,10
2022-05-24 06:55:03.030200064+01:00,-0.25,0.875,10.0,0.5,0.0,-1.0,1,1,42.600000000000364,3,0.005926099249294419,0.033,1,1,1,1653371696.197401,1,0,0,0,0,0,4,56.14512739592474,10.208729000000005,1,1,2.0,-0.38028175879885523,1.1,0.2,0.2,1.1,9977,25,1,301,4,10
2022-05-24 06:55:03.132199936+01:00,-0.25,0.875,10.125,0.5,-0.25,-0.75,1,1,42.600000000000364,3,0.00791498488836764,0.033,1,1,1,1653371696.2968454,1,0,0,0,0,0,4,56.145127594813296,10.208729000000005,1,1,2.0,-0.3703373306034897,1.1,0.2,0.2,1.1,9977,25,1,301,4,10
2022-05-24 06:55:03.234200064+01:00,-0.25,0.875,10.0,0.0,-0.5,-1.0,1,1,42.600000000000364,3,0.009903870527445296,0.033,1,1,1,1653371696.3962898,1,0,0,0,0,0,4,56.14512779370186,10.208729000000005,1,1,2.0,-0.36039290240810196,1.1,0.2,0.2,1.1,9977,25,1,301,4,10
2022-05-24 06:55:03.336199936+01:00,-0.25,0.875,10.0,0.5,-0.25,-0.75,1,1,42.600000000000364,3,0.01189275616652295,0.033,1,1,1,1653371696.495734,1,0,0,0,0,0,4,56.145127992590425,10.208729000000005,1,1,2.0,-0.3504484742127143,1.1,0.2,0.2,1.1,9977,25,1,301,4,10
2022-05-24 06:55:03.439249920+01:00,-0.25,0.875,10.125,0.75,-0.5,-1.0,1,1,42.600000000000364,3,0.013902115628352876,0.033,1,1,1,1653371696.596202,1,0,0,0,0,0,4,56.14512819352637,10.208729000000005,1,1,2.0,-0.3404016769035652,1.1,0.2,0.2,1.1,9977,25,1,301,4,10
2022-05-24 06:55:03.543250176+01:00,-0.25,0.875,10.0,0.5,-0.5,-1.0,1,1,42.600000000000364,3,0.01592999902505855,0.033,1,1,1,1653371696.697596,1,0,0,0,0,0,4,56.14512839631471,10.208729000000005,1,1,2.0,-0.33026225992003744,1.1,0.2,0.2,1.1,9977,25,1,301,4,10
2022-05-24 06:55:03.644249856+01:00,-0.25,0.875,10.0,0.5,-0.25,-0.75,1,1,42.600000000000364,3,0.01789938578531776,0.033,1,1,1,1653371696.7960656,1,0,0,0,0,0,4,56.14512859325339,10.208729000000005,1,1,2.0,-0.3204153261187419,1.1,0.2,0.2,1.1,9977,25,1,301,4,10
2022-05-24 06:55:03.750249984+01:00,-0.25,0.875,10.125,0.5,-0.5,-1.0,1,1,42.600000000000364,3,0.01996626693965145,0.033,1,1,1,1653371696.8994095,1,0,0,0,0,0,4,56.1451287999415,10.208729000000005,1,1,2.0,-0.3100809203470741,1.1,0.2,0.2,1.1,9977,25,1,301,4,10
2022-05-24 06:55:03.849250048+01:00,-0.375,0.875,10.0,0.0,0.0,-0.75,1,1,42.600000000000364,3,0.02189665594228265,0.033,1,1,1,1653371696.995929,1,0,0,0,0,0,4,56.1451289929804,10.208729000000005,1,1,2.0,-0.30042897533391866,1.1,0.2,0.2,1.1,9977,25,1,301,4,10
2022-05-24 06:55:03.851949824+01:00,-0.375,0.875,9.99655612244898,0.01377551020407808,-0.00688775510203904,-0.7431122448979609,1,1,42.600000000000364,3,0.0219493029150818,0.033,1,1,1,1653371696.9985614,1,0,0,0,0,0,4,56.1451289982451,10.208729000000005,1,1,2.0,-0.3001657404699229,1.1,0.2,0.2,1.1,9977,25,1,301,4,9
2022-05-24 06:55:03.852400128+01:00,-0.375,0.875,9.995982142857144,0.016071428571424427,-0.008035714285712214,-0.7419642857142877,1,1,42.600000000000364,3,0.021958077410548324,0.033,1,1,1,1653371696.999,1,0,0,0,0,0,4,56.14512899912255,10.208729000000005,1,1,2.0,-0.3001218679925902,1.1,0.2,0.2,1.1,9977,25,1,301,4,9
2022-05-24 06:55:03.852849920+01:00,-0.375,0.875,9.995408163265306,0.018367346938770776,-0.009183673469385388,-0.7408163265306146,1,1,42.600000000000364,3,0.021966851906014856,0.033,1,1,1,1653371696.9994507,1,0,0,0,0,0,4,56.145129,10.208729000000005,1,1,2.0,-0.3000779955152576,1.1,0.2,0.2,1.1,9977,25,1,301,4,9
2022-05-24 06:55:03.853199872+01:00,-0.375,0.875,9.994961734693847,0.020153061224613498,-0.010076530612306749,-0.7399234693876933,1,1,42.600000000000364,3,0.021973676513600424,0.033,1,1,1,1653371696.9998014,1,0,0,0,0,0,4,56.14512900105163,10.208729000000005,1,1,2.0,-0.3000438724773298,1.1,0.2,0.2,1.1,9977,25,1,301,4,9
2022-05-24 06:55:03.853650176+01:00,-0.375,0.875,9.99438775510201,0.022448979591959843,-0.011224489795979922,-0.7387755102040201,1,1,42.60004507211575,3,0.02198245100906695,0.033,1,1,1,1653371697.000252,1,0,0,0,0,0,4,56.14512900240372,10.208729000000005,1,1,2.0,-0.29999999999999716,1.1,0.2,0.2,1.1,9977,25,1,301,4,9
2022-05-24 06:55:03.854150144+01:00,-0.375,0.875,9.99374999999984,0.025000000000638036,-0.012500000000319018,-0.737499999999681,1,1,42.600095152243966,3,0.02199220044847617,0.033,1,1,1,1653371697.0007527,1,0,0,0,0,0,4,56.14512900390605,10.208729000000005,1,1,2.0,-0.3000500776203188,1.0997496118983916,0.2,0.2,1.1,9977,25,1,301,4,9
2022-05-24 06:55:03.854549760+01:00,-0.375,0.875,9.993239795918337,0.027040816326652537,-0.013520408163326269,-0.7364795918366738,1,1,42.600135216346516,3,0.022,0.033,1,1,1,1653371697.0011535,1,0,0,0,0,0,4,56.14512900510791,10.208729000000005,1,1,2.0,-0.30009013971655796,1.099549301417196,0.2,0.2,1.1,9977,25,1,301,4,9
2022-05-24 06:55:03.854850048+01:00,-0.375,0.875,9.99285714285692,0.02857142857232348,-0.01428571428616174,-0.7357142857138382,1,1,42.60016526442346,3,0.022028544243592012,0.0330156242175451,1,1,1,1653371697.0014539,1,0,0,0,0,0,4,56.14512900600931,10.208729000000005,1,1,2.0,-0.3001201862887601,1.0993990685561854,0.2,0.2,1.1,9977,25,1,301,4,9
2022-05-24 06:55:03.947249920+01:00,-0.375,0.875,9.875,0.5,-0.25,-0.5,1,1,42.609420072115796,3,0.030820171265475302,0.03782788321899701,1,1,1,1653371697.0939972,1,0,0,0,0,0,4,56.14512928363964,10.208729000000005,1,1,2.0,-0.3093745305223209,1.0531273473883787,0.2,0.2,1.1,9977,25,1,301,4,9
2022-05-24 06:55:04.048300032+01:00,-0.5,1.0,10.0,0.75,0.0,-0.5,1,1,42.61954126602608,3,0.040434823977176695,0.04309064049277041,1,1,1,1653371697.1952043,1,0,0,0,0,0,4,56.14512958726025,10.208729000000005,1,1,2.0,-0.3194952175872692,1.0025239120636344,0.2,0.2,1.1,9977,25,1,301,4,9
2022-05-24 06:55:04.149300224+01:00,-0.625,1.0,10.0,0.5,-0.25,-0.25,1,1,42.62965745192355,3,0.05004471931493888,0.04835079373028234,1,1,1,1653371697.296361,1,0,0,0,0,0,4,56.14512989073063,10.208729000000005,1,1,2.0,-0.32961089689017614,0.9519455155490967,0.2,0.2,1.1,9977,25,1,301,4,9
2022-05-24 06:55:04.250299904+01:00,-0.625,1.0,10.0,0.25,-0.25,0.0,1,1,42.63977363782103,3,0.0596546146527227,0.05361094696780611,1,1,1,1653371697.3975177,1,0,0,0,0,0,4,56.14513019420101,10.208729000000005,1,1,2.0,-0.3397265761931059,0.901367119034445,0.2,0.2,1.1,9977,25,1,301,4,9
2022-05-24 06:55:04.350300160+01:00,-0.75,1.0,10.0,0.5,-0.25,-0.25,1,1,42.64978966346208,3,0.06916936251189532,0.05881901948019534,1,1,1,1653371697.497673,1,0,0,0,0,0,4,56.145130494666724,10.208729000000005,1,1,2.0,-0.3497421002553923,0.8512894987230102,0.2,0.2,1.1,9977,25,1,301,4,9
2022-05-24 06:55:04.453299968+01:00,-0.75,0.875,10.0,0.5,-0.25,-0.25,1,1,42.66010616987238,3,0.07896955280685827,0.06418333416796453,1,1,1,1653371697.600833,1,0,0,0,0,0,4,56.14513080414642,10.208729000000005,1,1,2.0,-0.36005809003956324,0.7997095498021526,0.2,0.2,1.1,9977,25,1,301,4,9
2022-05-24 06:55:04.556349952+01:00,-0.75,1.0,10.0,0.5,-0.25,0.0,1,1,42.67042768429548,3,0.08877450047573879,0.06955025289198334,1,1,1,1653371697.704043,1,0,0,0,0,0,4,56.145131113776344,10.208729000000005,1,1,2.0,-0.37037908758575266,0.7481045620712025,0.2,0.2,1.1,9977,25,1,301,4,9
2022-05-24 06:55:04.658350080+01:00,-0.75,1.0,10.125,0.5,-0.25,0.0,1,1,42.68064403044937,3,0.09847954329211217,0.07486248685462982,1,1,1,1653371697.8062012,1,0,0,0,0,0,4,56.14513142025138,10.208729000000005,1,1,2.0,-0.380594922129303,0.6970253893534478,0.2,0.2,1.1,9977,25,1,301,4,9
2022-05-24 06:55:04.762350080+01:00,-0.75,0.875,9.875,0.5,-0.25,0.0,1,1,42.69106069711608,3,0.10837488106566467,0.08027888226752172,1,1,1,1653371697.9103627,1,0,0,0,0,0,4,56.14513173273573,10.208729000000005,1,1,2.0,-0.39101106715409456,0.6449446642294873,0.2,0.2,1.1,9977,25,1,301,4,9
2022-05-24 06:55:04.850400+01:00,-0.75,0.875,9.875,0.5,-0.45766509433925406,0.0,1,1,42.69987980769302,3,0.1167526165556585,0.08486459011467623,1,1,1,1653371697.9985495,1,0,0,0,0,0,4,56.1451319972958,10.208729000000005,1,1,2.0,-0.39982973609092964,0.6008513195453093,0.2,0.2,1.1,9977,25,1,301,4,9
2022-05-24 06:55:04.850850048+01:00,-0.75,0.875,9.875,0.5,-0.45872641509397283,0.0,1,1,42.69992487980841,3,0.11679543292102487,0.08488802644098203,1,1,1,1653371697.999,1,0,0,0,0,0,4,56.14513199864789,10.208729000000005,1,1,2.0,-0.39987480594921004,0.6006259702539073,0.2,0.2,1.1,9977,25,1,301,4,9
2022-05-24 06:55:04.851300096+01:00,-0.75,0.875,9.875,0.5,-0.4597877358486916,0.0,1,1,42.69996995192379,3,0.11683824928639125,0.08491146276728785,1,1,1,1653371697.9994445,1,0,0,0,0,0,4,56.14513199999999,10.208729000000005,1,1,2.0,-0.39991987580749044,0.6004006209625052,0.2,0.2,1.1,9977,25,1,301,4,9
2022-05-24 06:55:04.851599872+01:00,-0.75,0.875,9.875,0.5,-0.46049528301886156,0.0,1,1,42.70000000000073,3,0.11686679352998328,0.08492708698483295,1,1,1,1653371697.9997406,1,0,0,0,0,0,4,56.14513199999999,10.208729000000005,1,1,2.0,-0.39994992237969257,0.6002503881014947,0.2,0.2,1.1,9977,25,1,301,4,9
2022-05-24 06:55:04.852099840+01:00,-0.75,0.875,9.875,0.5,-0.4616745283015845,0.0,1,1,42.70000000000073,3,0.11691436726926724,0.08495312734738839,1,1,1,1653371698.0002344,1,0,0,0,0,0,4,56.14513199999999,10.208729000000005,1,1,2.0,-0.3999999999999915,0.6000000000000001,0.2,0.2,1.1,9977,25,1,301,4,9
2022-05-24 06:55:04.852600064+01:00,-0.75,0.875,9.875,0.5,-0.4628537735848437,0.0,1,1,42.70000000000073,3,0.11696194100857282,0.08497916770995566,1,1,1,1653371698.0007281,1,0,0,0,0,0,4,56.14513199999999,10.208729000000005,1,1,2.0000493705258062,-0.40004937052579764,0.7773882992215083,0.20004937052580615,0.20004937052580615,1.1,9978,25,1,301,4,9
2022-05-24 06:55:04.852999936+01:00,-0.75,0.875,9.875,0.5,-0.46379716981102204,0.0,1,1,42.70000000000073,3,0.117,0.085,1,1,1,1653371698.0011232,1,0,0,0,0,0,4,56.14513199999999,10.208729000000005,1,1,2.000088866946433,-0.4000888669464246,0.9192989385341814,0.20008886694643313,0.20008886694643313,1.1,9978,25,1,301,4,9
2022-05-24 06:55:04.853250048+01:00,-0.75,0.875,9.875,0.5,-0.4643867924526516,0.0,1,1,42.70000000000073,3,0.1170824528488368,0.08500888713340757,1,1,1,1653371698.00137,1,0,0,0,0,0,4,56.14513199999999,10.208729000000005,1,1,2.0001135522093363,-0.40011355220932765,1.0079930881449355,0.20011355220933622,0.20011355220933622,1.1,9978,25,1,301,4,9
2022-05-24 06:55:04.868349952+01:00,-0.75,0.875,9.875,0.5,-0.5,0.0,1,1,42.70000000000073,3,0.12206260491758869,0.08554566999111735,1,1,1,1653371698.0162807,1,0,0,0,0,0,4,56.14513199999999,10.208729000000005,1,1,2.001604542088386,-0.40160454208837726,6.365119723569681,0.20160454208838569,0.20160454208838569,1.1,9978,25,1,301,4,9
2022-05-24 06:55:04.963350016+01:00,-0.75,1.0,10.125,0.75,-0.25,-0.25,1,1,42.70000000000073,3,0.1533946874691176,0.08892278068529412,1,1,1,1653371698.1100893,1,0,0,0,0,0,4,56.14513199999999,10.208729000000005,1,1,2.0109849419896264,-0.4109849419896164,40.06889656871889,0.21098494198962398,0.21098494198962398,1.1,9978,25,1,301,4,9
2022-05-24 06:55:05.067399936+01:00,-0.75,1.0,10.125,0.75,-0.25,-0.25,1,1,42.70000000000073,3,0.18771156314804316,0.09262160560877113,1,1,1,1653371698.2128344,1,0,0,0,0,0,4,56.14513199999999,10.208729000000005,1,1,2.0212589484078105,-0.42125894840779876,76.983401629245,0.22125894840780547,0.22125894840780547,1.1,9978,25,1,301,4,9
2022-05-24 06:55:05.168400128+01:00,-0.75,1.0,10.0,0.25,-0.25,0.0,1,1,42.70000000000073,3,0.22102251407127993,0.09621200750468886,1,1,1,1653371698.3125677,1,0,0,0,0,0,4,56.14513199999999,10.208729000000005,1,1,2.0312317946186123,-0.43123179461859945,112.81583806464896,0.23123179461860535,0.23123179461860535,1.1,9978,25,1,301,4,9
2022-05-24 06:55:05.268399872+01:00,-0.75,1.0,10.0,0.25,-0.25,-0.25,1,1,42.70000000000073,3,0.25400365359931953,0.09976686086699253,1,1,1,1653371698.4113138,1,0,0,0,0,0,4,56.14513199999999,10.208729000000005,1,1,2.0411058997778473,-0.44110589977783277,148.29349790177125,0.24110589977783783,0.24110589977783783,1.1,9978,25,1,301,4,9
2022-05-24 06:55:05.368400128+01:00,-0.75,0.875,10.0,0.25,-0.5,-0.25,1,1,42.70000000000073,3,0.2869847931272842,0.10332171422928811,1,1,1,1653371698.5100596,1,0,0,0,0,0,4,56.14513199999999,10.208729000000005,1,1,2.0509800049370592,-0.45098000493704365,183.77115773881286,0.25098000493704786,0.25098000493704786,1.1,9978,25,1,301,4,9
2022-05-24 06:55:05.472399872+01:00,-0.75,1.0,10.0,0.5,-0.25,-0.25,1,1,42.70000000000073,3,0.3212851782364124,0.10701876172608038,1,1,1,1653371698.6127553,1,0,0,0,0,0,4,56.14513199999999,10.208729000000005,1,1,2.0612490743026535,-0.46124907430263645,220.66792396938456,0.26124907430263977,0.26124907430263977,1.1,9978,25,1,301,4,9
2022-05-24 06:55:05.571399936+01:00,-0.75,1.0,10.0,0.25,-0.25,-0.25,1,1,42.70000000000073,3,0.35393650636910484,0.11053806655475382,1,1,1,1653371698.7105138,1,0,0,0,0,0,4,56.14513199999999,10.208729000000005,1,1,2.071024438410276,-0.47102443841025743,255.79080720806382,0.2710244384102599,0.2710244384102599,1.1,9978,25,1,301,4,9
2022-05-24 06:55:05.674400+01:00,-0.625,0.875,10.0,0.5,-0.5,-0.5,1,1,42.70000000000073,3,0.38790708008296093,0.11419956551792393,1,1,1,1653371698.8122222,1,0,0,0,0,0,4,56.14513199999999,10.208729000000005,1,1,2.0811947667242805,-0.4811947667242603,292.3327968402732,0.28119476672426197,0.28119476672426197,1.1,9978,25,1,301,4,9
2022-05-24 06:55:05.778400+01:00,-0.75,0.875,10.125,0.25,-0.5,-0.5,1,1,42.70000000000073,3,0.4222074651920891,0.11789661301471618,1,1,1,1653371698.914918,1,0,0,0,0,0,4,56.14513199999999,10.208729000000005,1,1,2.0914638360898747,-0.4914638360898531,329.2295630708449,0.2914638360898539,0.2914638360898539,1.1,9978,25,1,301,4,9
2022-05-24 06:55:05.863149824+01:00,-0.75,0.9768629807691723,10.023137019230827,0.4537259615383446,-0.2962740384616554,-0.5,1,1,42.70000000000073,3,0.45015898094205975,0.12090935123926393,1,1,1,1653371698.998605,1,0,0,0,0,0,4,56.14513199999999,10.208729000000005,1,1,2.099832140212313,-0.4998321402122905,359.29687978275985,0.29983214021229054,0.29983214021229054,1.1,9978,25,1,301,4,9
2022-05-24 06:55:05.863549952+01:00,-0.75,0.9773437499998207,10.02265625000018,0.4546874999996413,-0.2953125000003587,-0.5,1,1,42.70000000000073,3,0.4502909055001386,0.12092357065270956,1,1,1,1653371698.999,1,0,0,0,0,0,4,56.14513199999999,10.208729000000005,1,1,2.0998716366329404,-0.49987163663291745,359.43879042207254,0.2998716366329175,0.2998716366329175,1.1,9978,25,1,301,4,9
2022-05-24 06:55:05.864000+01:00,-0.75,0.9778846153844367,10.022115384615564,0.45576923076887343,-0.29423076923112657,-0.5,1,1,42.70000000000073,3,0.45043932062801484,0.12093956749283992,1,1,1,1653371698.9994626,1,0,0,0,0,0,4,56.14513199999999,10.208729000000005,1,1,2.0999160701061568,-0.49991607010613404,359.59843989133964,0.2999160701061341,0.2999160701061341,1.1,9978,25,1,301,4,9
2022-05-24 06:55:05.864399872+01:00,-0.75,0.9783653846153584,10.021634615384642,0.45673076923071665,-0.29326923076928335,-0.5,1,1,42.70000000000073,3,0.4505712451861687,0.12095378690629363,1,1,1,1653371698.9998736,1,0,0,0,0,0,4,56.14513199999999,10.208729000000005,1,1,2.0999555665268064,-0.4999555665267834,359.74035053073294,0.29995556652678346,0.29995556652678346,1.1,9978,25,1,301,4,9
2022-05-24 06:55:05.864849920+01:00,-0.75,0.9789062499999743,10.021093750000025,0.4578124999999488,-0.2921875000000512,-0.5,1,1,42.70000000000073,3,0.4507196603140449,0.120969783746424,1,1,1,1653371699.000336,1,0,0,0,0,0,4,56.14513199999999,10.208729000000005,1,1,2.1000000000000227,-0.5,359.90000000000003,0.30000000000000004,0.30000000000000004,1.1,9978,25,1,301,4,9
2022-05-24 06:55:05.865349888+01:00,-0.75,0.9795072115382848,10.020492788461715,0.45901442307656964,-0.29098557692343036,-0.5,1,1,42.70000000000073,3,0.4508845660116435,0.12098755801323104,1,1,1,1653371699.0008497,1,0,0,0,0,0,4,56.14513199999999,10.208729000000005,1,1,2.099948617819376,-0.5000513821806468,359.8998458534581,0.30000000000000004,0.30000000000000004,1.1,9978,25,1,301,4,9
2022-05-24 06:55:05.865700096+01:00,-0.75,0.9799278846152388,10.020072115384762,0.45985576923047755,-0.29014423076952245,-0.5,1,1,42.70000000000073,3,0.451,0.121,1,1,1,1653371699.0012095,1,0,0,0,0,0,4,56.14513199999999,10.208729000000005,1,1,2.0999126502929113,-0.5000873497071113,359.8997379508787,0.30000000000000004,0.30000000000000004,1.1,9978,25,1,301,4,9
2022-05-24 06:55:05.865999872+01:00,-0.75,0.980288461538225,10.019711538461776,0.4605769230764501,-0.2894230769235499,-0.5,1,1,42.70000000000073,3,0.4509984585345806,0.1210064741547615,1,1,1,1653371699.0015178,1,0,0,0,0,0,4,56.14513199999999,10.208729000000005,1,1,2.0998818209845234,-0.5001181790154995,359.8996454629535,0.30000000000000004,0.30000000000000004,1.1,9978,25,1,301,4,9
2022-05-24 06:55:05.882400+01:00,-0.75,1.0,10.0,0.5,-0.25,-0.5,1,1,42.70000000000073,3,0.45091419175829756,0.12136039461515025,1,1,1,1653371699.018371,1,0,0,0,0,0,4,56.14513199999999,10.208729000000005,1,1,2.098196485458862,-0.5018035145411601,359.89458945637654,0.30000000000000004,0.30000000000000004,1.1,9978,25,1,301,4,9
2022-05-24 06:55:05.981400064+01:00,-0.625,1.0,10.0,0.25,-0.5,-0.75,1,1,42.70000000000073,3,0.4504055081697664,0.12349686568698125,1,1,1,1653371699.120108,1,0,0,0,0,0,4,56.14513199999999,10.208729000000005,1,1,2.088022813688236,-0.5119771863117832,359.86406844106466,0.30000000000000004,0.30000000000000004,1.1,9978,25,1,301,4,9
2022-05-24 06:55:06.083450112+01:00,-0.625,0.875,10.0,0.5,-0.25,-0.5,1,1,42.70000000000073,3,0.4498811530161338,0.12569915733223802,1,1,1,1653371699.224979,1,0,0,0,0,0,4,56.14513199999999,10.208729000000005,1,1,2.0775357106155825,-0.522464289384434,359.8326071318467,0.30000000000000004,0.30000000000000004,1.1,9978,25,1,301,4,9
2022-05-24 06:55:06.183449856+01:00,-0.625,0.875,10.0,0.25,-0.5,-0.5,1,1,42.70000000000073,3,0.44936733120953676,0.1278572089199456,1,1,1,1653371699.3277433,1,0,0,0,0,0,4,56.14513199999999,10.208729000000005,1,1,2.0672592744836393,-0.5327407255163742,359.8017778234509,0.30000000000000004,0.30000000000000004,1.1,9978,25,1,301,4,9
2022-05-24 06:55:06.286449920+01:00,-0.5,1.0,10.0,0.25,-0.5,-0.75,1,1,42.70000000000073,3,0.448838094748741,0.13008000205528783,1,1,1,1653371699.4335907,1,0,0,0,0,0,4,56.14513199999999,10.208729000000005,1,1,2.0566745452677213,-0.543325454732289,359.77002363580317,0.30000000000000004,0.30000000000000004,1.1,9978,25,1,301,4,9
2022-05-24 06:55:06.386450176+01:00,-0.375,0.875,10.0,0.5,-0.5,-0.75,1,1,42.70000000000073,3,0.4483242729421428,0.13223805364300031,1,1,1,1653371699.536355,1,0,0,0,0,0,4,56.14513199999999,10.208729000000005,1,1,2.046398109135755,-0.5536018908642526,359.73919432740723,0.30000000000000004,0.30000000000000004,1.1,9978,25,1,301,4,9
2022-05-24 06:55:06.487500032+01:00,-0.375,0.875,10.0,0.25,-0.5,-0.5,1,1,42.70000000000073,3,0.4478050560065761,0.13441876477238052,1,1,1,1653371699.6401982,1,0,0,0,0,0,4,56.14513199999999,10.208729000000005,1,1,2.036013770424418,-0.5639862295755863,359.70804131127323,0.30000000000000004,0.30000000000000004,1.1,9978,25,1,301,4,9
2022-05-24 06:55:06.588499968+01:00,-0.375,1.0,10.0,0.5,-0.5,-0.75,1,1,42.70000000000073,3,0.4472860959819132,0.13659839687596467,1,1,1,1653371699.7439904,1,0,0,0,0,0,4,56.14513199999999,10.208729000000005,1,1,2.025634569931158,-0.5743654300688436,359.67690370979346,0.30000000000000004,0.30000000000000004,1.1,9978,25,1,301,4,9
2022-05-24 06:55:06.692500224+01:00,-0.125,0.875,10.0,0.5,-0.75,-0.75,1,1,42.70000000000073,3,0.4467517213030516,0.1388427705271835,1,1,1,1653371699.8508654,1,0,0,0,0,0,4,56.14513199999999,10.208729000000005,1,1,2.014947076353923,-0.5850529236460754,359.6448412290618,0.30000000000000004,0.30000000000000004,1.1,9978,25,1,301,4,9
2022-05-24 06:55:06.792499968+01:00,0.0,0.875,10.125,0.5,-0.5,-0.5,1,1,42.70000000000073,3,0.44623789949645454,0.14100082211489107,1,1,1,1653371699.9536295,1,0,0,0,0,0,4,56.14513199999999,10.208729000000005,1,1,2.00467064022198,-0.5953293597780157,359.614011920666,0.30000000000000004,0.30000000000000004,1.1,9978,25,1,301,4,9
2022-05-24 06:55:06.836250112+01:00,0.0,0.875,10.069760101010132,0.3895202020202658,-0.5,-0.6104797979797342,1,1,42.70000000000073,3,0.4460131024560679,0.14194496968451498,1,1,1,1653371699.998589,1,0,0,0,0,0,4,56.14513199999999,10.208729000000005,1,1,2.000174699414246,-0.5998253005857483,359.6005240982428,0.30000000000000004,0.30000000000000004,1.1,9978,25,1,301,4,9
2022-05-24 06:55:06.836649984+01:00,0.0,0.875,10.069255050504923,0.38851010100984584,-0.5,-0.6114898989901542,1,1,42.70000000000073,3,0.4460110471688408,0.14195360189086853,1,1,1,1653371699.999,1,0,0,0,0,0,4,56.14513199999999,10.208729000000005,1,1,2.0001335936697053,-0.5998664063302891,359.6004007810091,0.30000000000000004,0.30000000000000004,1.1,9978,25,1,301,4,9
2022-05-24 06:55:06.837150208+01:00,0.0,0.875,10.06862373737377,0.38724747474753857,-0.5,-0.6127525252524615,1,1,42.70000000000073,3,0.4460084780598085,0.14196439214880438,1,1,1,1653371699.999496,1,0,0,0,0,0,4,56.14513199999999,10.208729000000005,1,1,2.000082211489058,-0.599917788510936,359.6002466344672,0.30000000000000004,0.30000000000000004,1.1,9978,25,1,301,4,9
2022-05-24 06:55:06.837449984+01:00,0.0,0.875,10.068244949495076,0.3864898989901542,-0.5,-0.6135101010098458,1,1,42.70000000000073,3,0.44600693659438906,0.1419708663035659,1,1,1,1653371699.9997933,1,0,0,0,0,0,4,56.14513199999999,10.208729000297492,1,1,2.0000513821806702,-0.5999486178193241,359.600154146542,0.30000000000000004,0.30000000000000004,1.1,9978,25,1,301,4,9
2022-05-24 06:55:06.837949952+01:00,0.0,0.875,10.067613636363637,0.38522727272727275,-0.5,-0.6147727272727272,1,1,42.70000000000073,3,0.4460043674853556,0.14198165656150663,1,1,1,1653371700.0002892,1,0,0,0,0,0,4,56.14513199999999,10.208729000793301,1,1,2.0,-0.5999999999999943,359.6,0.30000000000000004,0.30000000000000004,1.1,9978,25,1,301,4,9
2022-05-24 06:55:06.838449920+01:00,0.0,0.875,10.066982323232196,0.38396464646439127,-0.5,-0.6160353535356087,1,1,42.70000000000073,3,0.4460017983763221,0.1419924468194474,1,1,1,1653371700.0007849,1,0,0,0,0,0,4,56.14513199999999,10.208729001289113,1,1,2.0,-0.5999999999999943,359.60004957858206,0.2999504214179374,0.2999504214179374,1.1,9978,25,1,301,4,9
2022-05-24 06:55:06.838799872+01:00,0.0,0.875,10.066540404040532,0.38308080808106326,-0.5,-0.6169191919189367,1,1,42.70000000000073,3,0.446,0.14200000000000002,1,1,1,1653371700.001132,1,0,0,0,0,0,4,56.14513199999999,10.20872900163618,1,1,2.0,-0.5999999999999943,359.6000842835895,0.29991571641052056,0.29991571641052056,1.1,9978,25,1,301,4,9
2022-05-24 06:55:06.839099904+01:00,0.0,0.875,10.066161616161553,0.3823232323231047,-0.5,-0.6176767676768953,1,1,42.70000000000073,3,0.4458676251858526,0.14196817055030614,1,1,1,1653371700.0014296,1,0,0,0,0,0,4,56.14513199999999,10.208729001933666,1,1,2.0,-0.5999999999999943,359.6001140307387,0.299885969261274,0.299885969261274,1.1,9978,25,1,301,4,9
2022-05-24 06:55:06.891500032+01:00,0.0,0.875,10.0,0.25,-0.5,-0.75,1,1,42.70000000000073,3,0.422746157659812,0.13640862667325818,1,1,1,1653371700.0533905,1,0,0,0,0,0,4,56.14513199999999,10.208729053894595,1,1,2.0,-0.5999999999999943,359.6053098661379,0.29469013386216253,0.29469013386216253,1.1,9978,25,1,301,4,9
2022-05-24 06:55:06.991499776+01:00,0.0,0.875,10.125,0.5,-0.5,-0.5,1,1,42.70000000000073,3,0.3786212196330858,0.12579881011402289,1,1,1,1653371700.1525526,1,0,0,0,0,0,4,56.14513199999999,10.208729153056677,1,1,2.0,-0.5999999999999943,359.61522558254836,0.28477441745166004,0.28477441745166004,1.1,9978,25,1,301,4,9
2022-05-24 06:55:07.095549952+01:00,0.0,0.875,10.125,0.5,-0.5,-0.5,1,1,42.70000000000073,3,0.3327092216162727,0.11475929598413749,1,1,1,1653371700.2557306,1,0,0,0,0,0,4,56.14513199999999,10.20872925623482,1,1,2.0,-0.5999999999999943,359.6255428854735,0.27445711452653115,0.27445711452653115,1.1,9978,25,1,301,4,9
2022-05-24 06:55:07.197550080+01:00,0.0,0.875,10.0,0.5,-0.5,-0.5,1,1,42.70000000000073,3,0.2877017848289317,0.10393728309369821,1,1,1,1653371700.3568761,1,0,0,0,0,0,4,56.14513199999999,10.208729357380141,1,1,2.0,-0.5999999999999943,359.6356569162122,0.2643430837878006,0.2643430837878006,1.1,9978,25,1,301,4,9
2022-05-24 06:55:07.298599936+01:00,0.0,0.875,10.0,0.25,-0.5,-0.5,1,1,42.70000000000073,3,0.24311353495289031,0.09321606346058262,1,1,1,1653371700.4570794,1,0,0,0,0,0,4,56.14513199999999,10.208729457583424,1,1,2.0,-0.5999999999999943,359.64567674764504,0.25432325235498,0.25432325235498,1.1,9978,25,1,301,4,9
2022-05-24 06:55:07.402599936+01:00,0.0,0.875,10.0,0.5,-0.5,-0.5,1,1,42.70000000000073,3,0.1972235994050349,0.08218185423896346,1,1,1,1653371700.5602078,1,0,0,0,0,0,4,56.14513199999999,10.208729560711987,1,1,2.0,-0.5999999999999943,359.655989092712,0.2440109072880439,0.2440109072880439,1.1,9978,25,1,301,4,9
2022-05-24 06:55:07.504600064+01:00,0.0,0.875,10.0,0.5,-0.25,-0.5,1,1,42.70000000000073,3,0.15221616261779425,0.0713598413485483,1,1,1,1653371700.661353,1,0,0,0,0,0,4,56.14513199999999,10.20872966185731,1,1,2.0,-0.5999999999999943,359.6661031234507,0.23389687654933583,0.23389687654933583,1.1,9978,25,1,301,4,9
2022-05-24 06:55:07.605600+01:00,0.0,1.0,10.125,0.25,-0.25,-0.5,1,1,42.70000000000073,3,0.10764997521071051,0.06064392662369894,1,1,1,1653371700.7615068,1,0,0,0,0,0,4,56.14513199999999,10.20872976201101,1,1,2.0,-0.5999999999999943,359.67611799702536,0.223882002974708,0.223882002974708,1.1,9978,25,1,301,4,9
2022-05-24 06:55:07.708600064+01:00,0.0,0.875,10.0,0.25,-0.75,-0.5,1,1,42.70000000000073,3,0.06220128904311234,0.04971581556766971,1,1,1,1653371700.863644,1,0,0,0,0,0,4,56.14513199999999,10.208729864147953,1,1,2.0,-0.5999999999999943,359.6863311849282,0.21366881507187468,0.21366881507187468,1.1,9978,25,1,301,4,9
2022-05-24 06:55:07.809600+01:00,-0.125,0.875,10.125,0.75,-0.25,-0.5,1,1,42.70000000000073,3,0.017635101636128914,0.03899990084284449,1,1,1,1653371700.9637976,1,0,0,0,0,0,4,56.14513199999999,10.208729964301654,1,1,2.0,-0.5999999999999943,359.6963460585028,0.2036539414972694,0.2036539414972694,1.1,9978,25,1,301,4,9
2022-05-24 06:55:07.844749824+01:00,-0.0806410903585077,0.875,10.080641090358508,0.6612821807170154,-0.3387178192829846,-0.5,1,1,42.70000000000073,3,0.002125185919751249,0.03527055032227727,1,1,1,1653371700.998653,1,0,0,0,0,0,4,56.14513199999999,10.208729999157125,1,1,2.0,-0.5999999999999943,359.69983143282104,0.2001685671789815,0.2001685671789815,1.1,9978,25,1,301,4,9
2022-05-24 06:55:07.845100032+01:00,-0.08019939424540104,0.875,10.080199394245401,0.660398788490802,-0.3396012115091979,-0.5,1,1,42.70000000000073,3,0.001970748636646147,0.03523341596431717,1,1,1,1653371700.999,1,0,0,0,0,0,4,56.14513199999999,10.208729999504193,1,1,2.0,-0.5999999999999943,359.6998661378285,0.20013386217154214,0.20013386217154214,1.1,9978,25,1,301,4,9
2022-05-24 06:55:07.845600+01:00,-0.07956839979802383,0.875,10.079568399798024,0.6591367995960477,-0.34086320040395235,-0.5,1,1,42.70000000000073,3,0.0017501239464673968,0.03518036688151013,1,1,1,1653371700.999501,1,0,0,0,0,0,4,56.14513199999999,10.208730000000003,1,1,2.0,-0.5999999999999943,359.69991571641054,0.20008428358947947,0.20008428358947947,1.1,9978,25,1,301,4,9
2022-05-24 06:55:07.845949952+01:00,-0.07912670368491719,0.875,10.079126703684917,0.6582534073698344,-0.3417465926301656,-0.5,1,1,42.70000000000073,3,0.0015956866633622946,0.03514323252355003,1,1,1,1653371700.9998517,1,0,0,0,0,0,4,56.145132000701395,10.208730000526055,1,1,2.0,-0.5999999999999943,359.699950421418,0.20004957858204012,0.20004957858204012,1.1,9978,25,1,301,4,9
2022-05-24 06:55:07.846450176+01:00,-0.07849570923782692,0.875,10.078495709237828,0.6569914184756539,-0.34300858152434616,-0.5,1,1,42.70000000000073,3,0.0013750619732838532,0.03509018344076713,1,1,1,1653371701.0003529,1,0,0,0,0,0,4,56.145132001703395,10.208730001277559,1,1,2.0,-0.5999999999999943,359.70000000000005,0.2,0.2,1.1,9978,25,1,301,4,9
2022-05-24 06:55:07.846899968+01:00,-0.07792781423530223,0.875,10.077927814235302,0.6558556284706044,-0.34414437152939553,-0.5,1,1,42.70000000000073,3,0.0011764997521630516,0.03504243926625045,1,1,1,1653371701.0008037,1,0,0,0,0,0,4,56.1451320026052,10.20873000195391,1,1,2.0,-0.5999098173801891,359.70004509130996,0.2,0.2,1.1000225456549515,9979,25,1,301,4,9
2022-05-24 06:55:07.847300096+01:00,-0.07742301867734308,0.875,10.077423018677344,0.6548460373546862,-0.34515396264531384,-0.5,1,1,42.70000000000073,3,0.001,0.035,1,1,1,1653371701.0012045,1,0,0,0,0,0,4,56.1451320034068,10.208730002555113,1,1,2.0,-0.5998296550514479,359.7000851724743,0.2,0.2,1.1000425862371366,9979,25,1,301,4,9
2022-05-24 06:55:07.847549952+01:00,-0.07710752145365449,0.875,10.077107521453655,0.6542150429073089,-0.345784957092691,-0.5,1,1,42.70000000000073,3,0.0010051353991843925,0.03499974949272271,1,1,1,1653371701.0014548,1,0,0,0,0,0,4,56.145132003907804,10.208730002930864,1,1,2.0,-0.5997795535959904,359.70011022320205,0.2,0.2,1.1000551116010011,9979,25,1,301,4,9
2022-05-24 06:55:07.908649984+01:00,0.0,0.875,10.0,0.5,-0.5,-0.5,1,1,42.70000000000073,3,0.0022602269595921043,0.03493852551416624,1,1,1,1653371701.0626757,1,0,0,0,0,0,4,56.14513212635269,10.208730094764531,1,1,2.0,-0.5875347578846956,359.7062326210577,0.2,0.2,1.1031163105288246,9979,25,1,301,4,9
2022-05-24 06:55:08.008649984+01:00,0.0,0.875,10.0,0.75,-0.5,-0.5,1,1,42.70000000000073,3,0.004314386632928754,0.03483832260327177,1,1,1,1653371701.1628737,1,0,0,0,0,0,4,56.1451323267535,10.208730245065132,1,1,2.0,-0.5674941757058012,359.7162529121471,0.2,0.2,1.1081264560735482,9979,25,1,301,4,9
2022-05-24 06:55:08.112649984+01:00,-0.125,0.875,10.125,0.75,-0.25,-0.5,1,1,42.70000000000073,3,0.006450712693201671,0.03473411157594138,1,1,1,1653371701.2670796,1,0,0,0,0,0,4,56.145132535170326,10.208730401377757,1,1,2.0,-0.5466519702397236,359.7266740148802,0.2,0.2,1.1133370074400677,9979,25,1,301,4,9
2022-05-24 06:55:08.213649920+01:00,0.0,0.875,10.0,0.5,-0.5,-0.25,1,1,42.70000000000073,3,0.00852541396327589,0.034632906635937766,1,1,1,1653371701.3682795,1,0,0,0,0,0,4,56.14513273757514,10.208730553181365,1,1,2.0,-0.5264109822389992,359.73679450888056,0.2,0.2,1.1183972544402485,9979,25,1,301,4,9
2022-05-24 06:55:08.314650112+01:00,-0.125,1.0,10.0,0.75,-0.5,-0.5,1,1,42.70000000000073,3,0.01060011523334544,0.03453170169593437,1,1,1,1653371701.4694793,1,0,0,0,0,0,4,56.145132939979945,10.208730704984971,1,1,2.0,-0.5061699942383204,359.7469150028809,0.2,0.2,1.1234575014404182,9979,25,1,301,4,9
2022-05-24 06:55:08.416649984+01:00,-0.125,1.0,10.0,0.5,-0.25,-0.5,1,1,42.70000000000073,3,0.012695358100152557,0.03442949472682183,1,1,1,1653371701.571681,1,0,0,0,0,0,4,56.145133144388765,10.208730858291585,1,1,2.0,-0.4857286004158117,359.7571356997921,0.2,0.2,1.1285678498960454,9979,25,1,301,4,9
2022-05-24 06:55:08.518699776+01:00,-0.125,0.875,10.25,0.25,-0.5,-0.25,1,1,42.70000000000073,3,0.014791628046793754,0.034327237656253964,1,1,1,1653371701.673933,1,0,0,0,0,0,4,56.14513334889778,10.208731011673347,1,1,2.0,-0.46527718630223874,359.7673614068489,0.2,0.2,1.1336807034244385,9979,25,1,301,4,9
2022-05-24 06:55:08.621649920+01:00,-0.125,0.875,10.125,0.5,-0.25,-0.5,1,1,42.70000000000073,3,0.016906385430495025,0.03422407875948805,1,1,1,1653371701.7770867,1,0,0,0,0,0,4,56.14513355521041,10.208731166407816,1,1,2.0,-0.4446454069490553,359.7776772965255,0.2,0.2,1.1388386482627344,9979,25,1,301,4,9
2022-05-24 06:55:08.725699840+01:00,-0.125,0.875,10.0,0.75,-0.5,-0.25,1,1,42.70000000000073,3,0.019043738570606688,0.03411981763070211,1,1,1,1653371701.8813426,1,0,0,0,0,0,4,56.14513376372744,10.208731322795591,1,1,2.0,-0.42379318119186804,359.78810340940413,0.2,0.2,1.144051704702031,9979,25,1,301,4,9
2022-05-24 06:55:08.829700096+01:00,-0.125,0.875,10.125,1.0,-0.5,-0.5,1,1,42.70000000000073,3,0.021180064630874934,0.03401560660337196,1,1,1,1653371701.9855485,1,0,0,0,0,0,4,56.14513397214427,10.208731479108215,1,1,2.0,-0.40295097572583605,359.79852451213713,0.2,0.2,1.149262256068539,9979,25,1,301,4,9
2022-05-24 06:55:08.926700032+01:00,-0.125,1.0,10.125,0.25,-0.25,-0.25,1,1,42.70000000000073,3,0.023172599514012886,0.03391840977980425,1,1,1,1653371702.0827405,1,0,0,0,0,0,4,56.14513416653305,10.208731624899798,1,1,2.0,-0.3835116110122948,359.8082441944939,0.2,0.2,1.1541220972469242,9979,25,1,301,4,9
2022-05-24 06:55:09.026750208+01:00,-0.125,1.0,10.0,0.25,-0.5,-0.5,1,1,42.70000000000073,3,0.025227786267188284,0.033818156767454234,1,1,1,1653371702.1829884,1,0,0,0,0,0,4,56.14513436703405,10.208731775275549,1,1,2.0,-0.3634610085422907,359.8182694957289,0.2,0.2,1.1591347478644252,9979,25,1,301,4,9
2022-05-24 06:55:09.127749888+01:00,-0.125,0.875,10.125,0.5,-0.5,-0.5,1,1,42.70000000000073,3,0.027302487537262502,0.03371695182745061,1,1,1,1653371702.2841883,1,0,0,0,0,0,4,56.14513456943886,10.208731927079157,1,1,2.0,-0.3432200205415663,359.82838998972926,0.2,0.2,1.1641949948646062,9979,25,1,301,4,9
2022-05-24 06:55:09.230750208+01:00,-0.125,1.0,10.0,0.5,-0.5,-0.25,1,1,42.70000000000073,3,0.02941827200080252,0.033613742829229146,1,1,1,1653371702.387392,1,0,0,0,0,0,4,56.14513477585169,10.208732081888774,1,1,2.0,-0.32257822089727317,359.8387108895514,0.2,0.2,1.1693554447756795,9979,25,1,301,4,9
2022-05-24 06:55:09.329750016+01:00,-0.125,1.0,10.125,1.0,-0.25,-0.5,1,1,42.70000000000073,3,0.031451890077406265,0.0335145419474436,1,1,1,1653371702.486588,1,0,0,0,0,0,4,56.14513497424848,10.208732230686369,1,1,2.0,-0.3027380445401631,359.84863097772995,0.2,0.2,1.174315488864957,9979,25,1,301,4,9
2022-05-24 06:55:09.432750080+01:00,-0.125,1.0,10.125,0.0,-0.75,-0.5,1,1,42.70000000000073,3,0.033567674540946286,0.03341133294922213,1,1,1,1653371702.5897918,1,0,0,0,0,0,4,56.145135180661306,10.208732385495988,1,1,2.0,-0.28209624489587,359.8589518775521,0.2,0.2,1.17947593877603,9979,25,1,301,4,9
2022-05-24 06:55:09.535749888+01:00,-0.125,0.875,10.125,0.0,-0.5,-0.5,1,1,42.70000000000073,3,0.03568345900448164,0.0333081239510009,1,1,1,1653371702.6929958,1,0,0,0,0,0,4,56.14513538707413,10.208732540305608,1,1,2.0,-0.26145444525162237,359.8692727773742,0.2,0.2,1.1846363886870919,9979,25,1,301,4,9
2022-05-24 06:55:09.636750080+01:00,-0.125,0.875,9.75,0.25,-0.25,-0.5,1,1,42.70000000000073,3,0.037758160274555856,0.033206919010997274,1,1,1,1653371702.7941957,1,0,0,0,0,0,4,56.14513558947894,10.208732692109214,1,1,2.0,-0.241213457250898,359.87939327137457,0.2,0.2,1.189696635687273,9979,25,1,301,4,9
2022-05-24 06:55:09.743750144+01:00,-0.125,1.0,10.25,0.5,-0.5,-0.25,1,1,42.70000000000073,3,0.03995611112502747,0.03309970189634012,1,1,1,1653371702.9014072,1,0,0,0,0,0,4,56.1451358039078,10.208732852930858,1,1,2.0,-0.2197700343194673,359.8901149828403,0.2,0.2,1.1950574914201306,9979,25,1,301,4,9
2022-05-24 06:55:09.840699904+01:00,-0.125,1.0,10.132342233009654,0.5,-0.5,-0.25,1,1,42.70000000000073,3,0.04194761892833135,0.03300255517422774,1,1,1,1653371702.9985492,1,0,0,0,0,0,4,56.14513599819637,10.20873299864729,1,1,2.0,-0.20034068989699022,359.8998296550515,0.2,0.2,1.1999148275257498,9979,25,1,301,4,9
2022-05-24 06:55:09.841149952+01:00,-0.125,1.0,10.1317961165048,0.5,-0.5,-0.25,1,1,42.70000000000073,3,0.04195686264686138,0.03300210426112871,1,1,1,1653371702.999,1,0,0,0,0,0,4,56.14513599909817,10.208732999323642,1,1,2.0,-0.20025050727718496,359.89987474636143,0.2,0.2,1.199937373180701,9979,25,1,301,4,9
2022-05-24 06:55:09.841600+01:00,-0.125,1.0,10.131249999999945,0.5,-0.5,-0.25,1,1,42.70000000000073,3,0.04196610636539142,0.03300165334802969,1,1,1,1653371702.9994483,1,0,0,0,0,0,4,56.14513599999998,10.208732999999995,1,1,2.0,-0.2001603246573797,359.89991983767135,0.2,0.2,1.1999599188356525,9979,25,1,301,4,9
2022-05-24 06:55:09.841900032+01:00,-0.125,1.0,10.130885922330133,0.5,-0.5,-0.25,1,1,42.70000000000073,3,0.04197226884440989,0.03300135273929708,1,1,1,1653371702.999747,1,0,0,0,0,0,4,56.14513600059747,10.208733000597485,1,1,2.0,-0.20010020291085806,359.8999498985446,0.2,0.2,1.1999749492722829,9979,25,1,301,4,9
2022-05-24 06:55:09.842400+01:00,-0.125,1.0,10.13027912621378,0.5,-0.5,-0.25,1,1,42.70000000000073,3,0.04198253964277401,0.033000851724742736,1,1,1,1653371703.0002449,1,0,0,0,0,0,4,56.145136001593286,10.208733001593304,1,1,2.0,-0.19999999999998863,359.90000000000003,0.2,0.2,1.2000000000000002,9979,25,1,301,4,9
2022-05-24 06:55:09.842899968+01:00,-0.125,1.0,10.129672330097153,0.5,-0.5,-0.25,1,1,42.70000000000073,3,0.04199281044114279,0.033000350710188156,1,1,1,1653371703.0007427,1,0,0,0,0,0,4,56.145136002589105,10.20873300258912,1,1,2.0000497908783212,-0.20004979087830987,359.8998506273651,0.2,0.2,1.2000000000000002,9979,25,1,301,4,9
2022-05-24 06:55:09.843249920+01:00,-0.125,1.0,10.129247572815569,0.5,-0.5,-0.25,1,1,42.70000000000073,3,0.042,0.033,1,1,1,1653371703.0010912,1,0,0,0,0,0,4,56.145136003286176,10.208733003286193,1,1,2.0000846444931417,-0.2000846444931302,359.8997460665206,0.2,0.2,1.2000000000000002,9979,25,1,301,4,9
2022-05-24 06:55:09.843549952+01:00,-0.125,1.0,10.128883495145757,0.5,-0.5,-0.25,1,1,42.70000000000073,3,0.04203136825332812,0.03301613224456875,1,1,1,1653371703.00139,1,0,0,0,0,0,4,56.14513600388367,10.208733003883683,1,1,2.0001145190201206,-0.20011451902010938,359.89965644293966,0.2,0.2,1.2000000000000002,9979,25,1,301,4,9
2022-05-24 06:55:09.846749952+01:00,-0.125,1.0,10.125,0.5,-0.5,-0.25,1,1,42.70000000000073,3,0.04236596295558982,0.03318820952001762,1,1,1,1653371703.0045767,1,0,0,0,0,0,4,56.1451360102569,10.208733010256916,1,1,2.0004331806413225,-0.20043318064131094,359.89870045807606,0.2,0.2,1.2000000000000002,9979,25,1,301,4,9
2022-05-24 06:55:09.942800128+01:00,-0.125,1.0,9.875,0.5,-0.25,-0.25,1,1,42.70000000000073,3,0.05240903206531755,0.03835321649073474,1,1,1,1653371703.100225,1,0,0,0,0,0,4,56.145136201553456,10.20873320155347,1,1,2.0099980083648727,-0.2099980083648598,359.87000597490544,0.2,0.2,1.2000000000000002,9979,25,1,301,4,9
2022-05-24 06:55:10.044850176+01:00,-0.25,1.0,10.125,0.5,-0.25,-0.5,1,1,42.70000000000073,3,0.06307946624177407,0.043840868352912385,1,1,1,1653371703.201848,1,0,0,0,0,0,4,56.14513640479983,10.208733404799835,1,1,2.0201603266281647,-0.2201603266281503,359.8395190201156,0.2,0.2,1.2000000000000002,9979,25,1,301,4,9
2022-05-24 06:55:10.146800128+01:00,-0.25,1.0,10.25,0.25,-0.25,-0.5,1,1,42.70000000000073,3,0.0737394443337879,0.04932314280023378,1,1,1,1653371703.3033717,1,0,0,0,0,0,4,56.14513660784703,10.208733607847035,1,1,2.0303126867157966,-0.2303126867157811,359.80906193985265,0.2,0.2,1.2000000000000002,9979,25,1,301,4,9
2022-05-24 06:55:10.247849984+01:00,-0.125,0.875,10.0,0.25,-0.5,-0.5,1,1,42.70000000000073,3,0.08430531766581736,0.05475702051384894,1,1,1,1653371703.403999,1,0,0,0,0,0,4,56.145136809101764,10.208733809101766,1,1,2.0403754232224913,-0.2403754232224744,359.7788737303326,0.2,0.2,1.2000000000000002,9979,25,1,301,4,9
2022-05-24 06:55:10.347849984+01:00,-0.25,1.0,10.25,0.75,-0.5,-0.5,1,1,42.70000000000073,3,0.09476140211113898,0.06013443537144291,1,1,1,1653371703.5035808,1,0,0,0,0,0,4,56.14513700826528,10.208734008265278,1,1,2.0503335988847025,-0.25033359888468404,359.74899920334593,0.2,0.2,1.2000000000000002,9979,25,1,301,4,9
2022-05-24 06:55:10.448849920+01:00,-0.375,1.0,10.125,1.0,-0.25,-0.75,1,1,42.70000000000073,3,0.10532204740091142,0.0655656243776116,1,1,1,1653371703.6041584,1,0,0,0,0,0,4,56.145137209420426,10.208734209420426,1,1,2.0603913563035334,-0.2603913563035135,359.71882593108944,0.2,0.2,1.2000000000000002,9979,25,1,301,4,9
2022-05-24 06:55:10.550849792+01:00,-0.5,1.0,9.875,0.5,0.25,-1.0,1,1,42.70000000000073,3,0.11598725353515849,0.07105058753236723,1,1,1,1653371703.7057319,1,0,0,0,0,0,4,56.145137412567216,10.208734412567209,1,1,2.070548695479007,-0.2705486954789855,359.68835391356305,0.2,0.2,1.2000000000000002,9979,25,1,301,4,9
2022-05-24 06:55:10.652849920+01:00,-0.625,1.0,10.125,0.5,0.0,-0.75,1,1,42.70000000000073,3,0.12665245966940555,0.07653555068712287,1,1,1,1653371703.807305,1,0,0,0,0,0,4,56.145137615714,10.208734615713992,1,1,2.0807060346544803,-0.2807060346544574,359.65788189603666,0.2,0.2,1.2000000000000002,9979,25,1,301,4,9
2022-05-24 06:55:10.756849920+01:00,-0.75,0.875,9.875,0.5,0.25,-1.0,1,1,42.70000000000073,3,0.13752678749253053,0.08212806213901572,1,1,1,1653371703.9108703,1,0,0,0,0,0,4,56.145137822844056,10.208734822844045,1,1,2.091062537343171,-0.29106253734314647,359.6268123879706,0.2,0.2,1.2000000000000002,9979,25,1,301,4,9
2022-05-24 06:55:10.844899840+01:00,-0.75,0.875,9.875,0.7095430747262412,-0.1690861494524824,-1.0,1,1,42.70000000000073,3,0.14673336984665153,0.08686287592113509,1,1,1,1653371703.9985518,1,0,0,0,0,0,4,56.14513799820753,10.208734998207518,1,1,2.0998307110137624,-0.29983071101373665,359.6005078669588,0.2,0.2,1.2000000000000002,9979,25,1,301,4,9
