timestamps,AccelerationX,AccelerationY,AccelerationZ,AngularRateX,AngularRateY,AngularRateZ,ImuValid,AltitudeValid,Altitude,AltitudeAccuracy,Speed,SpeedAccuracy,SpeedValid,TimeValid,TimeConfirmed,Epoch,FenceValid,FenceCombined,Fence1,Fence2,Fence3,Fence4,PositionAccuracy,Latitude,Longitude,PositionValid,AttitudeValid,Roll,Pitch,Heading,RollAccuracy,PitchAccuracy,HeadingAccuracy,DistanceTrip,DistanceAccuracy,DistanceValid,DistanceTotal,FixType,Satellites
,m/s^2,m/s^2,m/s^2,deg/s,deg/s,deg/s,,,m,m,m/s,m/s,,,,sec,,,,,,,m,deg,deg,,,deg,deg,deg,deg,deg,deg,m,m,,km,,
2022-05-24 06:49:59.190500096+01:00,-0.125,0.5,10.0,0.5,-0.75,-1.0,1,1,34.5,3,0.04,0.047,1,1,1,1653371392.999,1,0,0,0,0,0,3,56.14175399999999,10.207571999999999,1,1,0.0,0.4000000000000057,10.600000000000001,0.2,0.30000000000000004,1.4000000000000001,9691,23,1,301,4,12
2022-05-24 06:49:59.290450176+01:00,-0.125,0.625,10.25,0.5,-0.25,-1.0,1,1,34.5,3,0.04,0.047,1,1,1,1653371392.999,1,0,0,0,0,0,3,56.14175399999999,10.207571999999999,1,1,0.0,0.4000000000000057,10.600000000000001,0.2,0.30000000000000004,1.4000000000000001,9691,23,1,301,4,12
2022-05-24 06:49:59.392499968+01:00,-0.125,0.5,10.0,0.0,-0.25,-1.0,1,1,34.5,3,0.04,0.047,1,1,1,1653371392.999,1,0,0,0,0,0,3,56.14175399999999,10.207571999999999,1,1,0.0,0.4000000000000057,10.600000000000001,0.2,0.30000000000000004,1.4000000000000001,9691,23,1,301,4,12
2022-05-24 06:49:59.494499840+01:00,-0.125,0.5,10.0,0.25,-0.25,-0.75,1,1,34.5,3,0.04,0.047,1,1,1,1653371392.999,1,0,0,0,0,0,3,56.14175399999999,10.207571999999999,1,1,0.0,0.4000000000000057,10.600000000000001,0.2,0.30000000000000004,1.4000000000000001,9691,23,1,301,4,12
2022-05-24 06:49:59.598500096+01:00,-0.125,0.625,9.875,0.75,-0.5,-1.0,1,1,34.5,3,0.04,0.047,1,1,1,1653371392.999,1,0,0,0,0,0,3,56.14175399999999,10.207571999999999,1,1,0.0,0.4000000000000057,10.600000000000001,0.2,0.30000000000000004,1.4000000000000001,9691,23,1,301,4,12
2022-05-24 06:49:59.704499968+01:00,-0.125,0.625,10.125,0.75,-0.75,-1.0,1,1,34.5,3,0.04,0.047,1,1,1,1653371392.999,1,0,0,0,0,0,3,56.14175399999999,10.207571999999999,1,1,0.0,0.4000000000000057,10.600000000000001,0.2,0.30000000000000004,1.4000000000000001,9691,23,1,301,4,12
2022-05-24 06:49:59.806499840+01:00,-0.125,0.625,10.125,0.5,-0.5,-1.0,1,1,34.5,3,0.04,0.047,1,1,1,1653371392.999,1,0,0,0,0,0,3,56.14175399999999,10.207571999999999,1,1,0.0,0.4000000000000057,10.600000000000001,0.2,0.30000000000000004,1.4000000000000001,9691,23,1,301,4,12
2022-05-24 06:49:59.888849920+01:00,-0.02206250000002416,0.625,10.125,0.5,-0.2941250000000483,-1.0,1,1,34.5,3,0.04,0.047,1,1,1,1653371392.999,1,0,0,0,0,0,3,56.14175399999999,10.207571999999999,1,1,0.0,0.4000000000000057,10.600000000000001,0.2,0.30000000000000004,1.4000000000000001,9691,23,1,301,4,12
2022-05-24 06:49:59.889300224+01:00,-0.021500000000022737,0.625,10.125,0.5,-0.29300000000004545,-1.0,1,1,34.5,3,0.04,0.047,1,1,1,1653371392.999,1,0,0,0,0,0,3,56.14175399999999,10.207571999999999,1,1,0.0,0.4000000000000057,10.600000000000001,0.2,0.30000000000000004,1.4000000000000001,9691,23,1,301,4,12
2022-05-24 06:49:59.889750016+01:00,-0.020937500000021314,0.625,10.125,0.5,-0.29187500000004263,-1.0,1,1,34.5,3,0.04,0.047,1,1,1,1653371392.999442,1,0,0,0,0,0,3,56.14175399999999,10.207571999999999,1,1,0.0,0.4000000000000057,10.600000000000001,0.2,0.30000000000000004,1.4000000000000001,9691,23,1,301,4,12
2022-05-24 06:49:59.890099968+01:00,-0.020499999999988625,0.625,10.125,0.5,-0.2909999999999773,-1.0,1,1,34.5,3,0.04,0.047,1,1,1,1653371392.999786,1,0,0,0,0,0,3,56.14175400068765,10.207572000343827,1,1,0.0,0.4000000000000057,10.600000000000001,0.2,0.30000000000000004,1.4000000000000001,9691,23,1,301,4,12
2022-05-24 06:49:59.890550016+01:00,-0.019937499999987215,0.625,10.125,0.5,-0.28987499999997446,-1.0,1,1,34.499955791335104,3,0.04,0.047,1,1,1,1653371393.000228,1,0,0,0,0,0,3,56.141754001571776,10.207572000785893,1,1,0.0,0.4000000000000057,10.600000000000001,0.2,0.30000000000000004,1.4000000000000001,9691,23,1,301,4,12
2022-05-24 06:49:59.891049984+01:00,-0.019312499999859317,0.625,10.125,0.5,-0.28862499999971863,-1.0,1,1,34.49990667059632,3,0.04,0.047,1,1,1,1653371393.0007193,1,0,0,0,0,0,3,56.141754002554144,10.207572001277075,1,1,0.0,0.3999017633478908,10.600049118326059,0.2,0.30000000000000004,1.4000000000000001,9691,23,1,301,4,12
2022-05-24 06:49:59.891400192+01:00,-0.018875000000110845,0.625,10.125,0.5,-0.28775000000022166,-1.0,1,1,34.499872286079196,3,0.04,0.047,1,1,1,1653371393.001063,1,0,0,0,0,0,3,56.1417540032418,10.207572001620903,1,1,0.0,0.3998329976914639,10.600083501154272,0.2,0.30000000000000004,1.4000000000000001,9691,23,1,301,4,12
2022-05-24 06:49:59.891699968+01:00,-0.018499999999920413,0.625,10.125,0.5,-0.2869999999998408,-1.0,1,1,34.499842813635915,3,0.03999616877056636,0.04701709317747317,1,1,1,1653371393.0013578,1,0,0,0,0,0,3,56.141754003831224,10.207572001915613,1,1,0.0,0.3997740557001771,10.600112972149915,0.2,0.30000000000000004,1.4000000000000001,9691,23,1,301,4,12
2022-05-24 06:49:59.906500096+01:00,0.0,0.625,10.125,0.5,-0.25,-1.0,1,1,34.49838883976816,3,0.039807161451936794,0.047860356599051246,1,1,1,1653371393.0158968,1,0,0,0,0,0,3,56.14175403290927,10.207572016454638,1,1,0.0,0.39686625079818305,10.601566874600913,0.2,0.30000000000000004,1.4000000000000001,9691,23,1,301,4,12
2022-05-24 06:50:00.004549888+01:00,-0.25,0.5,9.875,0.25,-0.25,-1.0,1,1,34.488756262894256,3,0.03855498796600865,0.05344697676703834,1,1,1,1653371393.112218,1,0,0,0,0,0,3,56.141754225551345,10.207572112775676,1,1,0.0,0.3776020433223609,10.611198978338823,0.2,0.30000000000000004,1.4000000000000001,9691,23,1,301,4,12
2022-05-24 06:50:00.107549952+01:00,-0.375,0.625,9.875,0.75,-0.5,-1.0,1,1,34.47863739070647,3,0.037239599194457344,0.0593156343631903,1,1,1,1653371393.2134016,1,0,0,0,0,0,3,56.14175442791885,10.207572213959427,1,1,0.0,0.35736529299079767,10.621317353504605,0.2,0.30000000000000004,1.4000000000000001,9691,23,1,301,4,12
2022-05-24 06:50:00.208549888+01:00,-0.375,0.625,10.125,0.5,-0.25,-0.75,1,1,34.4687150014738,3,0.035949751952453014,0.06507033744290194,1,1,1,1653371393.3126206,1,0,0,0,0,0,3,56.141754626356885,10.207572313178446,1,1,0.0,0.33752148926764935,10.631239255366179,0.2,0.30000000000000004,1.4000000000000001,9691,23,1,301,4,12
2022-05-24 06:50:00.308549888+01:00,-0.5,0.625,10.125,0.25,0.5,-1.0,1,1,34.45889085371868,3,0.03467267547522072,0.07076806326439988,1,1,1,1653371393.4108572,1,0,0,0,0,0,3,56.14175482283019,10.207572411415097,1,1,0.0,0.31787415884868625,10.64106292057566,0.2,0.30000000000000004,1.4000000000000001,9691,23,1,301,4,12
2022-05-24 06:50:00.409600+01:00,-0.625,0.5,9.875,0.5,-0.25,-1.0,1,1,34.448963552412124,3,0.03338218969497647,0.07652561520702804,1,1,1,1653371393.5101254,1,0,0,0,0,0,3,56.141755021366464,10.207572510683233,1,1,0.0,0.2980205314603086,10.65098973426985,0.2,0.30000000000000004,1.4000000000000001,9691,23,1,301,4,12
2022-05-24 06:50:00.510600192+01:00,-0.625,0.625,10.125,0.5,-0.25,-1.0,1,1,34.43904116317943,3,0.03209234245296924,0.08228031828675263,1,1,1,1653371393.6093445,1,0,0,0,0,0,3,56.141755219804494,10.207572609902252,1,1,0.0,0.27817672773711566,10.660911636131445,0.2,0.30000000000000004,1.4000000000000001,9691,23,1,301,4,12
2022-05-24 06:50:00.612600064+01:00,-0.625,0.625,10.0,0.5,0.0,-1.0,1,1,34.42902053246919,3,0.03078972444618997,0.0880919986246909,1,1,1,1653371393.7095459,1,0,0,0,0,0,3,56.14175542020727,10.207572710103637,1,1,0.0,0.2581364507097375,10.670931774645135,0.2,0.30000000000000004,1.4000000000000001,9691,23,1,301,4,12
2022-05-24 06:50:00.720599808+01:00,-0.625,0.625,10.0,0.5,0.0,-1.0,1,1,34.41841045289366,3,0.029410481850778505,0.09424554251191128,1,1,1,1653371393.8156414,1,0,0,0,0,0,3,56.141755632398436,10.207572816199221,1,1,0.0,0.2369173338572484,10.681541333071378,0.2,0.30000000000000004,1.4000000000000001,9691,23,1,301,4,12
2022-05-24 06:50:00.820600064+01:00,-0.75,0.625,10.0,0.25,0.0,-1.0,1,1,34.40858630513854,3,0.028133405373546208,0.09994326833340923,1,1,1,1653371393.913878,1,0,0,0,0,0,3,56.14175582887174,10.207572914435874,1,1,0.0,0.2172700034382853,10.69136499828086,0.2,0.30000000000000004,1.4000000000000001,9691,23,1,301,4,12
2022-05-24 06:50:00.906800128+01:00,-0.6463942307693175,0.5213942307693175,10.0,0.6644230769227301,0.0,-1.0,1,1,34.400117889773625,3,0.027032565450171443,0.1048547079915428,1,1,1,1653371393.998558,1,0,0,0,0,0,3,56.14175599823173,10.207572999115866,1,1,0.0,0.20033400461713102,10.699832997691438,0.2,0.30000000000000004,1.4000000000000001,9691,23,1,301,4,12
2022-05-24 06:50:00.907249920+01:00,-0.6458533653847014,0.5208533653847014,10.0,0.6665865384611942,0.0,-1.0,1,1,34.40007368110872,3,0.02702681860602388,0.1048803477577396,1,1,1,1653371393.999,1,0,0,0,0,0,3,56.14175599911586,10.207572999557932,1,1,0.0,0.20024559163024547,10.69987720418488,0.2,0.30000000000000004,1.4000000000000001,9691,23,1,301,4,12
2022-05-24 06:50:00.907699968+01:00,-0.6453125000000854,0.5203125000000854,10.0,0.6687499999996585,0.0,-1.0,1,1,34.400029472443826,3,0.02702107176187632,0.1049059875239364,1,1,1,1653371393.9994633,1,0,0,0,0,0,3,56.14175599999999,10.207572999999996,1,1,0.0,0.2001571786433599,10.699921410678323,0.2,0.30000000000000004,1.4000000000000001,9691,23,1,301,4,12
2022-05-24 06:50:00.908000+01:00,-0.6449519230768258,0.5199519230768258,10.0,0.6701923076926966,0.0,-1.0,1,1,34.400000000000546,3,0.027017240532442678,0.10492308070140959,1,1,1,1653371393.999772,1,0,0,0,0,0,3,56.14175600030875,10.207573000308766,1,1,0.0,0.2000982366520731,10.699950881673965,0.2,0.30000000000000004,1.4000000000000001,9691,23,1,301,4,12
2022-05-24 06:50:00.908499968+01:00,-0.6443509615385155,0.5193509615385155,10.0,0.6725961538459384,0.0,-1.0,1,1,34.400000000000546,3,0.027010855150058112,0.10495156933050995,1,1,1,1653371394.0002866,1,0,0,0,0,0,3,56.14175600082337,10.20757300082338,1,1,0.0,0.20000000000000284,10.700000000000001,0.2,0.30000000000000004,1.4000000000000001,9691,23,1,301,4,12
2022-05-24 06:50:00.908999936+01:00,-0.6437499999999317,0.5187499999999317,10.0,0.6750000000002734,0.0,-1.0,1,1,34.400000000000546,3,0.027004469767670645,0.10498005795962326,1,1,1,1653371394.0008013,1,0,0,0,0,0,3,56.14175600133799,10.207573001337996,1,1,5.146150680341043e-05,0.19984561547959265,10.700051461506805,0.20005146150680342,0.30000000000000004,1.3999485384931967,9691,23,1,301,4,12
2022-05-24 06:50:00.909349888+01:00,-0.6433293269229777,0.5183293269229777,10.0,0.6766826923080891,0.0,-1.0,1,1,34.400000000000546,3,0.027,0.105,1,1,1,1653371394.0011616,1,0,0,0,0,0,3,56.14175600169822,10.207573001698226,1,1,8.748456156111733e-05,0.19973754631531956,10.700087484561562,0.2000874845615611,0.30000000000000004,1.399912515438439,9691,23,1,301,4,12
2022-05-24 06:50:00.909650176+01:00,-0.6429687499999914,0.5179687499999914,10.0,0.6781250000000342,0.0,-1.0,1,1,34.400000000000546,3,0.02703488910615087,0.10501018885400866,1,1,1,1653371394.0014703,1,0,0,0,0,0,3,56.141756002006986,10.207573002006995,1,1,0.0001183614656291224,0.19964491560311556,10.70011836146563,0.2001183614656291,0.30000000000000004,1.399881638534371,9691,23,1,301,4,12
2022-05-24 06:50:00.924599808+01:00,-0.625,0.5,10.0,0.75,0.0,-1.0,1,1,34.400000000000546,3,0.02877352956310549,0.10551793341223434,1,1,1,1653371394.016858,1,0,0,0,0,0,3,56.14175601739397,10.207573017393985,1,1,0.0016570605187375077,0.1950288184437915,10.701657060518738,0.20165706051873714,0.30000000000000004,1.398342939481263,9691,23,1,301,4,12
2022-05-24 06:50:01.024649984+01:00,-0.75,0.625,10.0,0.75,-0.25,-1.0,1,1,34.400000000000546,3,0.04040904646734229,0.10891591622497607,1,1,1,1653371394.119838,1,0,0,0,0,0,3,56.14175612036845,10.20757312036846,1,1,0.011954508028003116,0.164136475916002,10.711954508028,0.21195450802800042,0.30000000000000004,1.3880454919719998,9691,23,1,301,4,12
2022-05-24 06:50:01.124649984+01:00,-0.625,0.625,10.0,0.5,-0.5,-1.0,1,1,34.400000000000546,3,0.052038748520540724,0.11231220089537915,1,1,1,1653371394.2227662,1,0,0,0,0,0,3,56.141756223291466,10.207573223291474,1,1,0.022246809386579025,0.1332595718402816,10.722246809386576,0.22224680938657398,0.30000000000000004,1.3777531906134262,9691,23,1,301,4,12
2022-05-24 06:50:01.220649984+01:00,-0.625,0.625,10.0,0.5,-0.5,-1.0,1,1,34.400000000000546,3,0.0632032624916218,0.1155726341789692,1,1,1,1653371394.3215773,1,0,0,0,0,0,3,56.14175632209756,10.207573322097566,1,1,0.03212741869082125,0.1036177439275619,10.732127418690816,0.23212741869081396,0.30000000000000004,1.367872581309186,9691,23,1,301,4,12
2022-05-24 06:50:01.326649856+01:00,-0.625,0.625,10.125,0.5,0.0,-1.0,1,1,34.400000000000546,3,0.07553074666802272,0.11917269592959956,1,1,1,1653371394.4306815,1,0,0,0,0,0,3,56.14175643119595,10.20757343119596,1,1,0.043037258130921074,0.07088822560727018,10.743037258130911,0.24303725813091132,0.30000000000000004,1.3569627418690888,9691,23,1,301,4,12
2022-05-24 06:50:01.427650048+01:00,-0.625,0.5,10.0,0.75,-0.5,-0.75,1,1,34.400000000000546,3,0.08727674574177693,0.12260294344671362,1,1,1,1653371394.534639,1,0,0,0,0,0,3,56.1417565351482,10.207573535148205,1,1,0.053432482503103805,0.039702552490729404,10.753432482503092,0.2534324825030917,0.30000000000000004,1.3465675174969085,9691,23,1,301,4,12
2022-05-24 06:50:01.529649920+01:00,-0.625,0.625,10.125,0.5,-0.25,-1.0,1,1,34.400000000000546,3,0.09913904183606048,0.12606715381053094,1,1,1,1653371394.6396258,1,0,0,0,0,0,3,56.14175664012967,10.207573640129677,1,1,0.06393062988886995,0.008208110333438406,10.763930629888856,0.26393062988885546,0.30000000000000004,1.3360693701111446,9691,23,1,301,4,12
2022-05-24 06:50:01.629650176+01:00,-0.625,0.625,10.125,0.5,-0.5,-1.0,1,1,34.400000000000546,3,0.11076874388925892,0.12946343848093403,1,1,1,1653371394.7425542,1,0,0,0,0,0,3,56.14175674305268,10.207573743052691,1,1,0.07422293124744586,-0.022668793742282006,10.77422293124743,0.274222931247429,0.30000000000000004,1.3257770687525712,9691,23,1,301,4,12
2022-05-24 06:50:01.739699968+01:00,-0.75,0.625,10.0,0.5,-0.5,-1.0,1,1,34.400000000000546,3,0.12356723099881556,0.13320104976071606,1,1,1,1653371394.8558269,1,0,0,0,0,0,3,56.14175685631946,10.207573856319467,1,1,0.08554960889256906,-0.05664882667764354,10.78554960889255,0.28554960889254966,0.30000000000000004,1.3144503911074505,9691,23,1,301,4,12
2022-05-24 06:50:01.836699904+01:00,-0.75,0.5,10.0,0.5,0.0,-1.0,1,1,34.400000000000546,3,0.134848041990426,0.13649544589100937,1,1,1,1653371394.9556673,1,0,0,0,0,0,3,56.14175695615478,10.207573956154791,1,1,0.0955331412103947,-0.08659942363111339,10.795533141210374,0.295533141210373,0.30000000000000004,1.304466858789627,9691,23,1,301,4,12
2022-05-24 06:50:01.878400+01:00,-0.75,0.5,10.0,0.5,-0.2064356435640845,-0.8967821782179577,1,1,34.400000000000546,3,0.13969762774661318,0.13791169659856845,1,1,1,1653371394.9985883,1,0,0,0,0,0,3,56.14175699907368,10.207573999073686,1,1,0.0998250308769239,-0.09947509263069793,10.799825030876901,0.29982503087690127,0.30000000000000004,1.3001749691230988,9691,23,1,301,4,11
2022-05-24 06:50:01.878799872+01:00,-0.75,0.5,10.0,0.5,-0.2084158415833872,-0.8957920792083064,1,1,34.400000000000546,3,0.13974414655481432,0.13792528173724666,1,1,1,1653371394.999,1,0,0,0,0,0,3,56.14175699948537,10.207573999485378,1,1,0.09986620008234791,-0.09959860024696993,10.799866200082326,0.29986620008232523,0.30000000000000004,1.3001337999176747,9691,23,1,301,4,11
2022-05-24 06:50:01.879300096+01:00,-0.75,0.5,10.0,0.5,-0.21089108910864118,-0.8945544554456795,1,1,34.400000000000546,3,0.1398022950650922,0.13794226316060215,1,1,1,1653371394.999506,1,0,0,0,0,0,3,56.141756999999984,10.207573999999994,1,1,0.09991766158915133,-0.09975298476738015,10.799917661589129,0.29991766158912864,0.30000000000000004,1.3000823384108715,9691,23,1,301,4,11
2022-05-24 06:50:01.879650048+01:00,-0.75,0.5,10.0,0.5,-0.21262376237609384,-0.8936881188119531,1,1,34.400000000000546,3,0.13984299902228145,0.13795415015694945,1,1,1,1653371394.9998603,1,0,0,0,0,0,3,56.1417570003542,10.207574000354208,1,1,0.09995368464390902,-0.09986105393165323,10.799953684643887,0.29995368464388633,0.30000000000000004,1.3000463153561137,9691,23,1,301,4,11
2022-05-24 06:50:01.880100096+01:00,-0.75,0.5,10.0,0.5,-0.21485148514837218,-0.8925742574258139,1,1,34.39995445805135,3,0.139895332681521,0.1379694334379663,1,1,1,1653371395.0003157,1,0,0,0,0,0,3,56.14175700080962,10.207574000809629,1,1,0.10000000000002274,-0.09999999999999432,10.8,0.30000000000000004,0.30000000000000004,1.3,9691,23,1,301,4,11
2022-05-24 06:50:01.880600064+01:00,-0.75,0.5,10.0,0.5,-0.21732673267250055,-0.8913366336637497,1,1,34.39990385588559,3,0.13995348119177242,0.13798641486131408,1,1,1,1653371395.0008218,1,0,0,0,0,0,3,56.14175700131564,10.20757400131565,1,1,0.10000000000002274,-0.10010119921061508,10.8,0.30000000000000004,0.30000000000000004,1.3,9691,23,1,301,4,11
2022-05-24 06:50:01.880999936+01:00,-0.75,0.5,10.0,0.5,-0.21930693069292886,-0.8903465346535355,1,1,34.39986337415296,3,0.14,0.138,1,1,1,1653371395.0012267,1,0,0,0,0,0,3,56.14175700172046,10.207574001720468,1,1,0.10000000000002274,-0.10018215857915772,10.8,0.30000000000000004,0.30000000000000004,1.3,9691,23,1,301,4,11
2022-05-24 06:50:01.881249792+01:00,-0.75,0.5,10.0,0.5,-0.22054455445555587,-0.889727722772222,1,1,34.399838073070065,3,0.14002403602874694,0.13800202408663134,1,1,1,1653371395.0014796,1,0,0,0,0,0,3,56.14175700197347,10.207574001973478,1,1,0.10000000000002274,-0.10023275818449111,10.8,0.30000000000000004,0.30000000000000004,1.3,9691,23,1,301,4,11
2022-05-24 06:50:01.937700096+01:00,-0.75,0.5,10.0,0.5,-0.5,-0.75,1,1,34.394125088554304,3,0.1454513713187011,0.13845906284789064,1,1,1,1653371395.0586095,1,0,0,0,0,0,3,56.14175705910331,10.207574059103324,1,1,0.10000000000002274,-0.11165814906645173,10.8,0.30000000000000004,0.30000000000000004,1.3,9691,23,1,301,4,11
2022-05-24 06:50:02.035749888+01:00,-0.75,0.625,10.125,0.5,-0.25,-0.75,1,1,34.38420200384626,3,0.15487830179130868,0.13925290962453127,1,1,1,1653371395.1578403,1,0,0,0,0,0,3,56.14175715833416,10.20757415833417,1,1,0.10000000000002274,-0.13150331427413092,10.8,0.30000000000000004,0.30000000000000004,1.3,9691,23,1,301,4,11
2022-05-24 06:50:02.139749888+01:00,-0.625,0.625,9.875,0.5,-0.5,-1.0,1,1,34.3736767533655,3,0.16487728974799695,0.14009492966298923,1,1,1,1653371395.2630928,1,0,0,0,0,0,3,56.14175726358666,10.207574263586675,1,1,0.10000000000002274,-0.15255275008854235,10.8,0.30000000000000004,0.30000000000000004,1.3,9691,23,1,301,4,11
2022-05-24 06:50:02.239749888+01:00,-0.625,0.625,10.0,0.5,-0.5,-0.75,1,1,34.36355632021093,3,0.17449170124479996,0.1409045643153516,1,1,1,1653371395.3642972,1,0,0,0,0,0,3,56.141757364791,10.207574364791006,1,1,0.10000000000002274,-0.17279259221775756,10.8,0.30000000000000004,0.30000000000000004,1.3,9691,23,1,301,4,11
2022-05-24 06:50:02.342749952+01:00,-0.625,0.625,10.125,0.5,-0.25,-1.0,1,1,34.353132274061714,3,0.18439454508652237,0.14173848800728608,1,1,1,1653371395.4685376,1,0,0,0,0,0,3,56.14175746903146,10.207574469031467,1,1,0.10000000000002274,-0.19363962961088144,10.8,0.30000000000000004,0.30000000000000004,1.3,9691,23,1,301,4,11
2022-05-24 06:50:02.443749888+01:00,-0.625,0.625,9.875,0.5,-0.5,-1.0,1,1,34.34291063657558,3,0.19410510069831308,0.14255621900617374,1,1,1,1653371395.570754,1,0,0,0,0,0,3,56.14175757124783,10.207574571247841,1,1,0.10000000000002274,-0.21408187016143024,10.8,0.30000000000000004,0.30000000000000004,1.3,9691,23,1,301,4,11
2022-05-24 06:50:02.546749952+01:00,-0.625,0.625,10.0,0.5,-0.25,-1.0,1,1,34.332486590426385,3,0.20400794454001364,0.1433901426981064,1,1,1,1653371395.6749945,1,0,0,0,0,0,3,56.14175767548829,10.207574675488303,1,1,0.10000000000002274,-0.2349289075545081,10.8,0.30000000000000004,0.30000000000000004,1.3,9691,23,1,301,4,11
2022-05-24 06:50:02.647749888+01:00,-0.5,0.625,10.0,0.25,-0.5,-1.0,1,1,34.32226495294025,3,0.21371850015180435,0.14420787369699403,1,1,1,1653371395.7772107,1,0,0,0,0,0,3,56.14175777770467,10.207574777704679,1,1,0.10000000000002274,-0.2553711481050569,10.8,0.30000000000000004,0.30000000000000004,1.3,9691,23,1,301,4,11
2022-05-24 06:50:02.750749952+01:00,-0.5,0.625,9.875,0.25,-0.5,-1.0,1,1,34.31184090679103,3,0.22362134399352676,0.14504179738892856,1,1,1,1653371395.8814511,1,0,0,0,0,0,3,56.14175788194513,10.207574881945138,1,1,0.10000000000002274,-0.2762181854981808,10.8,0.30000000000000004,0.30000000000000004,1.3,9691,23,1,301,4,11
2022-05-24 06:50:02.854749952+01:00,-0.5,0.625,10.125,0.5,-0.5,-1.0,1,1,34.301315656310294,3,0.23362033195019316,0.14588381742738468,1,1,1,1653371395.9867036,1,0,0,0,0,0,3,56.141757987197636,10.207574987197644,1,1,0.10000000000002274,-0.2972676213125462,10.8,0.30000000000000004,0.30000000000000004,1.3,9691,23,1,301,4,11
2022-05-24 06:50:02.866499840+01:00,-0.5,0.625,10.109539473684057,0.5,-0.5,-1.0,1,1,34.30012650541462,3,0.23475002530108008,0.1459789494990383,1,1,1,1653371395.9985952,1,0,0,0,0,0,3,56.141757999089144,10.207574999089152,1,1,0.10000000000002274,-0.29964580276275543,10.8,0.30000000000000004,0.30000000000000004,1.3,9691,23,1,301,4,10
2022-05-24 06:50:02.866899968+01:00,-0.5,0.625,10.109013157894715,0.5,-0.5,-1.0,1,1,34.300086023682006,3,0.23478848294705768,0.14598218803764695,1,1,1,1653371395.999,1,0,0,0,0,0,3,56.14175799949396,10.20757499949397,1,1,0.10000000000002274,-0.29972676213125204,10.8,0.30000000000000004,0.30000000000000004,1.3,9691,23,1,301,4,10
2022-05-24 06:50:02.867399936+01:00,-0.5,0.625,10.10835526315774,0.5,-0.5,-1.0,1,1,34.30003542151623,3,0.23483655500455153,0.1459862362109096,1,1,1,1653371395.9994986,1,0,0,0,0,0,3,56.14175799999998,10.207574999999991,1,1,0.10000000000002274,-0.2998279613419188,10.8,0.30000000000000004,0.30000000000000004,1.3,9691,23,1,301,4,10
2022-05-24 06:50:02.867749888+01:00,-0.5,0.625,10.107894736841917,0.5,-0.5,-1.0,1,1,34.30000000000018,3,0.23487020544479284,0.14598906993219307,1,1,1,1653371395.9998474,1,0,0,0,0,0,3,56.14175800244241,10.207575000697828,1,1,0.10000000000002274,-0.29989880078937636,10.8,0.30000000000000004,0.30000000000000004,1.3,9691,23,1,301,4,10
2022-05-24 06:50:02.868249856+01:00,-0.5,0.625,10.10723684210524,0.5,-0.5,-1.0,1,1,34.30014954389128,3,0.23491827750226485,0.14599311810545387,1,1,1,1653371396.000346,1,0,0,0,0,0,3,56.14175800593159,10.207575001694737,1,1,0.10000000000002274,-0.29999999999999716,10.8,0.30000000000000004,0.30000000000000004,1.3,9691,23,1,301,4,10
2022-05-24 06:50:02.868699904+01:00,-0.5,0.625,10.10664473684208,0.5,-0.5,-1.0,1,1,34.3002841333933,3,0.23496154235400057,0.1459967614613895,1,1,1,1653371396.0007944,1,0,0,0,0,0,3,56.14175800907186,10.207575002591957,1,1,0.10000000000002274,-0.3001345895020162,10.8,0.29995513683266034,0.29995513683266034,1.2999551368326603,9691,23,1,301,4,10
2022-05-24 06:50:02.869100032+01:00,-0.5,0.625,10.10611842105244,0.5,-0.5,-1.0,1,1,34.30040376850624,3,0.23500000000000001,0.146,1,1,1,1653371396.0011933,1,0,0,0,0,0,3,56.1417580118632,10.207575003389485,1,1,0.10000000000002274,-0.3002542246149598,10.8,0.29991525846167916,0.29991525846167916,1.299915258461679,9691,23,1,301,4,10
2022-05-24 06:50:02.869349888+01:00,-0.5,0.625,10.105789473683952,0.5,-0.5,-1.0,1,1,34.30047854045182,3,0.23494317332135825,0.14597208514031632,1,1,1,1653371396.0014424,1,0,0,0,0,0,3,56.1417580136078,10.20757500388794,1,1,0.10000000000002274,-0.3003289965605411,10.8,0.2998903344798187,0.2998903344798187,1.2998903344798187,9691,23,1,301,4,10
2022-05-24 06:50:02.949750016+01:00,-0.5,0.625,10.0,0.5,-0.5,-1.0,1,1,34.324525198145814,3,0.21666771347393293,0.13699466626789686,1,1,1,1653371396.081594,1,0,0,0,0,0,3,56.14175857466851,10.207575164190999,1,1,0.10000000000002274,-0.32437565425452153,10.8,0.29187478191515853,0.29187478191515853,1.2918747819151586,9691,23,1,301,4,10
2022-05-24 06:50:03.050800128+01:00,-0.5,0.625,10.0,0.5,-0.25,-0.75,1,1,34.35474801854362,3,0.19369836997161877,0.12571147998605833,1,1,1,1653371396.1823318,1,0,0,0,0,0,3,56.141759279832506,10.207575365666424,1,1,0.10000000000002274,-0.35459847465230304,10.8,0.2818005084492312,0.2818005084492312,1.2818005084492312,9691,23,1,301,4,10
2022-05-24 06:50:03.152849920+01:00,-0.5,0.625,10.0,0.5,-0.5,-1.0,1,1,34.385269926723744,3,0.17050171975473755,0.1143166342654851,1,1,1,1653371396.2840664,1,0,0,0,0,0,3,56.141759991974865,10.207575569135669,1,1,0.10000000000002274,-0.38512038283240957,10.8,0.2716265390558623,0.2716265390558623,1.2716265390558623,9691,23,1,301,4,10
2022-05-24 06:50:03.254800128+01:00,-0.5,0.625,10.0,0.25,-0.5,-0.75,1,1,34.41576192612558,3,0.14732780020935443,0.10293295448880567,1,1,1,1653371396.3857012,1,0,0,0,0,0,3,56.141760703419386,10.207575772405532,1,1,0.10000000000002274,-0.41561238223422925,10.8,0.26146253925525564,0.26146253925525564,1.2614625392552556,9691,23,1,301,4,10
2022-05-24 06:50:03.357799936+01:00,-0.5,0.625,10.125,0.25,-0.25,-1.0,1,1,34.44656796769875,3,0.1239152086137586,0.09143203230149545,1,1,1,1653371396.488383,1,0,0,0,0,0,3,56.141761422191195,10.207575977768906,1,1,0.10000000000002274,-0.44641842380738134,10.8,0.2511938587308715,0.2511938587308715,1.2511938587308715,9691,23,1,301,4,10
2022-05-24 06:50:03.459849984+01:00,-0.5,0.625,10.0,0.5,-0.5,-1.0,1,1,34.47708987587881,3,0.10071855839692909,0.08003718658094762,1,1,1,1653371396.5901177,1,0,0,0,0,0,3,56.141762134333554,10.20757618123815,1,1,0.10000000000002274,-0.47694033198741986,10.8,0.24101988933752522,0.24101988933752522,1.2410198893375253,9691,23,1,301,4,10
2022-05-24 06:50:03.559849984+01:00,-0.5,0.625,10.0,0.5,-0.5,-1.0,1,1,34.506998654105274,3,0.07798788694482758,0.06887124270973986,1,1,1,1653371396.6898086,1,0,0,0,0,0,3,56.14176283217026,10.207576380620067,1,1,0.10000000000002274,-0.5068491102138689,10.8,0.23105029659537546,0.23105029659537546,1.2310502965953756,9691,23,1,301,4,10
2022-05-24 06:50:03.669850112+01:00,-0.5,0.625,10.125,0.5,-0.5,-1.0,1,1,34.539898310154314,3,0.052984148347572785,0.056588704451439265,1,1,1,1653371396.7994685,1,0,0,0,0,0,3,56.141763599790636,10.207576599940174,1,1,0.10000000000002274,-0.5397487662628881,10.8,0.22008374457903562,0.22008374457903562,1.2200837445790358,9691,23,1,301,4,10
2022-05-24 06:50:03.765850112+01:00,-0.5,0.5,10.0,0.5,-0.5,-1.0,1,1,34.56861073725169,3,0.031162703753584264,0.04586939833509403,1,1,1,1653371396.8951719,1,0,0,0,0,0,3,56.14176426971388,10.207576791346812,1,1,0.10000000000002274,-0.5684611933602411,10.8,0.2105129355465845,0.2105129355465845,1.2105129355465847,9691,23,1,301,4,10
2022-05-24 06:50:03.869600+01:00,-0.37885333956104494,0.6211466604389551,10.0,0.5,-0.5,-1.0,1,1,34.5996410946616,3,0.007579632122063196,0.034284731568732796,1,1,1,1653371396.9986012,1,0,0,0,0,0,3,56.14176499371946,10.20757699820555,1,1,0.10000000000002274,-0.599491550770137,10.8,0.20016948307661914,0.20016948307661914,1.2001694830766192,9691,23,1,301,4,10
2022-05-24 06:50:03.869999872+01:00,-0.37838626809896336,0.6216137319010366,10.0,0.5,-0.5,-1.0,1,1,34.599760729774545,3,0.007488709436226038,0.03424006779323385,1,1,1,1653371396.999,1,0,0,0,0,0,3,56.14176499651081,10.207576999003077,1,1,0.10000000000002274,-0.5996111858830806,10.8,0.20012960470563793,0.20012960470563793,1.200129604705638,9691,23,1,301,4,10
2022-05-24 06:50:03.870500096+01:00,-0.37780242877169323,0.6221975712283068,10.0,0.5,-0.5,-1.0,1,1,34.59991027366564,3,0.007375056078994219,0.03418423807389191,1,1,1,1653371396.999499,1,0,0,0,0,0,3,56.14176499999999,10.207576999999986,1,1,0.10000000000002274,-0.5997607297741752,10.8,0.20007975674193976,0.20007975674193976,1.20007975674194,9691,23,1,301,4,10
2022-05-24 06:50:03.870800128+01:00,-0.3774521251750656,0.6225478748249343,10.0,0.5,-0.5,-1.0,1,1,34.600000000000364,3,0.007306864064603458,0.03415074024226135,1,1,1,1653371396.9997983,1,0,0,0,0,0,3,56.141765000898154,10.207577000598759,1,1,0.10000000000002274,-0.5998504561088998,10.8,0.20004984796369818,0.20004984796369818,1.2000498479636983,9691,23,1,301,4,10
2022-05-24 06:50:03.871300096+01:00,-0.37686828584779547,0.6231317141522046,10.0,0.5,-0.5,-1.0,1,1,34.60004989522039,3,0.007193210707371639,0.034094910522919394,1,1,1,1653371397.0002973,1,0,0,0,0,0,3,56.14176500239508,10.207577001596713,1,1,0.10000000000002274,-0.5999999999999943,10.8,0.2,0.2,1.2000000000000002,9691,23,1,301,4,10
2022-05-24 06:50:03.871800064+01:00,-0.37628444652025983,0.6237155534797402,10.0,0.5,-0.5,-1.0,1,1,34.60009979044044,3,0.0070795573500881115,0.03403908080355207,1,1,1,1653371397.0007963,1,0,0,0,0,0,3,56.14176500389201,10.207577002594666,1,1,0.10000000000002274,-0.5999999999999943,10.8,0.2,0.2,1.2000000000000002,9691,23,1,301,4,10
2022-05-24 06:50:03.872150016+01:00,-0.375875758991038,0.624124241008962,10.0,0.5,-0.5,-1.0,1,1,34.60013471709447,3,0.007,0.034,1,1,1,1653371397.0011456,1,0,0,0,0,0,3,56.14176500493986,10.207577003293235,1,1,0.10000000000002274,-0.5999999999999943,10.8,0.2,0.2,1.2000000000000002,9691,23,1,301,4,10
2022-05-24 06:50:03.872450048+01:00,-0.37552545539467586,0.6244745446053241,10.0,0.5,-0.5,-1.0,1,1,34.60016465422648,3,0.006999401257359696,0.033999401257359695,1,1,1,1653371397.001445,1,0,0,0,0,0,3,56.141765005838025,10.207577003892007,1,1,0.10000000000002274,-0.5999999999999943,10.8,0.2,0.2,1.2000000000000002,9691,23,1,301,4,10
2022-05-24 06:50:03.872900096+01:00,-0.375,0.625,10.0,0.5,-0.5,-1.0,1,1,34.600209559924515,3,0.006998503143399011,0.033998503143399014,1,1,1,1653371397.001894,1,0,0,0,0,0,3,56.14176500718526,10.207577004790167,1,1,0.10000000000002274,-0.5999999999999943,10.8,0.2,0.2,1.2000000000000002,9691,23,1,301,4,10
2022-05-24 06:50:03.967849984+01:00,-0.375,0.625,10.125,0.5,-0.5,-0.75,1,1,34.609684662209744,3,0.006809001097695123,0.03380900109769513,1,1,1,1653371397.096645,1,0,0,0,0,0,3,56.141765291452515,10.207577194301667,1,1,0.10000000000002274,-0.5999999999999943,10.8,0.2,0.2,1.2000000000000002,9691,23,1,301,4,10
2022-05-24 06:50:04.068900096+01:00,-0.375,0.625,10.0,0.5,-0.5,-1.0,1,1,34.619768486179446,3,0.0066073246183018615,0.03360732461830186,1,1,1,1653371397.1974833,1,0,0,0,0,0,3,56.14176559398233,10.20757739598821,1,1,0.10000000000002274,-0.5999999999999943,10.8,0.2,0.2,1.2000000000000002,9691,23,1,301,4,10
2022-05-24 06:50:04.169900032+01:00,-0.375,0.625,10.125,0.5,-0.25,-0.75,1,1,34.62984732062716,3,0.006405747929348424,0.033405747929348424,1,1,1,1653371397.2982717,1,0,0,0,0,0,3,56.14176589636245,10.207577597574955,1,1,0.10000000000002274,-0.5999999999999943,10.8,0.2,0.2,1.2000000000000002,9691,23,1,301,4,10
2022-05-24 06:50:04.271899904+01:00,-0.375,0.625,10.0,0.5,-0.5,-1.0,1,1,34.640025945514914,3,0.00620217543159397,0.03320217543159397,1,1,1,1653371397.4000578,1,0,0,0,0,0,3,56.14176620173643,10.207577801157612,1,1,0.10000000000002274,-0.5999999999999943,10.8,0.2,0.2,1.2000000000000002,9691,23,1,301,4,10
2022-05-24 06:50:04.371900160+01:00,-0.375,0.625,10.0,0.5,-0.5,-1.0,1,1,34.65000498952255,3,0.006002594551442001,0.033002594551442,1,1,1,1653371397.4998484,1,0,0,0,0,0,3,56.14176650112269,10.20757800074845,1,1,0.10000000000002274,-0.5999999999999943,10.8,0.2,0.2,1.2000000000000002,9691,23,1,301,4,10
2022-05-24 06:50:04.473949952+01:00,-0.375,0.625,10.0,0.5,-0.5,-1.0,1,1,34.66018860393232,3,0.00579892226324727,0.03279892226324727,1,1,1,1653371397.6016843,1,0,0,0,0,0,3,56.141766806646366,10.2075782044309,1,1,0.10000000000002274,-0.5999999999999943,10.8,0.2,0.2,1.2000000000000002,9691,23,1,301,4,10
2022-05-24 06:50:04.574949888+01:00,-0.375,0.625,10.0,0.5,-0.5,-1.0,1,1,34.67026743838003,3,0.005597345574293832,0.032597345574293835,1,1,1,1653371397.7024727,1,0,0,0,0,0,3,56.14176710902648,10.207578406017646,1,1,0.10000000000002274,-0.5999999999999943,10.8,0.2,0.2,1.2000000000000002,9691,23,1,301,4,10
2022-05-24 06:50:04.684950016+01:00,-0.375,0.625,10.0,0.5,-0.25,-1.0,1,1,34.68124438678841,3,0.005377806606127166,0.032377806606127164,1,1,1,1653371397.8122423,1,0,0,0,0,0,3,56.141767438351366,10.20757862556757,1,1,0.10000000000002274,-0.5999999999999943,10.8,0.2,0.2,1.2000000000000002,9691,23,1,301,4,10
2022-05-24 06:50:04.783950080+01:00,-0.25,0.625,10.0,0.5,-0.5,-1.0,1,1,34.69112364035594,3,0.0051802215347771215,0.03218022153477712,1,1,1,1653371397.9110348,1,0,0,0,0,0,3,56.14176773474376,10.207578823162498,1,1,0.10000000000002274,-0.5999999999999943,10.8,0.2,0.2,1.2000000000000002,9691,23,1,301,4,10
2022-05-24 06:50:04.871650048+01:00,-0.35540865384616044,0.625,10.10540865384616,0.5,-0.5,-1.0,1,1,34.69987526195063,3,0.005005189102884003,0.032005189102884,1,1,1,1653371397.9985511,1,0,0,0,0,0,3,56.14176799730551,10.207578998203664,1,1,0.10000000000002274,-0.5999999999999943,10.8,0.2,0.2,1.2000000000000002,9691,23,1,301,4,10
2022-05-24 06:50:04.872100096+01:00,-0.35594951923077645,0.625,10.105949519230776,0.5,-0.5,-1.0,1,1,34.69992016764866,3,0.005004290988923319,0.03200429098892332,1,1,1,1653371397.999,1,0,0,0,0,0,3,56.141767998652746,10.207578999101823,1,1,0.10000000000002274,-0.5999999999999943,10.8,0.2,0.2,1.2000000000000002,9691,23,1,301,4,10
2022-05-24 06:50:04.872549888+01:00,-0.3564903846153925,0.625,10.106490384615393,0.5,-0.5,-1.0,1,1,34.699965073346696,3,0.005003392874962634,0.032003392874962636,1,1,1,1653371397.9994457,1,0,0,0,0,0,3,56.141767999999985,10.207578999999981,1,1,0.10000000000002274,-0.5999999999999943,10.8,0.2,0.2,1.2000000000000002,9691,23,1,301,4,10
2022-05-24 06:50:04.872900096+01:00,-0.35691105769234643,0.625,10.106911057692347,0.5,-0.5,-1.0,1,1,34.70000000000073,3,0.005002694341882052,0.032002694341882056,1,1,1,1653371397.999792,1,0,0,0,0,0,3,56.141768000692984,10.207579000346481,1,1,0.10000000000002274,-0.5999999999999943,10.8,0.2,0.2,1.2000000000000002,9691,23,1,301,4,10
2022-05-24 06:50:04.873400064+01:00,-0.3575120192309302,0.625,10.10751201923093,0.5,-0.5,-1.0,1,1,34.70004950250061,3,0.00500169643748109,0.03200169643748109,1,1,1,1653371398.000287,1,0,0,0,0,0,3,56.14176800168298,10.207579000841482,1,1,0.10000000000002274,-0.5999999999999943,10.8,0.2,0.2,1.2000000000000002,9691,23,1,301,4,10
2022-05-24 06:50:04.873850112+01:00,-0.35805288461554624,0.625,10.108052884615546,0.5,-0.5,-1.0,1,1,34.7000940547505,3,0.0050007983235204065,0.03200079832352041,1,1,1,1653371398.0007327,1,0,0,0,0,0,3,56.14176800257399,10.207579001286982,1,1,0.10000000000002274,-0.5999554477501057,10.8,0.2,0.2,1.2000000000000002,9691,23,1,301,4,10
2022-05-24 06:50:04.874249984+01:00,-0.35853365384619457,0.625,10.108533653846195,0.5,-0.5,-1.0,1,1,34.700133656750396,3,0.005,0.032,1,1,1,1653371398.0011287,1,0,0,0,0,0,3,56.14176800336599,10.207579001682983,1,1,0.10000000000002274,-0.5999158457502146,10.8,0.2,0.2,1.2000000000000002,9691,23,1,301,4,10
2022-05-24 06:50:04.874550016+01:00,-0.35889423076918087,0.625,10.108894230769181,0.5,-0.5,-1.0,1,1,34.70016335825031,3,0.0050029700029692575,0.032,1,1,1,1653371398.0014257,1,0,0,0,0,0,3,56.14176800395999,10.207579001979983,1,1,0.10000000000002274,-0.5998861442502963,10.8,0.2,0.2,1.2000000000000002,9691,23,1,301,4,10
2022-05-24 06:50:04.887949824+01:00,-0.375,0.625,10.125,0.5,-0.5,-1.0,1,1,34.70149002524699,3,0.005135630135629859,0.032,1,1,1,1653371398.0146923,1,0,0,0,0,0,3,56.14176803049202,10.207579015245997,1,1,0.10000000000002274,-0.5985594772536081,10.8,0.2,0.2,1.2000000000000002,9691,23,1,301,4,10
2022-05-24 06:50:04.984950016+01:00,-0.375,0.625,10.0,0.5,-0.5,-0.75,1,1,34.71109351022293,3,0.006095931095930654,0.032,1,1,1,1653371398.1107273,1,0,0,0,0,0,3,56.14176822255221,10.207579111276093,1,1,0.10000000000002274,-0.5889559922776182,10.8,0.2,0.2,1.2000000000000002,9691,23,1,301,4,10
2022-05-24 06:50:05.081000192+01:00,-0.25,0.625,10.125,0.5,-0.5,-0.75,1,1,34.72060294044911,3,0.007046827046827674,0.032,1,1,1,1653371398.2058215,1,0,0,0,0,0,3,56.141768412731395,10.207579206365686,1,1,0.10000000000002274,-0.5794465620513806,10.8,0.2,0.2,1.2000000000000002,9691,23,1,301,4,10
2022-05-24 06:50:05.186000128+01:00,-0.25,0.625,10.0,0.5,-0.5,-0.75,1,1,34.73099846542307,3,0.008086328086328929,0.032,1,1,1,1653371398.3097768,1,0,0,0,0,0,3,56.1417686206316,10.207579310315792,1,1,0.10000000000002274,-0.5690510370773668,10.8,0.2,0.2,1.2000000000000002,9691,23,1,301,4,10
2022-05-24 06:50:05.288000+01:00,-0.25,0.625,10.0,0.5,-0.5,-1.0,1,1,34.74109697539775,3,0.009096129096128603,0.032,1,1,1,1653371398.4107618,1,0,0,0,0,0,3,56.14176882259181,10.207579411295892,1,1,0.10000000000002274,-0.558952527102626,10.8,0.2,0.2,1.2000000000000002,9691,23,1,301,4,10
2022-05-24 06:50:05.388999936+01:00,-0.25,0.625,10.0,0.25,-0.5,-1.0,1,1,34.75109648037271,3,0.010096030096030755,0.032,1,1,1,1653371398.510757,1,0,0,0,0,0,3,56.14176902257201,10.207579511285992,1,1,0.10000000000002274,-0.5489530221276129,10.8,0.2,0.2,1.2000000000000002,9691,23,1,301,4,10
2022-05-24 06:50:05.490000128+01:00,-0.25,0.625,10.0,0.5,-0.5,-1.0,1,1,34.761095985347644,3,0.011095931095930654,0.032,1,1,1,1653371398.6107519,1,0,0,0,0,0,3,56.141769222552206,10.207579611276092,1,1,0.10000000000002274,-0.5389535171526222,10.8,0.2,0.2,1.2000000000000002,9691,23,1,301,4,10
2022-05-24 06:50:05.592999936+01:00,-0.25,0.625,10.125,0.5,-0.5,-0.75,1,1,34.7712935003221,3,0.012115632115632356,0.032,1,1,1,1653371398.712727,1,0,0,0,0,0,3,56.14176942649241,10.207579713246194,1,1,0.10000000000002274,-0.5287560021781087,10.8,0.2,0.2,1.2000000000000002,9691,23,1,301,4,10
2022-05-24 06:50:05.696049920+01:00,-0.25,0.625,10.0,0.25,-0.5,-0.75,1,1,34.78149596554653,3,0.01313582813582781,0.032,1,1,1,1653371398.8147519,1,0,0,0,0,0,3,56.14176963053161,10.207579815265795,1,1,0.10000000000002274,-0.51855353695362,10.8,0.2,0.2,1.2000000000000002,9691,23,1,301,4,10
2022-05-24 06:50:05.799049984+01:00,-0.25,0.625,10.0,0.5,-0.5,-0.75,1,1,34.79169348052098,3,0.014155529155529513,0.032,1,1,1,1653371398.9167268,1,0,0,0,0,0,3,56.141769834471816,10.207579917235897,1,1,0.10000000000002274,-0.5083560219791066,10.8,0.2,0.2,1.2000000000000002,9691,23,1,301,4,10
2022-05-24 06:50:05.881750016+01:00,-0.25,0.625,10.102351485148546,0.5,-0.5,-0.9547029702970926,1,1,34.79988119400046,3,0.01497425997425968,0.032,1,1,1,1653371398.998604,1,0,0,0,0,0,3,56.14176999821798,10.207579999108978,1,1,0.10000000000002274,-0.500168308499582,10.8,0.2,0.2,1.2000000000000002,9691,23,1,301,4,11
2022-05-24 06:50:05.882149888+01:00,-0.25,0.625,10.102846534653654,0.5,-0.5,-0.955693069307309,1,1,34.79992079600038,3,0.014978219978220943,0.032,1,1,1,1653371398.999,1,0,0,0,0,0,3,56.14176999900998,10.207579999504977,1,1,0.10000000000002274,-0.5001287064996685,10.8,0.2,0.2,1.2000000000000002,9691,23,1,301,4,11
2022-05-24 06:50:05.882649856+01:00,-0.25,0.625,10.103465346534689,0.5,-0.5,-0.9569306930693761,1,1,34.79997029850024,3,0.014983169983169703,0.032,1,1,1,1653371398.9994917,1,0,0,0,0,0,3,56.14176999999998,10.207579999999979,1,1,0.10000000000002274,-0.5000792039998047,10.8,0.2,0.2,1.2000000000000002,9691,23,1,301,4,11
2022-05-24 06:50:05.882950144+01:00,-0.25,0.625,10.10383663366359,0.5,-0.5,-0.9576732673271791,1,1,34.80000000000018,3,0.014986139986141213,0.032,1,1,1,1653371398.9997866,1,0,0,0,0,0,3,56.14177000147483,10.207579999705008,1,1,0.10000000000002274,-0.5000495024998638,10.8,0.2,0.2,1.2000000000000002,9691,23,1,301,4,11
2022-05-24 06:50:05.883450112+01:00,-0.25,0.625,10.104455445544623,0.5,-0.5,-0.958910891089246,1,1,34.80009831391649,3,0.014991089991089977,0.032,1,1,1,1653371399.0002782,1,0,0,0,0,0,3,56.141770003932926,10.20757999921339,1,1,0.10000000000002274,-0.5,10.8,0.2,0.2,1.2000000000000002,9691,23,1,301,4,11
2022-05-24 06:50:05.883950080+01:00,-0.25,0.625,10.105074257425938,0.5,-0.5,-0.9601485148518758,1,1,34.80019662783285,3,0.014996039996040988,0.032,1,1,1,1653371399.0007699,1,0,0,0,0,0,3,56.14177000639101,10.207579998721773,1,1,0.10000000000002274,-0.4999508406252972,10.8,0.2,0.2,1.2000000000000002,9691,23,1,301,4,11
2022-05-24 06:50:05.884349952+01:00,-0.25,0.625,10.105569306930764,0.5,-0.5,-0.9611386138615293,1,1,34.80027527896589,3,0.015,0.032,1,1,1,1653371399.001163,1,0,0,0,0,0,3,56.14177000835748,10.207579998328479,1,1,0.10000000000002274,-0.4999115131255529,10.8,0.2,0.2,1.2000000000000002,9691,23,1,301,4,11
2022-05-24 06:50:05.884599808+01:00,-0.25,0.625,10.105878712871423,0.5,-0.5,-0.9617574257428443,1,1,34.800324435924075,3,0.01500319535935568,0.032,1,1,1,1653371399.0014088,1,0,0,0,0,0,3,56.14177000958653,10.20757999808267,1,1,0.10000000000002274,-0.4998869334382015,10.8,0.2,0.2,1.2000000000000002,9691,23,1,301,4,11
2022-05-24 06:50:05.900049920+01:00,-0.25,0.625,10.125,0.5,-0.5,-1.0,1,1,34.80336233593879,3,0.015200668567494849,0.032,1,1,1,1653371399.0165992,1,0,0,0,0,0,3,56.141770085541495,10.207579982891675,1,1,0.10000000000002274,-0.49836790876020776,10.8,0.2,0.2,1.2000000000000002,9691,23,1,301,4,11
2022-05-24 06:50:05.999049984+01:00,-0.25,0.625,10.0,0.5,-0.5,-0.75,1,1,34.82282849137311,3,0.016466030872088346,0.032,1,1,1,1653371399.1139348,1,0,0,0,0,0,3,56.14177057224323,10.20757988555133,1,1,0.10000000000002274,-0.4886343525710262,10.8,0.2,0.2,1.2000000000000002,9691,23,1,301,4,11
2022-05-24 06:50:06.100100096+01:00,-0.25,0.625,10.125,0.5,-0.5,-0.75,1,1,34.84269773386436,3,0.01775759512339086,0.032,1,1,1,1653371399.2132857,1,0,0,0,0,0,3,56.141771069023136,10.207579786195348,1,1,0.10000000000002274,-0.4786992429456214,10.8,0.2,0.2,1.2000000000000002,9691,23,1,301,4,11
2022-05-24 06:50:06.204099840+01:00,-0.25,0.625,10.0,0.5,-0.25,-1.0,1,1,34.86314702846201,3,0.019086864615083427,0.032,1,1,1,1653371399.3155372,1,0,0,0,0,0,3,56.14177158030577,10.207579683938823,1,1,0.10000000000002274,-0.46847409300952386,10.8,0.2,0.2,1.2000000000000002,9691,23,1,301,4,11
2022-05-24 06:50:06.303100160+01:00,-0.125,0.625,10.125,0.5,-0.5,-0.75,1,1,34.88261318389628,3,0.02035222691967402,0.032,1,1,1,1653371399.4128728,1,0,0,0,0,0,3,56.14177206700751,10.207579586598476,1,1,0.10000000000002274,-0.45874053682036464,10.8,0.2,0.2,1.2000000000000002,9691,23,1,301,4,11
2022-05-24 06:50:06.403099904+01:00,-0.125,0.625,10.0,0.25,-0.5,-1.0,1,1,34.90227596716322,3,0.021630370661684422,0.032,1,1,1,1653371399.5111916,1,0,0,0,0,0,3,56.141772558625426,10.207579488274893,1,1,0.10000000000002274,-0.4489086618818222,10.8,0.2,0.2,1.2000000000000002,9691,23,1,301,4,11
2022-05-24 06:50:06.507100160+01:00,-0.125,0.625,10.0,0.5,-0.5,-0.75,1,1,34.92272526176086,3,0.022959640153376988,0.032,1,1,1,1653371399.6134431,1,0,0,0,0,0,3,56.141773069908055,10.207579386018367,1,1,0.10000000000002274,-0.4386835119457247,10.8,0.2,0.2,1.2000000000000002,9691,23,1,301,4,11
2022-05-24 06:50:06.609149952+01:00,-0.125,0.625,10.125,0.5,-0.5,-0.75,1,1,34.94279113208478,3,0.024263985842099316,0.032,1,1,1,1653371399.7137773,1,0,0,0,0,0,3,56.14177357160414,10.20757928567915,1,1,0.10000000000002274,-0.4286500835709367,10.8,0.2,0.2,1.2000000000000002,9691,23,1,301,4,11
2022-05-24 06:50:06.715100160+01:00,-0.125,0.625,10.125,0.5,-0.5,-0.75,1,1,34.96362385095615,3,0.025618179136762113,0.032,1,1,1,1653371399.8179462,1,0,0,0,0,0,3,56.14177409247332,10.207579181505315,1,1,0.10000000000002274,-0.41823321207352965,10.8,0.2,0.2,1.2000000000000002,9691,23,1,301,4,11
2022-05-24 06:50:06.815099904+01:00,-0.125,0.625,10.0,0.5,-0.25,-1.0,1,1,34.98328663422308,3,0.02689632287877252,0.032,1,1,1,1653371399.9162648,1,0,0,0,0,0,3,56.14177458409124,10.207579083181733,1,1,0.10000000000002274,-0.4084013371349873,10.8,0.2,0.2,1.2000000000000002,9691,23,1,301,4,11
2022-05-24 06:50:06.898850048+01:00,-0.125,0.625,10.0,0.5,-0.4551690347869661,-1.0,1,1,34.99975421520916,3,0.027966768262707324,0.032,1,1,1,1653371399.9986067,1,0,0,0,0,0,3,56.141774995821244,10.207579000835732,1,1,0.10000000000002274,-0.40016714187394964,10.8,0.2,0.2,1.2000000000000002,9691,23,1,301,4,10
2022-05-24 06:50:06.899249920+01:00,-0.125,0.625,10.0,0.5,-0.45614894659521477,-1.0,1,1,34.99983286634225,3,0.02797188083767699,0.032,1,1,1,1653371399.999,1,0,0,0,0,0,3,56.141774997787714,10.207579000442438,1,1,0.10000000000002274,-0.40012781437418293,10.8,0.2,0.2,1.2000000000000002,9691,23,1,301,4,10
2022-05-24 06:50:06.899699968+01:00,-0.125,0.625,10.0,0.5,-0.4572513473791464,-1.0,1,1,34.999921348866955,3,0.027977632484516055,0.032,1,1,1,1653371399.9994667,1,0,0,0,0,0,3,56.141774999999996,10.207578999999981,1,1,0.10000000000002274,-0.40008357093695934,10.8,0.2,0.2,1.2000000000000002,9691,23,1,301,4,10
2022-05-24 06:50:06.900100096+01:00,-0.125,0.625,10.0,0.5,-0.45823125918683805,-1.0,1,1,35.0,3,0.027982745059482818,0.032,1,1,1,1653371399.9998813,1,0,0,0,0,0,3,56.14177500248795,10.207578999585323,1,1,0.10000000000002274,-0.400044243437215,10.8,0.2,0.2,1.2000000000000002,9691,23,1,301,4,10
2022-05-24 06:50:06.900549888+01:00,-0.125,0.625,10.0,0.5,-0.4593336599707697,-1.0,1,1,35.00013995438524,3,0.027988496706321878,0.032,1,1,1,1653371400.0003476,1,0,0,0,0,0,3,56.14177500528689,10.207578999118832,1,1,0.10000000000002274,-0.3999999999999915,10.8,0.2,0.2,1.2000000000000002,9691,23,1,301,4,10
2022-05-24 06:50:06.901050112+01:00,-0.125,0.625,10.0,0.5,-0.46055854973094124,-1.0,1,1,35.00029545925776,3,0.027994887425033237,0.032,1,1,1,1653371400.000866,1,0,0,0,0,0,3,56.14177500839682,10.20757899860051,1,1,0.10000000000002274,-0.39989633008497966,10.8,0.2,0.2,1.2000000000000002,9691,23,1,301,4,10
2022-05-24 06:50:06.901449984+01:00,-0.125,0.625,10.0,0.5,-0.4615384615386329,-1.0,1,1,35.00041986315571,3,0.028,0.032,1,1,1,1653371400.0012808,1,0,0,0,0,0,3,56.14177501088477,10.207578998185852,1,1,0.10000000000002274,-0.399813394153008,10.8,0.2,0.2,1.2000000000000002,9691,23,1,301,4,10
2022-05-24 06:50:06.901700096+01:00,-0.125,0.625,10.0,0.5,-0.4621509064187187,-1.0,1,1,35.000497615591975,3,0.02800025917478753,0.03200025917478753,1,1,1,1653371400.00154,1,0,0,0,0,0,3,56.14177501243974,10.20757899792669,1,1,0.10000000000002274,-0.39976155919550205,10.8,0.2,0.2,1.2000000000000002,9691,23,1,301,4,10
2022-05-24 06:50:06.917149952+01:00,-0.125,0.625,10.0,0.5,-0.5,-1.0,1,1,35.00530271615175,3,0.028016276176653455,0.03201627617665346,1,1,1,1653371400.017556,1,0,0,0,0,0,3,56.14177510853677,10.207578981910519,1,1,0.10000000000002274,-0.39655815882231665,10.8,0.2,0.2,1.2000000000000002,9691,23,1,301,4,10
2022-05-24 06:50:07.015150080+01:00,-0.125,0.625,10.125,0.5,-0.5,-1.0,1,1,35.035781671159086,3,0.028117872693344502,0.0321178726933445,1,1,1,1653371400.1191473,1,0,0,0,0,0,3,56.141775718084276,10.207578880319268,1,1,0.10000000000002274,-0.3762388554841074,10.8,0.2,0.2,1.2000000000000002,9691,23,1,301,4,10
2022-05-24 06:50:07.117199872+01:00,-0.125,0.625,10.0,0.25,-0.5,-1.0,1,1,35.067520215633486,3,0.02822366784159244,0.03222366784159244,1,1,1,1653371400.224937,1,0,0,0,0,0,3,56.14177635282226,10.207578774529605,1,1,0.10000000000002274,-0.3550798258345195,10.8,0.2,0.2,1.2000000000000002,9691,23,1,301,4,10
2022-05-24 06:50:07.218149888+01:00,-0.25,0.625,10.125,0.5,-0.5,-0.75,1,1,35.098916649388435,3,0.02832832262077553,0.03232832262077553,1,1,1,1653371400.3295863,1,0,0,0,0,0,3,56.14177698071838,10.207578669880249,1,1,0.10000000000002274,-0.334148869997901,10.8,0.2,0.2,1.2000000000000002,9691,23,1,301,4,10
2022-05-24 06:50:07.320199936+01:00,-0.125,0.625,10.0,0.5,-0.5,-1.0,1,1,35.130655193862836,3,0.028434117769023468,0.03243411776902347,1,1,1,1653371400.435376,1,0,0,0,0,0,3,56.14177761545637,10.207578564090586,1,1,0.10000000000002274,-0.3129898403483131,10.8,0.2,0.2,1.2000000000000002,9691,23,1,301,4,10
2022-05-24 06:50:07.423200+01:00,-0.25,0.625,10.125,0.5,-0.5,-1.0,1,1,35.162689197594986,3,0.028540897781463924,0.03254089778146393,1,1,1,1653371400.5421505,1,0,0,0,0,0,3,56.14177825610324,10.207578457316108,1,1,0.10000000000002274,-0.2916338378602217,10.8,0.2,0.2,1.2000000000000002,9691,23,1,301,4,10
2022-05-24 06:50:07.524199936+01:00,-0.25,0.625,10.0,0.5,-0.5,-1.0,1,1,35.19410118183715,3,0.02864560439560438,0.03264560439560438,1,1,1,1653371400.6468515,1,0,0,0,0,0,3,56.141778884310355,10.20757835261492,1,1,0.10000000000002274,-0.2706925150321302,10.8,0.2,0.2,1.2000000000000002,9691,23,1,301,4,10
2022-05-24 06:50:07.625200128+01:00,-0.25,0.625,10.0,0.5,-0.5,-1.0,1,1,35.225513166079374,3,0.028750311009745073,0.03275031100974507,1,1,1,1653371400.7515528,1,0,0,0,0,0,3,56.14177951251748,10.207578247913734,1,1,0.10000000000002274,-0.2497511922039917,10.8,0.2,0.2,1.2000000000000002,9691,23,1,301,4,10
2022-05-24 06:50:07.730200064+01:00,-0.25,0.625,10.0,0.5,-0.5,-1.0,1,1,35.258169189301384,3,0.028859164420485056,0.03285916442048506,1,1,1,1653371400.8604007,1,0,0,0,0,0,3,56.14178016560409,10.207578139065966,1,1,0.10000000000002274,-0.22798051005599454,10.8,0.2,0.2,1.2000000000000002,9691,23,1,301,4,10
2022-05-24 06:50:07.834249984+01:00,-0.25,0.625,10.0,0.5,-0.5,-1.0,1,1,35.29052975326579,3,0.028967032967032996,0.032967032967032996,1,1,1,1653371400.9682636,1,0,0,0,0,0,3,56.14178081278182,10.207578031203012,1,1,0.10000000000002274,-0.20640680074640663,10.8,0.2,0.2,1.2000000000000002,9691,23,1,301,4,10
2022-05-24 06:50:07.863450112+01:00,-0.25,0.625,10.03764827230529,0.5,-0.5,-1.0,1,1,35.29961123781896,3,0.028997304582210212,0.032997304582210216,1,1,1,1653371400.9985335,1,0,0,0,0,0,3,56.1417809944021,10.207578000932966,1,1,0.10000000000002274,-0.2003524777109627,10.8,0.2,0.2,1.2000000000000002,9691,23,1,301,4,11
2022-05-24 06:50:07.863899904+01:00,-0.25,0.625,10.038228468282599,0.5,-0.5,-1.0,1,1,35.2997511922042,3,0.028997771096827673,0.03299777109682767,1,1,1,1653371400.999,1,0,0,0,0,0,3,56.14178099720104,10.207578000466475,1,1,0.10000000000002274,-0.20025917478747096,10.8,0.2,0.2,1.2000000000000002,9691,23,1,301,4,11
2022-05-24 06:50:07.864350208+01:00,-0.25,0.625,10.038808664259909,0.5,-0.5,-1.0,1,1,35.29989114658943,3,0.02899823761144513,0.03299823761144513,1,1,1,1653371400.9994397,1,0,0,0,0,0,3,56.14178099999998,10.207577999999984,1,1,0.10000000000002274,-0.20016587186397922,10.8,0.2,0.2,1.2000000000000002,9691,23,1,301,4,11
2022-05-24 06:50:07.864700160+01:00,-0.25,0.625,10.039259927797849,0.5,-0.5,-1.0,1,1,35.30000000000018,3,0.028998600456147626,0.03299860045614762,1,1,1,1653371400.9997816,1,0,0,0,0,0,3,56.14178100102582,10.207577999999984,1,1,0.10000000000002274,-0.20009330292348038,10.8,0.2,0.2,1.2000000000000002,9691,23,1,301,4,11
2022-05-24 06:50:07.865149952+01:00,-0.25,0.625,10.039840123775159,0.5,-0.5,-1.0,1,1,35.300043962485525,3,0.028999066970765083,0.03299906697076509,1,1,1,1653371401.0002213,1,0,0,0,0,0,3,56.141781002344764,10.207577999999984,1,1,0.10000000000002274,-0.19999999999998863,10.8,0.2,0.2,1.2000000000000002,9691,23,1,301,4,11
2022-05-24 06:50:07.865649920+01:00,-0.25,0.625,10.040484785972007,0.5,-0.5,-1.0,1,1,35.300092809691456,3,0.02899958532033991,0.032999585320339905,1,1,1,1653371401.0007098,1,0,0,0,0,0,3,56.14178100381025,10.207577999999984,1,1,0.10000000000002274,-0.19999999999998863,10.799951152794073,0.2,0.2,1.2000000000000002,9691,23,1,301,4,11
2022-05-24 06:50:07.866050048+01:00,-0.25,0.625,10.041000515729777,0.5,-0.5,-1.0,1,1,35.30013188745622,3,0.029,0.033,1,1,1,1653371401.0011005,1,0,0,0,0,0,3,56.14178100498264,10.207577999999984,1,1,0.10000000000002274,-0.19999999999998863,10.799912075029308,0.2,0.2,1.2000000000000002,9691,23,1,301,4,11
2022-05-24 06:50:07.866349824+01:00,-0.25,0.625,10.041387313047887,0.5,-0.5,-1.0,1,1,35.30016119577978,3,0.028996482829369258,0.033,1,1,1,1653371401.0013938,1,0,0,0,0,0,3,56.14178100586193,10.207577999999984,1,1,0.10000000000002274,-0.19999999999998863,10.799882766705752,0.2,0.2,1.2000000000000002,9691,23,1,301,4,11
2022-05-24 06:50:07.931200+01:00,-0.25,0.625,10.125,0.5,-0.5,-1.0,1,1,35.30649667839019,3,0.028236187777833106,0.033,1,1,1,1653371401.0647516,1,0,0,0,0,0,3,56.14178119593569,10.207577999999984,1,1,0.10000000000002274,-0.19999999999998863,10.793547284095359,0.2,0.2,1.2000000000000002,9691,23,1,301,4,11
2022-05-24 06:50:08.031249920+01:00,-0.25,0.625,10.0,0.5,-0.25,-1.0,1,1,35.316271004298784,3,0.027063211372185845,0.033,1,1,1,1653371401.1624997,1,0,0,0,0,0,3,56.1417814891798,10.207577999999984,1,1,0.10000000000002274,-0.19999999999998863,10.7837729581868,0.2,0.2,1.2000000000000002,9691,23,1,301,4,11
2022-05-24 06:50:08.132250112+01:00,-0.25,0.625,10.125,0.5,-0.5,-1.0,1,1,35.32613813989868,3,0.025879097259537232,0.033,1,1,1,1653371401.2611759,1,0,0,0,0,0,3,56.14178178520833,10.207577999999984,1,1,0.10000000000002274,-0.19999999999998863,10.773905822586945,0.2,0.2,1.2000000000000002,9691,23,1,301,4,11
2022-05-24 06:50:08.234249984+01:00,-0.25,0.625,10.0,0.25,-0.25,-1.0,1,1,35.33610296991042,3,0.024683259244786142,0.033,1,1,1,1653371401.360829,1,0,0,0,0,0,3,56.141782084167836,10.207577999999984,1,1,0.10000000000002274,-0.19999999999998863,10.763940992575236,0.2,0.2,1.2000000000000002,9691,23,1,301,4,11
2022-05-24 06:50:08.336250112+01:00,-0.25,0.625,10.0,0.5,-0.5,-0.75,1,1,35.346067799922196,3,0.023487421230032387,0.033,1,1,1,1653371401.4604821,1,0,0,0,0,0,3,56.14178238312734,10.207577999999984,1,1,0.10000000000002274,-0.19999999999998863,10.753976162563504,0.2,0.2,1.2000000000000002,9691,23,1,301,4,11
2022-05-24 06:50:08.440300032+01:00,-0.25,0.625,10.125,0.5,-0.5,-1.0,1,1,35.3562329034783,3,0.02226754921596456,0.033,1,1,1,1653371401.562138,1,0,0,0,0,0,3,56.14178268809535,10.207577999999984,1,1,0.10000000000002274,-0.19999999999998863,10.743811059007434,0.2,0.2,1.2000000000000002,9691,23,1,301,4,11
2022-05-24 06:50:08.541299968+01:00,-0.25,0.625,10.0,0.5,-0.25,-1.0,1,1,35.36610003907819,3,0.021083435103315947,0.033,1,1,1,1653371401.6608143,1,0,0,0,0,0,3,56.14178298412388,10.207577999999984,1,1,0.10000000000002274,-0.19999999999998863,10.73394392340758,0.2,0.2,1.2000000000000002,9691,23,1,301,4,11
2022-05-24 06:50:08.643300096+01:00,-0.25,0.625,10.125,0.5,-0.5,-1.0,1,1,35.37606486908996,3,0.019887597088562192,0.033,1,1,1,1653371401.7604675,1,0,0,0,0,0,3,56.141783283083385,10.207577999999984,1,1,0.10000000000002274,-0.19999999999998863,10.72397909339585,0.2,0.2,1.2000000000000002,9691,23,1,301,4,11
2022-05-24 06:50:08.750299904+01:00,-0.25,0.625,10.0,0.5,-0.25,-1.0,1,1,35.386518171161114,3,0.018633139563282733,0.033,1,1,1,1653371401.8650057,1,0,0,0,0,0,3,56.14178359669776,10.207577999999984,1,1,0.10000000000002274,-0.19999999999998863,10.713525791324729,0.2,0.2,1.2000000000000002,9691,23,1,301,4,11
2022-05-24 06:50:08.850300160+01:00,-0.25,0.625,10.0,0.5,-0.5,-0.75,1,1,35.396287612349106,3,0.017460749352741924,0.033,1,1,1,1653371401.962705,1,0,0,0,0,0,3,56.14178388979532,10.207577999999984,1,1,0.10000000000002274,-0.19999999999998863,10.703756350136775,0.2,0.2,1.2000000000000002,9691,23,1,301,4,11
2022-05-24 06:50:08.887000064+01:00,-0.25,0.625,10.047786458333475,0.40442708333305083,-0.5,-0.75,1,1,35.39987299726511,3,0.01703048214547177,0.033,1,1,1,1653371401.9985604,1,0,0,0,0,0,3,56.141783997362126,10.207577999999984,1,1,0.10000000000002274,-0.19999999999998863,10.700170965220781,0.2,0.2,1.2000000000000002,9691,23,1,301,4,11
2022-05-24 06:50:08.887449856+01:00,-0.25,0.625,10.048372395833475,0.403255208333049,-0.5,-0.75,1,1,35.399916959750456,3,0.017025206389524324,0.033,1,1,1,1653371401.999,1,0,0,0,0,0,3,56.14178399868106,10.207577999999984,1,1,0.10000000000002274,-0.19999999999998863,10.700127002735435,0.2,0.2,1.2000000000000002,9691,23,1,301,4,11
2022-05-24 06:50:08.887900160+01:00,-0.25,0.625,10.048958333333477,0.40208333333304713,-0.5,-0.75,1,1,35.399960922235806,3,0.017019930633576874,0.033,1,1,1,1653371401.999448,1,0,0,0,0,0,3,56.141784,10.207577999999984,1,1,0.10000000000002274,-0.19999999999998863,10.700083040250089,0.2,0.2,1.2000000000000002,9691,23,1,301,4,11
2022-05-24 06:50:08.888300032+01:00,-0.25,0.625,10.049479166666679,0.401041666666642,-0.5,-0.75,1,1,35.400000000000546,3,0.017015241072735887,0.033,1,1,1,1653371401.9998462,1,0,0,0,0,0,3,56.14178400159283,10.207577999601776,1,1,0.10000000000002274,-0.19999999999998863,10.700043962485347,0.2,0.2,1.2000000000000002,9691,23,1,301,4,11
2022-05-24 06:50:08.888750080+01:00,-0.25,0.625,10.05006510416668,0.39986979166664016,-0.5,-0.75,1,1,35.40008960127488,3,0.017009965316788438,0.033,1,1,1,1653371402.0002942,1,0,0,0,0,0,3,56.14178400338477,10.207577999153791,1,1,0.10000000000002274,-0.19999999999998863,10.700000000000001,0.2,0.2,1.2000000000000002,9691,23,1,301,4,11
2022-05-24 06:50:08.889199872+01:00,-0.25,0.625,10.050651041666681,0.3986979166666383,-0.5,-0.75,1,1,35.400179202549204,3,0.01700468956084099,0.033,1,1,1,1653371402.0007422,1,0,0,0,0,0,3,56.1417840051767,10.207577998705808,1,1,0.10000000000002274,-0.19995519936282394,10.700000000000001,0.2,0.2,1.200044800637165,9691,23,1,301,4,11
2022-05-24 06:50:08.889600+01:00,-0.25,0.625,10.051171874999884,0.39765625000023314,-0.5,-0.75,1,1,35.40025884812636,3,0.017,0.033,1,1,1,1653371402.0011404,1,0,0,0,0,0,3,56.14178400676954,10.207577998307599,1,1,0.10000000000002274,-0.19991537657424316,10.700000000000001,0.2,0.2,1.2000846234257456,9691,23,1,301,4,11
2022-05-24 06:50:08.889900032+01:00,-0.25,0.625,10.051562500000081,0.39687499999983716,-0.5,-0.75,1,1,35.40031858230928,3,0.016998805316341674,0.033,1,1,1,1653371402.001439,1,0,0,0,0,0,3,56.14178400796416,10.207577998008944,1,1,0.10000000000002274,-0.19988550948278494,10.700000000000001,0.2,0.2,1.2001144905172039,9691,23,1,301,4,11
2022-05-24 06:50:08.946299904+01:00,-0.25,0.625,10.125,0.25,-0.5,-0.75,1,1,35.41154860869186,3,0.016774204788689993,0.033,1,1,1,1653371402.0575864,1,0,0,0,0,0,3,56.14178423255351,10.207577941861606,1,1,0.10000000000002274,-0.19427049629149204,10.700000000000001,0.2,0.2,1.2057295037084972,9691,23,1,301,4,11
2022-05-24 06:50:09.049350144+01:00,-0.25,0.625,10.0,0.5,-0.25,-0.75,1,1,35.432067300513225,3,0.016363830952262393,0.033,1,1,1,1653371402.1601748,1,0,0,0,0,0,3,56.14178464290692,10.207577839273254,1,1,0.10000000000002274,-0.1840111503808003,10.700000000000001,0.2,0.2,1.2159888496191893,9691,23,1,301,4,11
2022-05-24 06:50:09.150350080+01:00,-0.25,0.625,10.125,0.25,-0.5,-1.0,1,1,35.45217780875157,3,0.01596162078749521,0.033,1,1,1,1653371402.2607224,1,0,0,0,0,0,3,56.14178504509706,10.20757773872572,1,1,0.10000000000002274,-0.173955896261619,10.700000000000001,0.2,0.2,1.2260441037383711,9691,23,1,301,4,11
2022-05-24 06:50:09.251350016+01:00,-0.25,0.625,10.0,0.5,-0.5,-0.75,1,1,35.47228831698987,3,0.015559410622728934,0.033,1,1,1,1653371402.36127,1,0,0,0,0,0,3,56.141785447287205,10.207577638178183,1,1,0.10000000000002274,-0.16390064214246036,10.700000000000001,0.2,0.2,1.2360993578575306,9691,23,1,301,4,11
2022-05-24 06:50:09.352349952+01:00,-0.25,0.625,10.0,0.5,-0.5,-1.0,1,1,35.492398825228214,3,0.01515720045796175,0.033,1,1,1,1653371402.4618175,1,0,0,0,0,0,3,56.14178584947735,10.207577537630646,1,1,0.10000000000002274,-0.15384538802327907,10.700000000000001,0.2,0.2,1.2461546119767124,9691,23,1,301,4,11
2022-05-24 06:50:09.455399936+01:00,-0.25,0.625,10.0,0.5,-0.5,-0.75,1,1,35.51291751704958,3,0.01474682662153415,0.033,1,1,1,1653371402.5644057,1,0,0,0,0,0,3,56.14178625983076,10.207577435042294,1,1,0.10000000000002274,-0.14358604211258735,10.700000000000001,0.2,0.2,1.2564139578874045,9691,23,1,301,4,11
2022-05-24 06:50:09.556349952+01:00,-0.25,0.625,10.125,0.25,-0.5,-1.0,1,1,35.53301806959076,3,0.014344815570710323,0.033,1,1,1,1653371402.6649034,1,0,0,0,0,0,3,56.1417866618218,10.207577334544535,1,1,0.10000000000002274,-0.13353576584198995,10.700000000000001,0.2,0.2,1.2664642341580026,9691,23,1,301,4,11
2022-05-24 06:50:09.664349952+01:00,-0.25,0.625,10.0,0.5,-0.25,-1.0,1,1,35.55452237542975,3,0.013914729453930264,0.033,1,1,1,1653371402.7724197,1,0,0,0,0,0,3,56.141787091886506,10.207577227028358,1,1,0.10000000000002274,-0.12278361292248664,10.700000000000001,0.2,0.2,1.2772163870775064,9691,23,1,301,4,11
2022-05-24 06:50:09.765399808+01:00,-0.25,0.625,10.0,0.5,-0.5,-0.75,1,1,35.57464283936522,3,0.01351232017522063,0.033,1,1,1,1653371402.873017,1,0,0,0,0,0,3,56.14178749427575,10.207577126431046,1,1,0.10000000000002274,-0.11272338095474407,10.700000000000001,0.2,0.2,1.2872766190452496,9691,23,1,301,4,11
2022-05-24 06:50:09.869400064+01:00,-0.125,0.625,10.125,0.5,-0.5,-1.0,1,1,35.59535068943241,3,0.013098163173876498,0.033,1,1,1,1653371402.976551,1,0,0,0,0,0,3,56.141787908412134,10.20757702289695,1,1,0.10000000000002274,-0.10236945592113905,10.700000000000001,0.2,0.2,1.2976305440788551,9691,23,1,301,4,11
