timestamps,AccelerationX,AccelerationY,AccelerationZ,AngularRateX,AngularRateY,AngularRateZ,ImuValid,AltitudeValid,Altitude,AltitudeAccuracy,Speed,SpeedAccuracy,SpeedValid,TimeValid,TimeConfirmed,Epoch,FenceValid,FenceCombined,Fence1,Fence2,Fence3,Fence4,PositionAccuracy,Latitude,Longitude,PositionValid,AttitudeValid,Roll,Pitch,Heading,RollAccuracy,PitchAccuracy,HeadingAccuracy,DistanceTrip,DistanceAccuracy,DistanceValid,DistanceTotal,FixType,Satellites
,m/s^2,m/s^2,m/s^2,deg/s,deg/s,deg/s,,,m,m,m/s,m/s,,,,sec,,,,,,,m,deg,deg,,,deg,deg,deg,deg,deg,deg,m,m,,km,,
2022-05-24 06:44:59.194099968+01:00,-1.75,0.625,10.125,0.0,-0.75,-1.25,1,1,32.30000000000018,3,15.437000000000001,0.109,1,1,1,1653371093.0,1,0,0,0,0,0,5,56.129188,10.212369999999993,1,1,0.8000000000000114,-3.8999999999999915,28.0,0.2,0.2,0.30000000000000004,8192,20,1,299,4,14
2022-05-24 06:44:59.294150144+01:00,-1.625,0.5,9.875,0.5,-1.25,-1.25,1,1,32.30000000000018,3,15.437000000000001,0.109,1,1,1,1653371093.0,1,0,0,0,0,0,5,56.129188,10.212369999999993,1,1,0.8000000000000114,-3.8999999999999915,28.0,0.2,0.2,0.30000000000000004,8192,20,1,299,4,14
2022-05-24 06:44:59.397100032+01:00,-1.375,0.625,10.25,-1.0,-1.25,-1.25,1,1,32.30000000000018,3,15.437000000000001,0.109,1,1,1,1653371093.0,1,0,0,0,0,0,5,56.129188,10.212369999999993,1,1,0.8000000000000114,-3.8999999999999915,28.0,0.2,0.2,0.30000000000000004,8192,20,1,299,4,14
2022-05-24 06:44:59.499099904+01:00,-1.375,0.625,10.125,-0.5,-1.5,-1.25,1,1,32.30000000000018,3,15.437000000000001,0.109,1,1,1,1653371093.0,1,0,0,0,0,0,5,56.129188,10.212369999999993,1,1,0.8000000000000114,-3.8999999999999915,28.0,0.2,0.2,0.30000000000000004,8192,20,1,299,4,14
2022-05-24 06:44:59.601100032+01:00,-1.25,0.5,10.25,-0.75,-1.0,-1.25,1,1,32.30000000000018,3,15.437000000000001,0.109,1,1,1,1653371093.0,1,0,0,0,0,0,5,56.129188,10.212369999999993,1,1,0.8000000000000114,-3.8999999999999915,28.0,0.2,0.2,0.30000000000000004,8192,20,1,299,4,14
2022-05-24 06:44:59.709149952+01:00,-1.375,0.75,10.125,-1.25,-0.75,-1.75,1,1,32.30000000000018,3,15.437000000000001,0.109,1,1,1,1653371093.0,1,0,0,0,0,0,5,56.129188,10.212369999999993,1,1,0.8000000000000114,-3.8999999999999915,28.0,0.2,0.2,0.30000000000000004,8192,20,1,299,4,14
2022-05-24 06:44:59.811150080+01:00,-1.25,0.625,9.875,-0.75,-0.25,-1.75,1,1,32.30000000000018,3,15.437000000000001,0.109,1,1,1,1653371093.0,1,0,0,0,0,0,5,56.129188,10.212369999999993,1,1,0.8000000000000114,-3.8999999999999915,28.0,0.2,0.2,0.30000000000000004,8192,20,1,299,4,14
2022-05-24 06:44:59.865349888+01:00,-1.25,0.5536842105262875,9.946315789473713,-0.8926315789474251,-0.9631578947371255,-1.75,1,1,32.30000000000018,3,15.437000000000001,0.109,1,1,1,1653371093.0,1,0,0,0,0,0,5,56.129188,10.212369999999993,1,1,0.8000000000000114,-3.8999999999999915,28.0,0.2,0.2,0.30000000000000004,8192,20,1,299,4,14
2022-05-24 06:44:59.865750016+01:00,-1.25,0.5531578947367964,9.946842105263203,-0.8936842105264071,-0.9684210526320356,-1.75,1,1,32.30000000000018,3,15.437000000000001,0.109,1,1,1,1653371093.0,1,0,0,0,0,0,5,56.129188,10.212369999999993,1,1,0.8000000000000114,-3.8999999999999915,28.0,0.2,0.2,0.30000000000000004,8192,20,1,299,4,14
2022-05-24 06:44:59.866200064+01:00,-1.25,0.5525657894736378,9.947434210526362,-0.8948684210527245,-0.9743421052636224,-1.75,1,1,32.30000000000018,3,15.437000000000001,0.109,1,1,1,1653371093.000453,1,0,0,0,0,0,5,56.129188,10.212369999999993,1,1,0.8000000000000114,-3.8999999999999915,28.0,0.2,0.2,0.30000000000000004,8192,20,1,299,4,14
2022-05-24 06:44:59.866599936+01:00,-1.25,0.5520394736841467,9.947960526315853,-0.8959210526317065,-0.9796052631585325,-1.75,1,1,32.30000000000018,3,15.437000000000001,0.109,1,1,1,1653371093.0008554,1,0,0,0,0,0,5,56.12918804951442,10.21237004508629,1,1,0.8000000000000114,-3.8999999999999915,28.0,0.2,0.2,0.30000000000000004,8192,20,1,299,4,14
2022-05-24 06:44:59.867049984+01:00,-1.25,0.5514473684209881,9.948552631579012,-0.8971052631580239,-0.9855263157901193,-1.75,1,1,32.299592370791785,3,15.437000000000001,0.109,1,1,1,1653371093.0013084,1,0,0,0,0,0,5,56.129188105218134,10.212370095808376,1,1,0.8000000000000114,-3.8999999999999915,28.0,0.2,0.2,0.30000000000000004,8192,20,1,299,4,14
2022-05-24 06:44:59.867549952+01:00,-1.25,0.5507894736841618,9.949210526315838,-0.8984210526316766,-0.9921052631583829,-1.75,1,1,32.299139449449136,3,15.437000000000001,0.109,1,1,1,1653371093.0018115,1,0,0,0,0,0,5,56.12918816711115,10.21237015216625,1,1,0.7996477455716783,-3.899949677938801,28.000050322061192,0.2,0.2,0.30000000000000004,8192,20,1,299,4,14
2022-05-24 06:44:59.867899904+01:00,-1.25,0.5503289473683384,9.949671052631661,-0.8993421052633233,-0.9967105263166162,-1.75,1,1,32.29882240450925,3,15.437000000000001,0.109,1,1,1,1653371093.002164,1,0,0,0,0,0,5,56.12918821043627,10.21237019161676,1,1,0.7994011674718212,-3.899914452495964,28.00008554750403,0.2,0.2,0.30000000000000004,8192,20,1,299,4,14
2022-05-24 06:44:59.868199936+01:00,-1.25,0.5499342105263323,9.950065789473667,-0.9001315789473354,-1.0006578947366767,-1.75,1,1,32.29855065170373,3,15.436881944444476,0.1089987922705317,1,1,1,1653371093.0024657,1,0,0,0,0,0,5,56.12918824757208,10.212370225431483,1,1,0.7991898148148694,-3.899884259259257,28.000115740740736,0.2,0.2,0.30000000000000004,8192,20,1,299,4,14
2022-05-24 06:44:59.906150144+01:00,-1.25,0.5,10.0,-1.0,-1.5,-1.75,1,1,32.26417392179581,3,15.421947916666689,0.10884601449275383,1,1,1,1653371093.0406601,1,0,0,0,0,0,5,56.12919294525235,10.212374502994004,1,1,0.7724537037037426,-3.8960648148148103,28.00393518518518,0.2,0.2,0.30000000000000004,8192,20,1,299,4,14
2022-05-24 06:45:00.007149824+01:00,-1.375,0.375,10.25,0.0,-1.25,-1.5,1,1,32.1726838105785,3,15.38220254629632,0.1084394122383255,1,1,1,1653371093.1423109,1,0,0,0,0,0,5,56.129205447642526,10.212385887284247,1,1,0.7012983091787857,-3.885899758454103,28.01410024154589,0.2,0.2,0.30000000000000004,8192,20,1,299,4,14
2022-05-24 06:45:00.109200128+01:00,-1.375,0.375,9.875,0.25,-0.5,-1.0,1,1,32.080242564541535,3,15.342043981481474,0.10802858293075676,1,1,1,1653371093.245018,1,0,0,0,0,0,5,56.12921808000805,10.212397389926023,1,1,0.6294031803542574,-3.875629025764885,28.024370974235108,0.2,0.2,0.30000000000000004,8192,20,1,299,4,14
2022-05-24 06:45:00.210200064+01:00,-1.25,0.875,10.75,-0.5,1.0,-0.25,1,1,31.98875245332422,3,15.302298611111105,0.10762198067632843,1,1,1,1653371093.3466687,1,0,0,0,0,0,5,56.12923058239823,10.212408774216266,1,1,0.5582477858293005,-3.865463969404177,28.034536030595817,0.2,0.2,0.30000000000000004,8192,20,1,299,4,14
2022-05-24 06:45:00.311200+01:00,-1.375,0.5,10.25,1.75,0.25,0.0,1,1,31.89726234210691,3,15.262553240740736,0.1072153784219001,1,1,1,1653371093.4483192,1,0,0,0,0,0,5,56.129243084788406,10.212420158506509,1,1,0.48709239130434356,-3.855298913043469,28.044701086956525,0.2,0.2,0.30000000000000004,8192,20,1,299,4,14
2022-05-24 06:45:00.414200064+01:00,-1.375,0.875,10.25,2.25,-0.5,-0.25,1,1,31.803960545519,3,15.222020833333348,0.1068007246376813,1,1,1,1653371093.5519826,1,0,0,0,0,0,5,56.129255834750666,10.212431768228242,1,1,0.41452797906605454,-3.844932568438,28.055067431561994,0.2,0.2,0.30000000000000004,8192,20,1,299,4,14
2022-05-24 06:45:00.516200192+01:00,-1.0,1.125,9.875,-1.75,-0.5,-0.5,1,1,31.71156459161639,3,15.18188194444447,0.10639009661835773,1,1,1,1653371093.6546397,1,0,0,0,0,0,5,56.12926846092689,10.212443265234231,1,1,0.34266807568443153,-3.8346668679549114,28.065333132045083,0.2,0.2,0.30000000000000004,8192,20,1,299,4,14
2022-05-24 06:45:00.621200128+01:00,-1.125,0.625,9.875,0.0,0.25,-1.5,1,1,31.61645110965778,3,15.14056250000002,0.105967391304348,1,1,1,1653371093.7603161,1,0,0,0,0,0,5,56.12928145846123,10.212455100387455,1,1,0.26869464573273016,-3.8240992351046685,28.075900764895326,0.2,0.2,0.30000000000000004,8192,20,1,299,4,14
2022-05-24 06:45:00.722249984+01:00,-1.25,0.5,9.375,-0.5,0.5,-2.25,1,1,31.524915706306217,3,15.100797453703729,0.10556058776167496,1,1,1,1653371093.862017,1,0,0,0,0,0,5,56.12929396704071,10.212466490313485,1,1,0.19750402576494808,-3.813929146537843,28.086070853462154,0.2,0.2,0.30000000000000004,8192,20,1,299,4,14
2022-05-24 06:45:00.823200+01:00,-1.25,0.125,9.75,-0.75,-1.75,-2.25,1,1,31.43347088722316,3,15.06107175925928,0.10515418679549134,1,1,1,1653371093.963617,1,0,0,0,0,0,5,56.12930646324158,10.212477868967941,1,1,0.1263838566828165,-3.8037691223832533,28.096230877616744,0.2,0.2,0.30000000000000004,8192,20,1,299,4,14
2022-05-24 06:45:00.858949888+01:00,-1.295576236613955,0.125,10.02345741968373,-0.20308516063253979,-1.2942376338604498,-1.97654258031627,1,1,31.401087011222966,3,15.04700347222224,0.10501026570048326,1,1,1,1653371093.9995973,1,0,0,0,0,0,5,56.12931088859256,10.212481898555824,1,1,0.10119766505640304,-3.8001710950080514,28.09982890499195,0.2,0.2,0.30000000000000004,8192,20,1,299,4,13
2022-05-24 06:45:00.859350016+01:00,-1.296086180520142,0.125,10.026517083120853,-0.19696583375829635,-1.2891381947985803,-1.9734829168791481,1,1,31.400724674148826,3,15.046846064814828,0.10500865539452507,1,1,1,1653371094.0,1,0,0,0,0,0,5,56.12931093810698,10.212481943642121,1,1,0.10091586151372067,-3.800130837359097,28.099869162640903,0.2,0.2,0.30000000000000004,8192,20,1,299,4,13
2022-05-24 06:45:00.859849984+01:00,-1.2967236104028395,0.125,10.030341662417037,-0.18931667516592687,-1.2827638959716057,-1.9696583375829635,1,1,31.400271752806177,3,15.046649305555572,0.10500664251207745,1,1,1,1653371094.000499,1,0,0,0,0,0,5,56.129311,10.212481999999994,1,1,0.10056360708538759,-3.8000805152979065,28.09991948470209,0.2,0.2,0.30000000000000004,8192,20,1,299,4,13
2022-05-24 06:45:00.860150016+01:00,-1.297106068332516,0.125,10.032636409995096,-0.18472718000980948,-1.2789393166748413,-1.9673635900049047,1,1,31.400000000000546,3,15.046531250000003,0.1050054347826087,1,1,1,1653371094.0007982,1,0,0,0,0,0,5,56.12931103562697,10.212482033531256,1,1,0.10035225442835571,-3.8000503220611876,28.09994967793881,0.2,0.2,0.30000000000000004,8192,20,1,299,4,13
2022-05-24 06:45:00.860649984+01:00,-1.2977434982152134,0.125,10.03646098929128,-0.1770780214174401,-1.2725650178478667,-1.96353901070872,1,1,31.39960083824025,3,15.046334490740747,0.10500342190016108,1,1,1,1653371094.0012972,1,0,0,0,0,0,5,56.12931109500524,10.21248208941669,1,1,0.10000000000002274,-3.799999999999997,28.1,0.2,0.2,0.30000000000000004,8192,20,1,299,4,13
2022-05-24 06:45:00.861149952+01:00,-1.2983809280979108,0.125,10.040285568587464,-0.16942886282507064,-1.266190719020892,-1.9597144314125354,1,1,31.399201676479958,3,15.046137731481492,0.10500140901771346,1,1,1,1653371094.0017962,1,0,0,0,0,0,5,56.129311154383515,10.212482145302126,1,1,0.09965073345976552,-3.7998503143398867,28.10034926654026,0.2,0.2,0.30000000000000004,8207,20,1,299,4,13
2022-05-24 06:45:00.861499904+01:00,-1.2988271290158424,0.125,10.042962774095056,-0.16407445180989022,-1.2617287098415753,-1.957037225904945,1,1,31.398922263247723,3,15.046000000000001,0.105,1,1,1,1653371094.0021455,1,0,0,0,0,0,5,56.129311195948304,10.21248218442193,1,1,0.09940624688156165,-3.7997455343777995,28.100593753118464,0.2,0.2,0.30000000000000004,8207,20,1,299,4,13
2022-05-24 06:45:00.861799936+01:00,-1.299209586945374,0.125,10.045257521672244,-0.1594849566555121,-1.2579041305462602,-1.954742478327756,1,1,31.3986827661916,3,15.04589911186511,0.10499880251471938,1,1,1,1653371094.002445,1,0,0,0,0,0,5,56.12931123157527,10.212482217953191,1,1,0.09919668695745497,-3.799655722981754,28.10080331304257,0.2,0.2,0.30000000000000004,8207,20,1,299,4,13
2022-05-24 06:45:00.921250048+01:00,-1.375,0.125,10.5,0.75,-0.5,-1.5,1,1,31.35122243289145,3,15.025906446462425,0.10476150084821868,1,1,1,1653371094.0617702,1,0,0,0,0,0,5,56.12931829165211,10.212488862731394,1,1,0.057668895319831506,-3.7818580979942014,28.142331104680192,0.2,0.2,0.30000000000000004,8207,20,1,299,4,13
2022-05-24 06:45:01.024250112+01:00,-1.25,0.375,9.875,-0.5,0.0,-1.5,1,1,31.268995110268975,3,14.991268186807714,0.1043503642351064,1,1,1,1653371094.1645544,1,0,0,0,0,0,5,56.12933052357667,10.212500375130976,1,1,-0.01428001197482294,-3.751022852010779,28.214280011974843,0.2,0.2,0.30000000000000004,8207,20,1,299,4,13
2022-05-24 06:45:01.128249856+01:00,-1.25,0.5,9.75,1.25,-1.5,-1.5,1,1,31.185969464125815,3,14.956293633369917,0.1039352360043907,1,1,1,1653371094.2683365,1,0,0,0,0,0,5,56.129342874257766,10.212511999301427,1,1,-0.08692745235007124,-3.7198882347071023,28.286927452350092,0.2,0.2,0.30000000000000004,8207,20,1,299,4,13
2022-05-24 06:45:01.227250176+01:00,-1.375,0.25,10.375,-0.75,-0.75,-1.75,1,1,31.10693543558578,3,14.923000548847433,0.10354006586169061,1,1,1,1653371094.367129,1,0,0,0,0,0,5,56.129354631156126,10.212523064617528,1,1,-0.15608222732258853,-3.6902504740045963,28.356082227322606,0.2,0.2,0.30000000000000004,8207,20,1,299,4,13
2022-05-24 06:45:01.330300160+01:00,-1.125,0.25,10.125,0.0,-2.5,-1.5,1,1,31.02466819678719,3,14.888345474503536,0.10312872966769775,1,1,1,1653371094.469963,1,0,0,0,0,0,5,56.129366869018504,10.212534582605654,1,1,-0.22806606127134021,-3.6594002594551323,28.428066061271355,0.2,0.2,0.30000000000000004,8207,20,1,299,4,13
2022-05-24 06:45:01.430249984+01:00,-1.25,0.625,10.75,-0.75,-1.75,-1.5,1,1,30.944875760902587,3,14.854732910887154,0.10272976748827482,1,1,1,1653371094.5697036,1,0,0,0,0,0,5,56.12937873873558,10.212545754104081,1,1,-0.29788444267035413,-3.629478095998413,28.49788444267037,0.2,0.2,0.30000000000000004,8207,20,1,299,4,13
2022-05-24 06:45:01.532300032+01:00,-1.25,0.375,10.125,0.25,0.5,-1.5,1,1,30.863406845624585,3,14.820414130326304,0.10232242291188491,1,1,1,1653371094.6715398,1,0,0,0,0,0,5,56.129390857841415,10.212557160321337,1,1,-0.36916974353859133,-3.5989272527691694,28.569169743538602,0.2,0.2,0.30000000000000004,8207,20,1,299,4,13
2022-05-24 06:45:01.637299968+01:00,-1.25,0.375,9.5,-0.5,0.25,-1.5,1,1,30.779582875960838,3,14.785103283105459,0.10190330306356628,1,1,1,1653371094.7763197,1,0,0,0,0,0,5,56.129403327279064,10.212568896262656,1,1,-0.4425157169943541,-3.567493264145272,28.642515716994364,0.2,0.2,0.30000000000000004,8207,20,1,299,4,13
2022-05-24 06:45:01.737299968+01:00,-1.125,0.5,9.5,-0.75,0.0,-1.25,1,1,30.699750523900214,3,14.751473904799928,0.10150414130326325,1,1,1,1653371094.87611,1,0,0,0,0,0,5,56.12941520293397,10.21258007334963,1,1,-0.5123690250473858,-3.5375561321225453,28.712369025047394,0.2,0.2,0.30000000000000004,8207,20,1,299,4,13
2022-05-24 06:45:01.842299904+01:00,-1.25,0.375,10.125,-1.25,-1.25,-2.25,1,1,30.615926554236466,3,14.716163057579083,0.10108502145494462,1,1,1,1653371094.98089,1,0,0,0,0,0,5,56.12942767237163,10.212591809290949,1,1,-0.5857149985031486,-3.506122143498648,28.785714998503156,0.2,0.2,0.30000000000000004,8207,20,1,299,4,13
2022-05-24 06:45:01.860999936+01:00,-1.25,0.30348036715934545,10.101160122386448,-1.011601223864485,-1.345359510454206,-2.297679755227103,1,1,30.600997904401055,3,14.709874363835915,0.10101037820576755,1,1,1,1653371094.999551,1,0,0,0,0,0,5,56.12942989311909,10.212593899406214,1,1,-0.5987775671091338,-3.5005238998103687,28.79877756710914,0.2,0.2,0.30000000000000004,8207,20,1,299,4,14
2022-05-24 06:45:01.861449984+01:00,-1.25,0.3017593064760189,10.100586435492007,-1.005864354920063,-1.3476542580319748,-2.2988271290159874,1,1,30.60063865881678,3,14.70972303163354,0.10100858197784619,1,1,1,1653371095.0,1,0,0,0,0,0,5,56.12942994655954,10.212593949703104,1,1,-0.5990919069953732,-3.5003891827162663,28.79909190699538,0.2,0.2,0.30000000000000004,8207,20,1,299,4,14
2022-05-24 06:45:01.861900032+01:00,-1.25,0.3000382457926923,10.100012748597564,-1.0001274859756408,-1.3499490056097436,-2.2999745028048717,1,1,30.600279413232506,3,14.709571699431166,0.10100678574992482,1,1,1,1653371095.0004373,1,0,0,0,0,0,4,56.129429999999985,10.212593999999996,1,1,-0.5994062468816127,-3.5002544656221635,28.79940624688162,0.2,0.2,0.30000000000000004,8207,20,1,299,4,14
2022-05-24 06:45:01.862249984+01:00,-1.25,0.29869964303933194,10.099566547679776,-0.9956654767977733,-1.3517338092808906,-2.3008669046404453,1,1,30.600000000000364,3,14.709453996607126,0.10100538868376412,1,1,1,1653371095.0007775,1,0,0,0,0,0,4,56.12943003945193,10.212594037411327,1,1,-0.5996507334597371,-3.5001496856601104,28.799650733459742,0.2,0.2,0.30000000000000004,8207,20,1,299,4,14
2022-05-24 06:45:01.862749952+01:00,-1.25,0.29678735339123963,10.09892911779708,-0.9892911779707987,-1.3542835288116806,-2.30214176440584,1,1,30.59965989699775,3,14.709285849715602,0.10100339287496264,1,1,1,1653371095.0012631,1,0,0,0,0,0,4,56.12943009581186,10.212594090856083,1,1,-0.5999999999999943,-3.5,28.8,0.2,0.2,0.30000000000000004,8207,20,1,299,4,14
2022-05-24 06:45:01.863200+01:00,-1.25,0.295066292707913,10.098355430902638,-0.9835543090263767,-1.3565782763894494,-2.3032891381947245,1,1,30.599353804295387,3,14.709134517513226,0.10100159664704127,1,1,1,1653371095.0017004,1,0,0,0,0,0,4,56.129430146535796,10.212594138956366,1,1,-0.6003935668820706,-3.5003498372285122,28.800568485496335,0.2,0.2,0.30000000000000004,8221,20,1,299,4,14
2022-05-24 06:45:01.863600128+01:00,-1.25,0.29353646098935215,10.097845486996452,-0.9784548699645073,-1.358618052014197,-2.3043090260070986,1,1,30.599081721893278,3,14.709,0.101,1,1,1,1653371095.0020893,1,0,0,0,0,0,4,56.12943019162373,10.212594181712172,1,1,-0.6007434041105939,-3.5006608036538664,28.801073805937534,0.2,0.2,0.30000000000000004,8221,20,1,299,4,14
2022-05-24 06:45:01.863899904+01:00,-1.25,0.2923890872003228,10.097463029066775,-0.9746302906677426,-1.3601478837329029,-2.3050739418664516,1,1,30.598877660091677,3,14.70887202409871,0.10099854241570286,1,1,1,1653371095.0023806,1,0,0,0,0,0,4,56.12943022543969,10.212594213779026,1,1,-0.6010057820320113,-3.5008940284729038,28.80145279626847,0.2,0.2,0.30000000000000004,8221,20,1,299,4,14
2022-05-24 06:45:01.940349952+01:00,-1.25,0.0,10.0,0.0,-1.75,-2.5,1,1,30.546875910990526,3,14.676259498590978,0.10062710135069453,1,1,1,1653371095.076669,1,0,0,0,0,0,4,56.129438842872396,10.212602385482457,1,1,-0.6678684223313303,-3.5603274865167425,28.898032165589708,0.2,0.2,0.30000000000000004,8221,20,1,299,4,14
2022-05-24 06:45:02.040349952+01:00,-1.125,0.0,11.0,-1.75,-0.5,-2.5,1,1,30.478855310465804,3,14.63360086483332,0.10014123991837495,1,1,1,1653371095.1738412,1,0,0,0,0,0,4,56.12945011485763,10.212613074433968,1,1,-0.755327729459276,-3.6380690928526933,29.02436227588563,0.2,0.2,0.30000000000000004,8221,20,1,299,4,14
2022-05-24 06:45:02.139350016+01:00,-1.25,-0.125,10.5,-0.25,1.5,-2.0,1,1,30.411514915946388,3,14.591368817413276,0.09966023710037901,1,1,1,1653371095.2700417,1,0,0,0,0,0,4,56.12946127412301,10.212623656495964,1,1,-0.8419124435158636,-3.715033283125215,29.149429085078477,0.2,0.2,0.30000000000000004,8221,20,1,299,4,14
2022-05-24 06:45:02.242350080+01:00,-1.25,0.125,9.5,-0.25,3.0,-2.0,1,1,30.341453697405896,3,14.54743042464287,0.09915979982508964,1,1,1,1653371095.3701293,1,0,0,0,0,0,4,56.1294728842678,10.212634666116022,1,1,-0.9319955298576845,-3.7951071376512773,29.27954909868333,0.2,0.2,0.30000000000000004,8221,20,1,299,4,14
2022-05-24 06:45:02.346350080+01:00,-1.375,-0.125,9.0,-1.25,2.25,-2.5,1,1,30.270712272860248,3,14.503065445534945,0.09865450393547776,1,1,1,1653371095.4711883,1,0,0,0,0,0,4,56.12948460713244,10.212645782625595,1,1,-1.0229532092706646,-3.8759584082405922,29.410932413390967,0.2,0.2,0.30000000000000004,8221,20,1,299,4,14
2022-05-24 06:45:02.447400192+01:00,-1.625,0.0,8.625,1.5,-0.25,-2.5,1,1,30.20197745603004,3,14.459958896122847,0.098163540958119,1,1,1,1653371095.569381,1,0,0,0,0,0,4,56.12949599747352,10.212656583811096,1,1,-1.1113308391234218,-3.954516301443042,29.538588989844946,0.2,0.2,0.30000000000000004,8221,20,1,299,4,14
2022-05-24 06:45:02.547399936+01:00,-1.875,-0.125,9.875,0.75,0.25,-2.25,1,1,30.133956855505318,3,14.417300262365188,0.09767767952579942,1,1,1,1653371095.6665533,1,0,0,0,0,0,4,56.12950726945875,10.212667272762609,1,1,-1.1987901462513673,-4.032257907778993,29.664919100140867,0.2,0.2,0.30000000000000004,8221,20,1,299,4,14
2022-05-24 06:45:02.655399936+01:00,-1.875,-0.25,10.0,2.25,-0.25,-2.0,1,1,30.060494606938594,3,14.371228937906903,0.09715294917889411,1,1,1,1653371095.7714994,1,0,0,0,0,0,4,56.129519443202796,10.212678816830241,1,1,-1.2932461979495806,-4.116218842621849,29.80135561926051,0.2,0.2,0.30000000000000004,8221,20,1,299,4,14
2022-05-24 06:45:02.755399936+01:00,-1.75,0.125,9.5,2.5,1.75,-2.0,1,1,29.99247400641395,3,14.328570304149292,0.09666708774657509,1,1,1,1653371095.8686717,1,0,0,0,0,0,4,56.12953071518803,10.212689505781752,1,1,-1.3807055050774268,-4.193960448957711,29.927685729556284,0.2,0.2,0.30000000000000004,8221,20,1,299,4,14
2022-05-24 06:45:02.861399808+01:00,-1.875,0.0,9.625,2.75,-0.5,-2.0,1,1,29.920372169857764,3,14.283352152366186,0.09615207462831649,1,1,1,1653371095.9716742,1,0,0,0,0,0,4,56.12954266349237,10.212700836070354,1,1,-1.4734123706330235,-4.276366551673796,30.061595646469925,0.2,0.2,0.30000000000000004,8221,20,1,299,4,14
2022-05-24 06:45:02.890150144+01:00,-1.7960164835163281,0.0394917582418359,9.901442307692852,2.2760989010979693,-0.6579670329673436,-2.078983516483672,1,1,29.90081624720687,3,14.271087795160838,0.09601238946652435,1,1,1,1653371095.9996114,1,0,0,0,0,0,4,56.12954590418813,10.212703909143915,1,1,-1.4985569214323538,-4.298717263495423,30.09791555318007,0.2,0.2,0.30000000000000004,8221,20,1,299,4,14
2022-05-24 06:45:02.890550016+01:00,-1.7949175824173906,0.040041208791304635,9.905288461539133,2.2695054945043442,-0.6601648351652185,-2.0800824175826094,1,1,29.90054416480476,3,14.270917160625801,0.096010446020795,1,1,1,1653371096.0,1,0,0,0,0,0,4,56.12954594927607,10.212703951899721,1,1,-1.498906758660877,-4.2990282299207765,30.09842087362127,0.2,0.2,0.30000000000000004,8221,20,1,299,4,14
2022-05-24 06:45:02.891000064+01:00,-1.7936813186811251,0.04065934065943745,9.909615384616062,2.2620879120867508,-0.6626373626377497,-2.081318681318875,1,1,29.9002380721024,3,14.270725196773892,0.09600825964434957,1,1,1,1653371096.0004506,1,0,0,0,0,0,4,56.129546000000005,10.212704000000002,1,1,-1.4993003255429533,-4.299378067149289,30.0989893591176,0.2,0.2,0.30000000000000004,8221,20,1,299,4,14
2022-05-24 06:45:02.891350016+01:00,-1.7927197802195158,0.04114010989024212,9.912980769231694,2.2563186813170946,-0.6645604395609684,-2.0822802197804844,1,1,29.900000000000546,3,14.270575891555728,0.09600655912933632,1,1,1,1653371096.0008008,1,0,0,0,0,0,4,56.12954603749406,10.21270403907091,1,1,-1.4996064331179237,-4.299650162771485,30.09943151450367,0.2,0.2,0.30000000000000004,8221,20,1,299,4,14
2022-05-24 06:45:02.891799808+01:00,-1.79148351648325,0.04175824175837493,9.917307692308624,2.248901098899501,-0.6670329670334997,-2.0835164835167497,1,1,29.899617050034333,3,14.270383927703818,0.09600437275289088,1,1,1,1653371096.0012515,1,0,0,0,0,0,4,56.1295460857007,10.212704089304935,1,1,-1.5,-4.299999999999997,30.1,0.2,0.2,0.30000000000000004,8221,20,1,299,4,14
2022-05-24 06:45:02.892299776+01:00,-1.7901098901096564,0.04244505494517181,9.922115384616202,2.2406593406579383,-0.6697802197806872,-2.0848901098903436,1,1,29.89919155007189,3,14.270170634535036,0.09600194344572935,1,1,1,1653371096.0017521,1,0,0,0,0,0,4,56.12954613926364,10.212704145120519,1,1,-1.4993242059419978,-4.299874852952219,30.100150176457337,0.2,0.2,0.30000000000000004,8236,20,1,299,4,14
2022-05-24 06:45:02.892699904+01:00,-1.7890109890107189,0.04299450549464055,9.925961538462484,2.234065934064313,-0.6719780219785623,-2.085989010989281,1,1,29.898851150101912,3,14.27,0.096,1,1,1,1653371096.0021527,1,0,0,0,0,0,4,56.12954618211399,10.212704189772985,1,1,-1.4987835706955652,-4.29977473531399,30.10027031762321,0.2,0.2,0.30000000000000004,8236,20,1,299,4,14
2022-05-24 06:45:02.892950016+01:00,-1.7883241758240782,0.043337912087960916,9.928365384615727,2.2299450549444693,-0.6733516483518437,-2.086675824175922,1,1,29.89863840012074,3,14.269882108530265,0.09599962454945944,1,1,1,1653371096.0024028,1,0,0,0,0,0,4,56.129546208895455,10.212704217680777,1,1,-1.498445673666641,-4.299712161790116,30.100345405851858,0.2,0.2,0.30000000000000004,8236,20,1,299,4,14
2022-05-24 06:45:02.952399872+01:00,-1.625,0.125,10.5,1.25,-1.0,-2.25,1,1,29.84804645458476,3,14.241847517020467,0.0959103424108932,1,1,1,1653371096.0619242,1,0,0,0,0,0,4,56.1295525775286,10.212710854153633,1,1,-1.418093760168317,-4.284832177808945,30.118201386629263,0.2,0.2,0.30000000000000004,8236,20,1,299,4,14
2022-05-24 06:45:03.057449984+01:00,-1.75,0.0,11.125,4.0,-1.25,-2.0,1,1,29.758648912472783,3,14.192309521425749,0.09575257809371258,1,1,1,1653371096.1671004,1,0,0,0,0,0,4,56.12956383110155,10.212722581007684,1,1,-1.276109428578684,-4.258538783070124,30.14975346031585,0.2,0.2,0.30000000000000004,8236,20,1,299,4,14
2022-05-24 06:45:03.160450048+01:00,-1.75,0.25,10.5,1.0,0.0,-2.0,1,1,29.670995920206817,3,14.143738235883065,0.09559789247096517,1,1,1,1653371096.2702243,1,0,0,0,0,0,4,56.12957486506646,10.212734079017846,1,1,-1.1368958526268451,-4.232758491227191,30.18068981052737,0.2,0.2,0.30000000000000004,8236,20,1,299,4,14
2022-05-24 06:45:03.259449856+01:00,-1.5,0.25,9.125,1.75,0.75,-2.0,1,1,29.586746927640615,3,14.097053213856663,0.09544921405686836,1,1,1,1653371096.3693433,1,0,0,0,0,0,4,56.12958547052788,10.21274513050334,1,1,-1.003088629139331,-4.2079793757665405,30.21042474908015,0.2,0.2,0.30000000000000004,8236,20,1,299,4,14
2022-05-24 06:45:03.361499904+01:00,-1.625,0.375,9.75,2.5,-0.25,-2.0,1,1,29.499902385303308,3,14.048929915899075,0.0952959551461754,1,1,1,1653371096.471516,1,0,0,0,0,0,4,56.1295964027232,10.212756522463891,1,1,-0.8651590618977115,-4.182436863314389,30.24107576402273,0.2,0.2,0.30000000000000004,8236,20,1,299,4,14
2022-05-24 06:45:03.460450048+01:00,-1.375,0.125,9.5,1.75,-2.75,-1.75,1,1,29.41569594273334,3,14.002268472166621,0.0951473518221867,1,1,1,1653371096.5705848,1,0,0,0,0,0,4,56.12960700282833,10.212767568367829,1,1,-0.7314194178159824,-4.157670262558513,30.270795684929784,0.2,0.2,0.30000000000000004,8236,20,1,299,4,14
2022-05-24 06:45:03.566450176+01:00,-1.375,0.5,10.0,1.5,-2.25,-1.25,1,1,29.325489950692702,3,13.952282488986805,0.09498816079295161,1,1,1,1653371096.676712,1,0,0,0,0,0,4,56.12961835817086,10.212779401271488,1,1,-0.5881510775161299,-4.131139088428911,30.302633093885305,0.2,0.2,0.30000000000000004,8236,20,1,299,4,14
2022-05-24 06:45:03.670449920+01:00,-1.125,0.625,10.375,4.0,-1.5,-1.5,1,1,29.23698595850185,3,13.903239637565077,0.09483197336804165,1,1,1,1653371096.780837,1,0,0,0,0,0,4,56.12962949926164,10.212791010912817,1,1,-0.44758591344828647,-4.105108502490422,30.33386979701149,0.2,0.2,0.30000000000000004,8236,20,1,299,4,14
2022-05-24 06:45:03.771500032+01:00,-1.375,0.375,10.625,0.0,-0.5,-1.75,1,1,29.150992416089533,3,13.855587905486587,0.09468021625951142,1,1,1,1653371096.8820083,1,0,0,0,0,0,4,56.12964032433109,10.212802291242202,1,1,-0.3110079343228249,-4.079816284133855,30.364220459039373,0.2,0.2,0.30000000000000004,8236,20,1,299,4,14
2022-05-24 06:45:03.876499968+01:00,-1.625,0.375,10.75,4.75,1.5,-0.75,1,1,29.061637423973785,3,13.806073488185817,0.09452252703243891,1,1,1,1653371096.9871345,1,0,0,0,0,0,4,56.12965157254775,10.212814012514695,1,1,-0.1690911821389769,-4.053535404099809,30.395757515080227,0.2,0.2,0.30000000000000004,8236,20,1,299,4,14
2022-05-24 06:45:03.971500032+01:00,-1.25,0.5,9.625,1.25,-1.5,-1.25,1,1,28.980792431107147,3,13.76127472967559,0.09437985582699232,1,1,1,1653371097.0822487,1,0,0,0,0,0,4,56.12966174950567,10.212824617475524,1,1,-0.040690311115480826,-4.029757465021384,30.42429104197434,0.2,0.2,0.30000000000000004,8236,20,1,299,4,14
2022-05-24 06:45:04.071549952+01:00,-1.25,0.625,10.5,1.0,-1.75,-0.75,1,1,28.89564988861982,3,13.714094563476197,0.09422960052062483,1,1,1,1653371097.1824188,1,0,0,0,0,0,4,56.12967246744926,10.212835786173743,1,1,0.0945360798938224,-4.004715540760403,30.454341351087518,0.2,0.2,0.30000000000000004,8236,20,1,299,4,14
2022-05-24 06:45:04.173500160+01:00,-1.25,0.75,10.75,2.5,-2.0,-0.5,1,1,28.808890446274983,3,13.666018422106504,0.0940764917901481,1,1,1,1653371097.2844913,1,0,0,0,0,0,4,56.129683388932,10.212847166971178,1,1,0.23233048832387238,-3.9791980577178006,30.48496233073864,0.2,0.2,0.30000000000000004,8236,20,1,299,4,14
2022-05-24 06:45:04.274550016+01:00,-1.375,0.625,9.875,2.25,0.75,-0.5,1,1,28.722896903862665,3,13.618366690028013,0.09392473468161788,1,1,1,1653371097.3856628,1,0,0,0,0,0,4,56.129694214001454,10.212858447300565,1,1,0.3689084674493337,-3.9539058393612336,30.515312992766518,0.2,0.2,0.30000000000000004,8236,20,1,299,4,14
2022-05-24 06:45:04.376549888+01:00,-1.25,0.75,9.75,2.25,0.25,0.75,1,1,28.636094911521692,3,13.570266970364427,0.09377155086103321,1,1,1,1653371097.4877853,1,0,0,0,0,0,4,56.12970514084049,10.212869833679559,1,1,0.5067704552850145,-3.9283758416138856,30.545948990063337,0.2,0.2,0.30000000000000004,8236,20,1,299,4,14
2022-05-24 06:45:04.477550080+01:00,-1.25,1.125,9.375,1.5,-0.75,1.5,1,1,28.550143919105608,3,13.522638816579883,0.0936198688426111,1,1,1,1653371097.5889068,1,0,0,0,0,0,4,56.12971596055365,10.212881108427386,1,1,0.6432808550046913,-3.903096137962094,30.576284634445486,0.2,0.2,0.30000000000000004,8236,20,1,299,4,14
2022-05-24 06:45:04.581549824+01:00,-1.625,1.5,10.125,1.25,-2.25,2.25,1,1,28.46163992691485,3,13.47359596515821,0.09346368141770131,1,1,1,1653371097.6930315,1,0,0,0,0,0,4,56.129727101644434,10.212892718068714,1,1,0.783846019072381,-3.877065552023633,30.60752133757164,0.2,0.2,0.30000000000000004,8236,20,1,299,4,14
2022-05-24 06:45:04.689600+01:00,-1.625,1.75,10.375,1.75,-4.0,2.75,1,1,28.3696893850281,3,13.422643271926306,0.09330141169403283,1,1,1,1653371097.8012114,1,0,0,0,0,0,4,56.129738676595004,10.212904779816265,1,1,0.929885115010181,-3.8500212749981144,30.63997447000226,0.2,0.2,0.30000000000000004,8236,20,1,299,4,14
2022-05-24 06:45:04.787549952+01:00,-1.75,1.625,11.125,0.75,-2.75,3.25,1,1,28.28633394238302,3,13.376453394072895,0.09315431017220667,1,1,1,1653371097.899279,1,0,0,0,0,0,4,56.129749169574254,10.212915714089036,1,1,1.0622731709759057,-3.8255049683377953,30.669394037994646,0.2,0.2,0.30000000000000004,8236,20,1,299,4,14
2022-05-24 06:45:04.887749888+01:00,-1.5202888583217251,1.8547111416782749,10.550722145804313,0.2905777166434503,-1.6014442916086258,4.1688445667130996,1,1,28.201063749906794,3,13.329202492991556,0.09300382959551451,1,1,1,1653371097.9995995,1,0,0,0,0,0,4,56.12975990358672,10.21292689953193,1,1,1.197702300202871,-3.8004254999624316,30.69948940004508,0.2,0.2,0.30000000000000004,8236,20,1,299,4,14
2022-05-24 06:45:04.888150016+01:00,-1.5193718477763343,1.8556281522236657,10.548429619440835,0.2887436955526685,-1.5968592388816714,4.172512608894663,1,1,28.200723349936915,3,13.329013866639981,0.09300322887464962,1,1,1,1653371098.0,1,0,0,0,0,0,4,56.12975994643707,10.212926944184396,1,1,1.1982429354491497,-3.800325382324232,30.699609541210922,0.2,0.2,0.30000000000000004,8236,20,1,299,4,14
2022-05-24 06:45:04.888649984+01:00,-1.5182255845940744,1.8567744154059256,10.545563961485186,0.2864511691881488,-1.591127922970372,4.177097661623702,1,1,28.200297849974373,3,13.328778083700406,0.09300247797356817,1,1,1,1653371098.0004938,1,0,0,0,0,0,4,56.129760000000005,10.21292699999998,1,1,1.1989187295073056,-3.8002002352764253,30.69975971766829,0.2,0.2,0.30000000000000004,8236,20,1,299,4,14
2022-05-24 06:45:04.888999936+01:00,-1.5174232003668573,1.8575767996331427,10.543558000917143,0.28484640073371476,-1.587116001834287,4.180307198532571,1,1,28.200000000000728,3,13.328613035642778,0.09300195234281139,1,1,1,1653371098.0008395,1,0,0,0,0,0,4,56.129760034908415,10.212927035254015,1,1,1.1993917853477996,-3.8001126323430006,30.6998648411884,0.2,0.2,0.30000000000000004,8236,20,1,299,4,14
2022-05-24 06:45:04.889449984+01:00,-1.516391563503032,1.858608436496968,10.54097890875758,0.282783127006064,-1.58195781751516,4.184433745987872,1,1,28.199733359668908,3,13.328400830997202,0.09300127653183822,1,1,1,1653371098.0012836,1,0,0,0,0,0,4,56.12976007979065,10.212927080580634,1,1,1.200000000000017,-3.799999999999997,30.700000000000003,0.2,0.2,0.30000000000000004,8236,20,1,299,4,14
2022-05-24 06:45:04.889900032+01:00,-1.5153599266392066,1.8596400733607934,10.538399816598016,0.28071985327841326,-1.5767996331960332,4.188560293443174,1,1,28.19946671933709,3,13.328188626351627,0.09300060072086505,1,1,1,1653371098.001728,1,0,0,0,0,0,4,56.12976012467289,10.212927125907251,1,1,1.1997778106947286,-3.7996000592504777,30.69711153903125,0.2,0.2,0.30000000000000004,8263,20,1,299,4,14
2022-05-24 06:45:04.890300160+01:00,-1.514442916093555,1.860557083906445,10.536107290233888,0.27888583218711027,-1.5722145804677758,4.19222833562578,1,1,28.199229705708795,3,13.328,0.093,1,1,1,1653371098.002123,1,0,0,0,0,0,4,56.12976016456822,10.212927166197579,1,1,1.1995803090900214,-3.799244556362005,30.69454401817006,0.2,0.2,0.30000000000000004,8263,20,1,299,4,14
2022-05-24 06:45:04.890550016+01:00,-1.5138697845024252,1.8611302154975748,10.534674461256063,0.2777395690048504,-1.5693489225121262,4.194520861990299,1,1,28.19908157219109,3,13.327833851775011,0.09300395003209481,1,1,1,1653371098.00237,1,0,0,0,0,0,4,56.1297601895028,10.212927191379034,1,1,1.1994568705870585,-3.7990223670566716,30.69293931763154,0.2,0.2,0.30000000000000004,8263,20,1,299,4,14
2022-05-24 06:45:04.896600064+01:00,-1.5,1.875,10.5,0.25,-1.5,4.25,1,1,28.195496741063323,3,13.323813064731144,0.09309954080876923,1,1,1,1653371098.0083444,1,0,0,0,0,0,4,56.12976079291957,10.212927800770235,1,1,1.196469658815983,-3.793645385868736,30.654105564607562,0.2,0.2,0.30000000000000004,8263,20,1,299,4,14
2022-05-24 06:45:04.988600064+01:00,-1.375,1.875,10.25,-0.25,-0.5,5.25,1,1,28.140983606558063,3,13.262670517947962,0.09455315261936494,1,1,1,1653371098.0991952,1,0,0,0,0,0,4,56.12976996884413,10.212937067545528,1,1,1.1510442897348672,-3.711879721522727,30.063575766553054,0.2,0.2,0.30000000000000004,8263,20,1,299,4,14
2022-05-24 06:45:05.087599872+01:00,-1.375,1.875,9.75,1.75,2.25,5.75,1,1,28.082322733557806,3,13.196875820866017,0.09611736532859393,1,1,1,1653371098.1969585,1,0,0,0,0,0,4,56.129779842936856,10.212947039401548,1,1,1.1021626425714615,-3.623892756628596,29.428114353428782,0.2,0.2,0.30000000000000004,8263,20,1,299,4,14
2022-05-24 06:45:05.190650112+01:00,-1.375,2.625,9.875,-4.5,-4.5,7.0,1,1,28.021262097571235,3,13.128389522539885,0.09774556855774419,1,1,1,1653371098.298721,1,0,0,0,0,0,4,56.12979012096974,10.212957419197135,1,1,1.0512812916605156,-3.532306324988893,28.766656791586485,0.2,0.2,0.30000000000000004,8263,20,1,299,4,14
2022-05-24 06:45:05.291650048+01:00,-1.5,2.25,11.5,-1.75,-2.5,7.75,1,1,27.961416156429586,3,13.061265639658338,0.0993413815237245,1,1,1,1653371098.3984594,1,0,0,0,0,0,4,56.12980019453909,10.212967592504793,1,1,1.0014121364736306,-3.4425418456524994,28.11835777415698,0.2,0.2,0.30000000000000004,8263,20,1,299,4,14
2022-05-24 06:45:05.394649856+01:00,-1.375,2.75,11.75,-2.5,2.25,7.75,1,1,27.900385147146476,3,12.992812570977112,0.10096879474645797,1,1,1,1653371098.5001729,1,0,0,0,0,0,4,56.12981046758505,10.212977967264088,1,1,0.9505554732632102,-3.350999851873742,27.457221152421514,0.2,0.2,0.30000000000000004,8263,20,1,299,4,14
2022-05-24 06:45:05.495650048+01:00,-1.25,2.875,8.75,-0.5,3.75,8.25,1,1,27.840539206004827,3,12.925688688095565,0.10256460771243828,1,1,1,1653371098.5999112,1,0,0,0,0,0,4,56.1298205411544,10.212988140571746,1,1,0.9006863180763252,-3.261235372537348,26.808922134992006,0.2,0.2,0.30000000000000004,8263,20,1,299,4,14
2022-05-24 06:45:05.594650112+01:00,-1.25,2.375,9.125,0.5,1.75,9.0,1,1,27.781878333004634,3,12.859893991013697,0.10412882042166548,1,1,1,1653371098.6976745,1,0,0,0,0,0,4,56.12983041524713,10.212998112427767,1,1,0.8518046709129755,-3.1732484076433183,26.173460721868462,0.2,0.2,0.30000000000000004,8263,20,1,299,4,14
2022-05-24 06:45:05.703650048+01:00,-1.25,3.0,8.75,1.25,-2.0,9.5,1,1,27.717292119297287,3,12.787453364933587,0.10585103441465474,1,1,1,1653371098.8053129,1,0,0,0,0,0,4,56.12984128672296,10.213009091541972,1,1,0.7979854836320608,-3.0763738705376715,25.47381128721657,0.2,0.2,0.30000000000000004,8263,20,1,299,4,14
2022-05-24 06:45:05.804649984+01:00,-1.25,3.0,10.125,1.75,-2.25,10.0,1,1,27.657446178155638,3,12.720329482052039,0.10744684738063506,1,1,1,1653371098.905051,1,0,0,0,0,0,4,56.12985136029231,10.21301926484963,1,1,0.7481163284451757,-2.9866093912012777,24.825512269787065,0.2,0.2,0.30000000000000004,8263,20,1,299,4,14
2022-05-24 06:45:05.900399872+01:00,-1.1360119047618455,3.227976190476309,10.694940476190773,0.6101190476184546,-2.022023809523691,10.227976190476308,1,1,27.600711040885173,3,12.656694711894488,0.10895970967264222,1,1,1,1653371098.999605,1,0,0,0,0,0,4,56.12986091023553,10.213028909346741,1,1,0.7008393818199521,-2.9015108872758746,24.210911963659157,0.2,0.2,0.30000000000000004,8263,20,1,299,4,15
2022-05-24 06:45:05.900800+01:00,-1.1355357142857747,3.2289285714284506,10.697321428571128,0.605357142857746,-2.0210714285715494,10.228928571428451,1,1,27.600474027256947,3,12.656428874734628,0.10896602972399105,1,1,1,1653371099.0,1,0,0,0,0,0,4,56.12986095013085,10.213028949637069,1,1,0.7006418802153012,-2.901155384387503,24.208344442798694,0.2,0.2,0.30000000000000004,8263,20,1,299,4,15
2022-05-24 06:45:05.901299968+01:00,-1.1349404761904154,3.2301190476191692,10.700297619047923,0.5994047619041534,-2.0198809523808308,10.23011904761917,1,1,27.60017776022153,3,12.65609657828465,0.10897392978818068,1,1,1,1653371099.000515,1,0,0,0,0,0,4,56.129861000000005,10.213028999999977,1,1,0.7003950032093751,-2.900711005776836,24.205135041721658,0.2,0.2,0.30000000000000004,8263,20,1,299,4,15
2022-05-24 06:45:05.901600+01:00,-1.1345833333333621,3.2308333333332757,10.702083333333189,0.5958333333336221,-2.0191666666667243,10.230833333333276,1,1,27.600000000000364,3,12.655897200414756,0.1089786698266923,1,1,1,1653371099.0008242,1,0,0,0,0,0,4,56.129861032140106,10.213029020396577,1,1,0.700246877005887,-2.9004443786105574,24.20320940107631,0.2,0.2,0.30000000000000004,8263,20,1,299,4,15
2022-05-24 06:45:05.902099968+01:00,-1.1339880952381383,3.2320238095237235,10.70505952380931,0.5898809523813828,-2.0179761904762765,10.232023809523723,1,1,27.59979398434318,3,12.655564903964855,0.10898656989088014,1,1,1,1653371099.0013392,1,0,0,0,0,0,4,56.129861085706935,10.213029054390912,1,1,0.700000000000017,-2.8999999999999915,24.200000000000003,0.2,0.2,0.30000000000000004,8263,20,1,299,4,15
2022-05-24 06:45:05.902599936+01:00,-1.1333928571429144,3.2332142857141712,10.708035714285428,0.5839285714291438,-2.0167857142858288,10.23321428571417,1,1,27.599587968685995,3,12.655232607514954,0.10899446995506798,1,1,1,1653371099.0018542,1,0,0,0,0,0,4,56.129861139273764,10.213029088385246,1,1,0.70061807880505,-2.899690960597475,24.193664692248415,0.2,0.2,0.30000000000000004,8276,20,1,299,4,15
2022-05-24 06:45:05.902950144+01:00,-1.132976190476217,3.234047619047566,10.710119047618916,0.5797619047621703,-2.015952380952434,10.234047619047566,1,1,27.59944375772595,3,12.655000000000001,0.109,1,1,1,1653371099.0022147,1,0,0,0,0,0,4,56.12986117677055,10.21302911218128,1,1,0.7010507339686153,-2.8994746330156924,24.18922997682187,0.2,0.2,0.30000000000000004,8276,20,1,299,4,15
2022-05-24 06:45:05.903249920+01:00,-1.1326190476190285,3.234761904761943,10.711904761904858,0.5761904761902854,-2.015238095238057,10.234761904761942,1,1,27.59932014833162,3,12.654853515323186,0.10900309039402563,1,1,1,1653371099.002524,1,0,0,0,0,0,4,56.12986120891064,10.213029132577882,1,1,0.7014215812516913,-2.8992892093741545,24.18542879217034,0.2,0.2,0.30000000000000004,8276,20,1,299,4,15
2022-05-24 06:45:05.909650176+01:00,-1.125,3.25,10.75,0.5,-2.0,10.25,1,1,27.5966831479196,3,12.651728508884872,0.10906901879989722,1,1,1,1653371099.0091166,1,0,0,0,0,0,4,56.12986189456606,10.21302956770536,1,1,0.709332989956282,-2.895333505021859,24.104336852948286,0.2,0.2,0.30000000000000004,8276,20,1,299,4,15
2022-05-24 06:45:06.001699840+01:00,-1.25,3.0,10.5,1.5,-0.25,11.0,1,1,27.558755665430976,3,12.606782127221228,0.11001725469997413,1,1,1,1653371099.1039402,1,0,0,0,0,0,4,56.12987175621942,10.2130358260623,1,1,0.8231212979655098,-2.838439351017245,22.93800669585369,0.2,0.2,0.30000000000000004,8276,20,1,299,4,15
2022-05-24 06:45:06.105700096+01:00,-1.125,3.375,10.25,0.5,1.0,12.0,1,1,27.515904408735494,3,12.556000772598496,0.11108859129539041,1,1,1,1653371099.2110739,1,0,0,0,0,0,4,56.129882898120016,10.213042896883831,1,1,0.9516816894154614,-2.7741591552922693,21.620262683491674,0.2,0.2,0.30000000000000004,8276,20,1,299,4,15
2022-05-24 06:45:06.206749952+01:00,-1.125,3.625,9.125,2.25,-0.25,13.0,1,1,27.47426864441745,3,12.506659850630955,0.1121295390162246,1,1,1,1653371099.3151686,1,0,0,0,0,0,4,56.12989372397631,10.21304976713879,1,1,1.0765954159155637,-2.7117022920422182,20.33989698686561,0.2,0.2,0.30000000000000004,8276,20,1,299,4,15
2022-05-24 06:45:06.306749952+01:00,-0.875,4.0,9.25,2.5,0.0,13.75,1,1,27.433065512979493,3,12.457831625032183,0.11315967035797084,1,1,1,1653371099.418182,1,0,0,0,0,0,4,56.12990443734226,10.213056566005644,1,1,1.200211176925111,-2.6498944115374448,19.072835436517742,0.2,0.2,0.30000000000000004,8276,20,1,299,4,15
2022-05-24 06:45:06.409750016+01:00,-1.0,4.0,9.5,0.5,-1.25,13.25,1,1,27.390626287598423,3,12.407538552665484,0.11422070563996872,1,1,1,1653371099.5242853,1,0,0,0,0,0,4,56.1299154721092,10.213063568838507,1,1,1.327535410764856,-2.586232294617572,17.76776203966034,0.2,0.2,0.30000000000000004,8276,20,1,299,4,15
2022-05-24 06:45:06.511699968+01:00,-0.875,4.0,10.375,1.25,-2.75,12.75,1,1,27.348619695097437,3,12.357758176667554,0.11527092454287866,1,1,1,1653371099.6293073,1,0,0,0,0,0,4,56.129926394385784,10.213070500283266,1,1,1.453561679114046,-2.5232191604429772,16.475992789081133,0.2,0.2,0.30000000000000004,8276,20,1,299,4,15
2022-05-24 06:45:06.614749952+01:00,-0.75,3.875,10.125,0.75,-1.0,12.5,1,1,27.30615986815061,3,12.307440690188004,0.11633247489054846,1,1,1,1653371099.7354622,1,0,0,0,0,0,4,56.1299374345094,10.21307750651556,1,1,1.5809477208344207,-2.4595261395827897,15.170285861447278,0.2,0.2,0.30000000000000004,8276,20,1,299,4,15
2022-05-24 06:45:06.716749824+01:00,-0.375,3.5,10.5,-0.5,-1.25,12.25,1,1,27.26413267408391,3,12.25763590007728,0.11738320885912912,1,1,1,1653371099.8405356,1,0,0,0,0,0,4,56.12994836214267,10.213084441359754,1,1,1.7070357970641,-2.3964821014679503,13.877883080093055,0.2,0.2,0.30000000000000004,8276,20,1,299,4,15
2022-05-24 06:45:06.821750016+01:00,-0.5,3.75,10.125,-0.25,0.0,12.0,1,1,27.220869386074057,3,12.206366263198573,0.11846484676796262,1,1,1,1653371099.9486995,1,0,0,0,0,0,4,56.12995961117692,10.213091580169953,1,1,1.8368323461241174,-2.3315838269379414,12.54746845222786,0.2,0.2,0.30000000000000004,8276,20,1,299,4,15
2022-05-24 06:45:06.871099904+01:00,-0.37019989479222426,3.6201998947922243,9.930299842188337,1.1778011572855336,-1.0384008416622061,11.870199894792224,1,1,27.200535640709425,3,12.182269533865583,0.11897321658511431,1,1,1,1653371099.9995365,1,0,0,0,0,0,4,56.12996489822302,10.213094935410746,1,1,1.89783672418232,-2.30108163790884,11.922173577131279,0.2,0.2,0.30000000000000004,8276,20,1,299,4,15
2022-05-24 06:45:06.871550208+01:00,-0.36901630720674117,3.619016307206741,9.928524460810111,1.1908206207258474,-1.0478695423460707,11.869016307206742,1,1,27.200350226617957,3,12.182049806850388,0.11897785217615217,1,1,1,1653371100.0,1,0,0,0,0,0,4,56.12996494643317,10.213094966005647,1,1,1.8983929951068639,-2.300803502446568,11.916471800154705,0.2,0.2,0.30000000000000004,8276,20,1,299,4,15
2022-05-24 06:45:06.872049920+01:00,-0.367701209889571,3.617701209889571,9.926551814834356,1.205286691214719,-1.058390320883432,11.867701209889571,1,1,27.200144210960772,3,12.1818056657224,0.11898300283286078,1,1,1,1653371100.0004988,1,0,0,0,0,0,4,56.129965,10.213094999999981,1,1,1.8990110739118968,-2.3004944630440516,11.910136492403117,0.2,0.2,0.30000000000000004,8276,20,1,299,4,15
2022-05-24 06:45:06.872400128+01:00,-0.36678064176746217,3.616780641767462,9.925170962651194,1.2154129405579162,-1.0657548658603027,11.866780641767463,1,1,27.200000000000728,3,12.181634766932792,0.11898660829255717,1,1,1,1653371100.0008478,1,0,0,0,0,0,4,56.12996503875698,10.213095007681545,1,1,1.899443729075462,-2.300278135462269,11.905701776976573,0.2,0.2,0.30000000000000004,8276,20,1,299,4,15
2022-05-24 06:45:06.872849920+01:00,-0.36559705418197913,3.615597054181979,9.923395581272969,1.22843240399823,-1.075223566544167,11.865597054181979,1,1,27.19991021548357,3,12.181415039917598,0.11899124388359503,1,1,1,1653371100.0012968,1,0,0,0,0,0,4,56.12996508858739,10.213095017557842,1,1,1.9000000000000057,-2.299999999999997,11.9,0.2,0.2,0.30000000000000004,8276,20,1,299,4,15
2022-05-24 06:45:06.873349888+01:00,-0.3642819568648089,3.614281956864809,9.921422935297214,1.2428984744871017,-1.0857443450815285,11.86428195686481,1,1,27.19981045490895,3,12.18117089878961,0.11899639454030363,1,1,1,1653371100.0017955,1,0,0,0,0,0,4,56.12996514395451,10.213095028531505,1,1,1.9004489225857892,-2.2996508379888323,11.894164006384814,0.2,0.2,0.30000000000000004,8288,20,1,300,4,15
2022-05-24 06:45:06.873699840+01:00,-0.36336138874270013,3.6133613887427,9.92004208311405,1.2530247238302987,-1.093108890058399,11.8633613887427,1,1,27.19974062250671,3,12.181000000000001,0.11900000000000001,1,1,1,1653371100.0021448,1,0,0,0,0,0,4,56.129965182711494,10.21309503621307,1,1,1.9007631683958683,-2.299406424580993,11.890078810853787,0.2,0.2,0.30000000000000004,8288,20,1,300,4,15
2022-05-24 06:45:06.874000128+01:00,-0.3625723303525774,3.6125723303525774,9.918858495528866,1.2617043661216485,-1.0994213571793805,11.862572330352577,1,1,27.19968076616195,3,12.181081400568587,0.11899970073320373,1,1,1,1653371100.002444,1,0,0,0,0,0,4,56.12996521593176,10.213095042797267,1,1,1.901032521947277,-2.2991969273743416,11.886577214685472,0.2,0.2,0.30000000000000004,8288,20,1,300,4,15
2022-05-24 06:45:06.916800+01:00,-0.25,3.5,9.75,2.5,-2.0,11.75,1,1,27.19114126097436,3,12.192694548356522,0.11895700533692456,1,1,1,1653371100.0451393,1,0,0,0,0,0,4,56.12996995535714,10.213095982142839,1,1,1.9394602952913038,-2.2693086592178764,11.387016161213127,0.2,0.2,0.30000000000000004,8288,20,1,300,4,15
2022-05-24 06:45:07.019800064+01:00,-0.125,3.5,10.0,1.25,-0.5,11.75,1,1,27.170590582602387,3,12.22064207691155,0.11885425707017813,1,1,1,1653371100.1478877,1,0,0,0,0,0,4,56.129981360983635,10.213098242717459,1,1,2.031938347964848,-2.1973812849162315,10.184801476457064,0.2,0.2,0.30000000000000004,8288,20,1,300,4,15
2022-05-24 06:45:07.121799936+01:00,-0.125,3.75,9.75,2.75,0.25,11.25,1,1,27.15023942537965,3,12.248318270237895,0.11875250635941952,1,1,1,1653371100.2496383,1,0,0,0,0,0,4,56.129992655875895,10.213100481344755,1,1,2.1235185554668248,-2.1261522346369164,8.994258778931373,0.2,0.2,0.30000000000000004,8288,20,1,300,4,15
2022-05-24 06:45:07.221800192+01:00,0.0,3.75,10.125,1.25,0.25,10.75,1,1,27.13028731045539,3,12.275451793106875,0.1186527507606365,1,1,1,1653371100.349394,1,0,0,0,0,0,4,56.13000372929968,10.213102676077396,1,1,2.2133030726256675,-2.0563198324022607,7.827060055866423,0.2,0.2,0.30000000000000004,8288,20,1,300,4,15
2022-05-24 06:45:07.320849920+01:00,0.0,3.5,10.0,0.5,0.0,10.25,1,1,27.11052474062291,3,12.3023275475086,0.11855394284004192,1,1,1,1653371100.448202,1,0,0,0,0,0,4,56.13001469752594,10.213104849960077,1,1,2.3022346368715114,-1.9871508379888267,6.670949720670458,0.2,0.2,0.30000000000000004,8288,20,1,300,4,15
2022-05-24 06:45:07.426800128+01:00,0.0,3.625,10.625,-1.0,-1.25,9.0,1,1,27.08938547486066,3,12.331075514988278,0.11844825178313134,1,1,1,1653371100.5538929,1,0,0,0,0,0,4,56.130026429818436,10.213107175279312,1,1,2.39736133280129,-1.9131634078212212,5.434302673583342,0.2,0.2,0.30000000000000004,8288,20,1,300,4,15
2022-05-24 06:45:07.525799936+01:00,0.25,3.125,9.875,-1.0,-0.75,7.75,1,1,27.06963288108566,3,12.357937702628542,0.11834949374033625,1,1,1,1653371100.652651,1,0,0,0,0,0,4,56.13003739250798,10.213109348064627,1,1,2.486248004788464,-1.8440293296089751,4.27877593775009,0.2,0.2,0.30000000000000004,8288,20,1,300,4,15
2022-05-24 06:45:07.635849984+01:00,0.0,3.25,10.75,-0.5,-0.25,6.75,1,1,27.047675578611518,3,12.387798144545847,0.11823971270387557,1,1,1,1653371100.762432,1,0,0,0,0,0,4,56.130049578810855,10.2131117633679,1,1,2.585055865921749,-1.7671787709497535,2.9942737430173914,0.2,0.2,0.30000000000000004,8288,20,1,300,4,15
2022-05-24 06:45:07.734850048+01:00,0.125,2.625,9.75,-1.5,-1.5,5.5,1,1,27.027922984836493,3,12.414660332186141,0.11814095466108036,1,1,1,1653371100.86119,1,0,0,0,0,0,4,56.1300605415004,10.213113936153215,1,1,2.673942537909025,-1.698044692737428,1.8387470071828123,0.2,0.2,0.30000000000000004,8288,20,1,300,4,15
2022-05-24 06:45:07.837850112+01:00,0.125,2.375,10.5,-2.75,-0.75,4.75,1,1,27.00737230646452,3,12.44260786074117,0.11803820639433395,1,1,1,1653371100.9639382,1,0,0,0,0,0,4,56.1300719471269,10.213116196727835,1,1,2.7664205905825687,-1.6261173184357829,0.6365323224267492,0.2,0.2,0.30000000000000004,8288,20,1,300,4,15
2022-05-24 06:45:07.873549824+01:00,0.125,2.32752659574468,10.452526595744681,-2.1803191489361624,-0.8449468085106395,4.560106382978721,1,1,27.00024940143656,3,12.452294528405398,0.1180025936455684,1,1,1,1653371100.999551,1,0,0,0,0,0,4,56.130075900339186,10.213116980247388,1,1,2.798473663208286,-1.601187150838003,0.2198423782924266,0.2,0.2,0.30000000000000004,8288,20,1,300,4,15
2022-05-24 06:45:07.874000128+01:00,0.125,2.3269281914893605,10.45192819148936,-2.173138297872325,-0.8461436170212792,4.557712765957442,1,1,27.0001596169194,3,12.452416629258309,0.11800214474537388,1,1,1,1653371101.0,1,0,0,0,0,0,4,56.1300759501696,10.213116990123686,1,1,2.7988776935355015,-1.6008729050279462,0.21458998403862672,0.2,0.2,0.30000000000000004,8288,20,1,300,4,15
2022-05-24 06:45:07.874449920+01:00,0.125,2.3263297872340405,10.451329787234041,-2.1659574468084877,-0.8473404255319188,4.555319148936163,1,1,27.00006983240224,3,12.45253873011122,0.11800169584517935,1,1,1,1653371101.0004544,1,0,0,0,0,0,4,56.130076,10.213116999999983,1,1,2.799281723862717,-1.60055865921789,0.20933758978482686,0.2,0.2,0.30000000000000004,8288,20,1,300,4,15
2022-05-24 06:45:07.874799872+01:00,0.125,2.3258643617020915,10.450864361702092,-2.1603723404250994,-0.8482712765958167,4.553457446808366,1,1,27.0,3,12.452633697441268,0.11800134670058358,1,1,1,1653371101.000808,1,0,0,0,0,0,4,56.130076039945465,10.213116997171985,1,1,2.799595969672796,-1.6003142458100506,0.20525239425379915,0.2,0.2,0.30000000000000004,8288,20,1,300,4,15
2022-05-24 06:45:07.875250176+01:00,0.125,2.325265957446772,10.450265957446772,-2.1531914893612623,-0.8494680851064563,4.551063829787087,1,1,26.99986364325034,3,12.452755798294179,0.11800089780038905,1,1,1,1653371101.0012627,1,0,0,0,0,0,4,56.13007609130391,10.213116993535989,1,1,2.8000000000000114,-1.5999999999999943,0.2,0.2,0.2,0.30000000000000004,8288,20,1,300,4,15
2022-05-24 06:45:07.875750144+01:00,0.125,2.3246010638297667,10.449601063829766,-2.1452127659572,-0.8507978723404667,4.548404255319067,1,1,26.999712135750723,3,12.45289146590852,0.11800039902239515,1,1,1,1653371101.0017676,1,0,0,0,0,0,4,56.13007614836886,10.213116989495994,1,1,2.7991415008585308,-1.599798000201999,0.3794768205189384,0.2,0.2,0.30000000000000004,8301,20,1,300,4,15
2022-05-24 06:45:07.876150016+01:00,0.125,2.3240691489361325,10.449069148936132,-2.138829787233587,-0.8518617021277355,4.546276595744529,1,1,26.999590929751022,3,12.453,0.11800000000000001,1,1,1,1653371101.0021715,1,0,0,0,0,0,4,56.13007619402081,10.213116986263996,1,1,2.798454701545307,-1.5996364003635934,0.5230582769422507,0.2,0.2,0.30000000000000004,8301,20,1,300,4,15
2022-05-24 06:45:07.876399872+01:00,0.125,2.323736702127554,10.448736702127555,-2.134840425530649,-0.8525265957448919,4.5449468085102165,1,1,26.999515176001196,3,12.45315201252465,0.11800126256249711,1,1,1,1653371101.002424,1,0,0,0,0,0,4,56.13007622255328,10.213116984243998,1,1,2.7980254519744694,-1.5995354004645728,0.612796687222124,0.2,0.2,0.30000000000000004,8301,20,1,300,4,15
2022-05-24 06:45:07.931849984+01:00,0.125,2.25,10.375,-1.25,-1.0,4.25,1,1,26.98271299429326,3,12.486868390485329,0.11828129892429677,1,1,1,1653371101.0584314,1,0,0,0,0,0,4,56.13008255105545,10.213116536208448,1,1,2.7028178971821077,-1.5771336228663695,20.516776083225356,0.2,0.2,0.30000000000000004,8301,20,1,300,4,15
2022-05-24 06:45:08.034899968+01:00,0.375,2.125,10.0,-1.0,-0.5,4.25,1,1,26.951487298621416,3,12.549527953133644,0.11880172718549539,1,1,1,1653371101.162517,1,0,0,0,0,0,4,56.13009431214019,10.213115703565283,1,1,2.5258812241188835,-1.5355014644985512,57.50694879303144,0.2,0.2,0.30000000000000004,8301,20,1,300,4,15
2022-05-24 06:45:08.135899904+01:00,0.25,2.0,10.375,-2.0,-1.25,3.75,1,1,26.92088278369797,3,12.610941013080181,0.11931180243422078,1,1,1,1653371101.264532,1,0,0,0,0,0,4,56.13010583925866,10.2131148874861,1,1,2.352464397535515,-1.4946975053024636,93.76126653875477,0.2,0.2,0.30000000000000004,8301,20,1,300,4,15
2022-05-24 06:45:08.236900096+01:00,0.0,1.875,10.0,-2.25,-0.5,3.25,1,1,26.890278268774555,3,12.672354073026646,0.11982187768294558,1,1,1,1653371101.366547,1,0,0,0,0,0,4,56.130117366377135,10.213114071406919,1,1,2.1790475709523416,-1.4538935461064217,130.01558428443727,0.2,0.2,0.30000000000000004,8301,20,1,300,4,15
2022-05-24 06:45:08.337900032+01:00,0.125,1.875,10.25,-2.25,0.25,2.25,1,1,26.85967375385114,3,12.733767132973114,0.12033195293167039,1,1,1,1653371101.4685621,1,0,0,0,0,0,4,56.13012889349561,10.213113255327738,1,1,2.005630744369168,-1.4130895869103801,166.2699020301198,0.2,0.2,0.30000000000000004,8301,20,1,300,4,15
2022-05-24 06:45:08.440900096+01:00,0.25,1.375,9.375,-0.75,-0.25,1.25,1,1,26.828463208929257,3,12.796396293116512,0.12085212868036971,1,1,1,1653371101.5725973,1,0,0,0,0,0,4,56.130140648873855,10.213112423088571,1,1,1.8287799212200722,-1.3714776285223569,203.24212705787806,0.2,0.2,0.30000000000000004,8301,20,1,300,4,15
2022-05-24 06:45:08.541949952+01:00,0.375,1.125,10.0,-1.25,-0.5,0.75,1,1,26.797843543255883,3,12.857839755567896,0.12136245644159382,1,1,1,1653371101.6746628,1,0,0,0,0,0,4,56.13015218169882,10.21311160660539,1,1,1.6552772447227702,-1.3306534693465202,239.5143924856084,0.2,0.2,0.30000000000000004,8301,20,1,300,4,15
2022-05-24 06:45:08.646949888+01:00,0.25,1.125,10.0,0.5,-0.5,1.0,1,1,26.766026968335495,3,12.921685015908293,0.12189273269026822,1,1,1,1653371101.780718,1,0,0,0,0,0,4,56.130164165336836,10.21311075820624,1,1,1.474992425007557,-1.2882335117664692,277.2045247954832,0.2,0.2,0.30000000000000004,8301,20,1,300,4,15
2022-05-24 06:45:08.749949952+01:00,0.0,1.25,10.25,1.25,0.0,1.0,1,1,26.734816423413612,3,12.984314176051692,0.12241290843896754,1,1,1,1653371101.8847532,1,0,0,0,0,0,4,56.13017592071508,10.213109925967075,1,1,1.2981416018584613,-1.2466215533784457,314.1767498232415,0.2,0.2,0.30000000000000004,8301,20,1,300,4,15
2022-05-24 06:45:08.854949888+01:00,0.125,1.25,10.0,-1.25,-0.25,1.0,1,1,26.702999848493224,3,13.04815943639209,0.12294318468764194,1,1,1,1653371101.9908085,1,0,0,0,0,0,4,56.1301879043531,10.213109077567925,1,1,1.1178567821432481,-1.2042015957983947,351.86688213311635,0.2,0.2,0.30000000000000004,8301,20,1,300,4,15
2022-05-24 06:45:08.863650048+01:00,0.14789473684203597,1.238552631578982,9.954210526315928,-0.9752631578955683,-0.3415789473681439,1.0,1,1,26.70036361799983,3,13.05344947224885,0.12298712186253198,1,1,1,1653371101.9995959,1,0,0,0,0,0,4,56.130188897283105,10.213109007271996,1,1,1.1029188970811739,-1.2006867993132007,354.98977881021113,0.2,0.2,0.30000000000000004,8301,20,1,300,4,15
2022-05-24 06:45:08.864049920+01:00,0.148947368421018,1.238026315789491,9.952105263157964,-0.9626315789477842,-0.345789473684072,1.0,1,1,26.70024241200013,3,13.053692692288251,0.122989141962527,1,1,1,1653371102.0,1,0,0,0,0,0,4,56.13018894293506,10.21310900404,1,1,1.1022320977679503,-1.2005251994747952,355.13336026663444,0.2,0.2,0.30000000000000004,8301,20,1,300,4,15
2022-05-24 06:45:08.864550144+01:00,0.1502631578946707,1.2373684210526645,9.949473684210659,-0.9468421052639515,-0.3510526315786828,1.0,1,1,26.700090904500513,3,13.053996717337483,0.12299166708752063,1,1,1,1653371102.0004961,1,0,0,0,0,0,4,56.130189,10.213109000000003,1,1,1.1013735986264699,-1.2003231996767996,355.3128370871534,0.2,0.2,0.30000000000000004,8301,20,1,300,4,15
2022-05-24 06:45:08.864849920+01:00,0.15105263157898202,1.236973684210509,9.947894736842036,-0.937368421052216,-0.35421052631592803,1.0,1,1,26.700000000000728,3,13.05417913236705,0.12299318216251703,1,1,1,1653371102.000794,1,0,0,0,0,0,4,56.13018903543424,10.213108994044667,1,1,1.1008584991415034,-1.200201999797984,355.4205231794811,0.2,0.2,0.30000000000000004,8301,20,1,300,4,15
2022-05-24 06:45:08.865349888+01:00,0.15236842105263473,1.2363157894736827,9.94526315789473,-0.9215789473683833,-0.35947368421053894,1.0,1,1,26.699900749343193,3,13.054483157416284,0.12299570728751066,1,1,1,1653371102.0012903,1,0,0,0,0,0,4,56.130189094491314,10.21310898411911,1,1,1.1000000000000227,-1.1999999999999886,355.6,0.2,0.2,0.30000000000000004,8301,20,1,300,4,15
2022-05-24 06:45:08.865849856+01:00,0.15368421052628745,1.2356578947368562,9.942631578947426,-0.9057894736845507,-0.3647368421051498,1.0,1,1,26.69980149868566,3,13.054787182465516,0.1229982324125043,1,1,1,1653371102.0017865,1,0,0,0,0,0,4,56.130189153548386,10.21310897419355,1,1,1.100198511166271,-1.1999007444168643,355.5991563275435,0.2,0.2,0.30000000000000004,8314,20,1,300,4,15
2022-05-24 06:45:08.866200064+01:00,0.1546052631579341,1.235197368421033,9.940789473684132,-0.8947368421047908,-0.3684210526317364,1.0,1,1,26.69973202322538,3,13.055,0.123,1,1,1,1653371102.0021338,1,0,0,0,0,0,4,56.13018919488834,10.21310896724566,1,1,1.1003374689826586,-1.1998312655086707,355.5985657568238,0.2,0.2,0.30000000000000004,8314,20,1,300,4,15
2022-05-24 06:45:08.866499840+01:00,0.15539473684224542,1.2348026315788774,9.93921052631551,-0.8852631578930552,-0.3715789473689816,1.0,1,1,26.69967247283085,3,13.055185210918138,0.12300059553349883,1,1,1,1653371102.0024316,1,0,0,0,0,0,4,56.130189230322586,10.213108961290326,1,1,1.1004565756824256,-1.1997717121587872,355.5980595533498,0.2,0.2,0.30000000000000004,8314,20,1,300,4,15
2022-05-24 06:45:08.949949952+01:00,0.375,1.125,9.5,1.75,-1.25,1.0,1,1,26.683107538088105,3,13.106704714640202,0.12316625310173698,1,1,1,1653371102.0852563,1,0,0,0,0,0,4,56.13019908694789,10.213107304714642,1,1,1.1335880893300532,-1.1832059553349734,355.4572506203474,0.2,0.2,0.30000000000000004,8314,20,1,300,4,15
2022-05-24 06:45:09.049999872+01:00,0.125,1.5,10.375,1.25,-1.0,1.0,1,1,26.663247481515157,3,13.168472555831272,0.12336486352357322,1,1,1,1653371102.1845565,1,0,0,0,0,0,4,56.13021090426799,10.213105318610424,1,1,1.1733101736972986,-1.1633449131513507,355.28843176178657,0.2,0.2,0.30000000000000004,8314,20,1,300,4,15
2022-05-24 06:45:09.150949888+01:00,0.125,1.25,10.5,2.5,-0.75,1.0,1,1,26.643208773758644,3,13.230796029776686,0.12356526054590573,1,1,1,1653371102.2847502,1,0,0,0,0,0,4,56.13022282789082,10.2131033146402,1,1,1.2133895781638002,-1.1433052109181,355.11809429280396,0.2,0.2,0.30000000000000004,8314,20,1,300,4,15
2022-05-24 06:45:09.250999808+01:00,0.25,1.375,10.375,1.25,-0.5,0.75,1,1,26.623348717185696,3,13.292563870967756,0.12376387096774198,1,1,1,1653371102.3840504,1,0,0,0,0,0,4,56.13023464521091,10.21310132853598,1,1,1.2531116625310457,-1.1234441687344772,354.94927543424313,0.2,0.2,0.30000000000000004,8314,20,1,300,4,15
2022-05-24 06:45:09.352999936+01:00,0.125,1.375,9.75,1.0,-0.25,0.25,1,1,26.603101583048364,3,13.355535583126546,0.12396635235732008,1,1,1,1653371102.485286,1,0,0,0,0,0,4,56.13024669285359,10.213099303722084,1,1,1.2936079404466643,-1.1031960297766679,354.77716625310177,0.2,0.2,0.30000000000000004,8314,20,1,300,4,15
2022-05-24 06:45:09.456000+01:00,0.125,1.25,10.0,0.75,-0.25,0.25,1,1,26.582655947595963,3,13.419124665012369,0.12417081885856067,1,1,1,1653371102.5875142,1,0,0,0,0,0,4,56.13025885861041,10.21309725905707,1,1,1.3345012406947798,-1.08274937965261,354.60336972704727,0.2,0.2,0.30000000000000004,8314,20,1,300,4,15
