timestamps,AccelerationX,AccelerationY,AccelerationZ,AngularRateX,AngularRateY,AngularRateZ,ImuValid,AltitudeValid,Altitude,AltitudeAccuracy,Speed,SpeedAccuracy,SpeedValid,TimeValid,TimeConfirmed,Epoch,FenceValid,FenceCombined,Fence1,Fence2,Fence3,Fence4,PositionAccuracy,Latitude,Longitude,PositionValid,AttitudeValid,Roll,Pitch,Heading,RollAccuracy,PitchAccuracy,HeadingAccuracy,DistanceTrip,DistanceAccuracy,DistanceValid,DistanceTotal,FixType,Satellites
,m/s^2,m/s^2,m/s^2,deg/s,deg/s,deg/s,,,m,m,m/s,m/s,,,,sec,,,,,,,m,deg,deg,,,deg,deg,deg,deg,deg,deg,m,m,,km,,
2022-05-24 06:21:48.386050048+01:00,0.0,0.75,9.875,0.75,-0.5,5.25,1,1,79.40000000000055,2,0.5640000000000001,0.261,1,1,0,1653369701.0,1,0,0,0,0,0,4,56.07039399999999,10.16028,1,1,0.700000000000017,0.4000000000000057,109.5,0.30000000000000004,0.30000000000000004,0.7000000000000001,1,2,1,290,1,0
2022-05-24 06:21:48.386450176+01:00,0.0,0.75,9.875,0.75,-0.5,5.25,1,1,79.40000000000055,2,0.5640000000000001,0.261,1,1,0,1653369701.0,1,0,0,0,0,0,4,56.07039399999999,10.16028,1,1,0.700000000000017,0.4000000000000057,109.5,0.30000000000000004,0.30000000000000004,0.7000000000000001,1,2,1,290,1,0
2022-05-24 06:21:48.386899968+01:00,0.0,0.75,9.875,0.75,-0.5,5.25,1,1,79.40000000000055,2,0.5640000000000001,0.261,1,1,0,1653369701.0003374,1,0,0,0,0,0,4,56.07039399999999,10.16028,1,1,0.700000000000017,0.4000000000000057,109.5,0.30000000000000004,0.30000000000000004,0.7000000000000001,1,2,1,290,1,0
2022-05-24 06:21:48.387249920+01:00,0.0,0.75,9.875,0.75,-0.5,5.25,1,1,79.40000000000055,2,0.5640000000000001,0.261,1,1,0,1653369701.0005999,1,0,0,0,0,0,4,56.07039400026242,10.160280002886706,1,1,0.700000000000017,0.4000000000000057,109.5,0.30000000000000004,0.30000000000000004,0.7000000000000001,1,2,1,290,1,0
2022-05-24 06:21:48.387749888+01:00,0.0,0.75,9.875,0.75,-0.5,5.25,1,1,79.40000000000055,2,0.5640000000000001,0.261,1,1,0,1653369701.0009747,1,0,0,0,0,0,4,56.070394000637314,10.160280007010572,1,1,0.700000000000017,0.4000000000000057,109.5,0.30000000000000004,0.30000000000000004,0.7000000000000001,1,2,1,290,1,0
2022-05-24 06:21:48.388250112+01:00,0.0,0.75,9.875,0.75,-0.5,5.25,1,1,79.40000000000055,2,0.5640000000000001,0.261,1,1,0,1653369701.0013497,1,0,0,0,0,0,4,56.07039400101222,10.160280011134438,1,1,0.7000749821917466,0.3998500356165466,109.49805046301503,0.3000374910958648,0.30000000000000004,0.7000000000000001,1,2,1,290,1,0
2022-05-24 06:21:48.388600064+01:00,0.0,0.75,9.875,0.75,-0.5,5.25,1,1,79.40000000000055,2,0.5640000000000001,0.261,1,1,0,1653369701.0016122,1,0,0,0,0,0,4,56.07039400127464,10.160280014021144,1,1,0.7001274697259571,0.3997450605481256,109.49668578712556,0.30006373486297006,0.30000000000000004,0.7000000000000001,1,2,1,290,1,0
2022-05-24 06:21:48.388900096+01:00,0.0,0.75,9.875,0.75,-0.5,5.25,1,1,79.40000000000055,2,0.5640492632999665,0.2610098976493083,1,1,0,1653369701.001837,1,0,0,0,0,0,4,56.07039400149958,10.160280016495465,1,1,0.7001724590409949,0.3996550819180499,109.49551606493458,0.30008622952048897,0.30000000000000004,0.7000000000000001,1,2,1,290,1,0
2022-05-24 06:21:48.983300096+01:00,0.0,0.75,9.875,0.75,-0.5,5.25,1,1,79.40000000000055,2,0.6616562816331122,0.28062044014546544,1,1,0,1653369701.4475312,1,0,0,0,0,0,4,56.070394447177016,10.16028491894729,1,1,0.7893112885689769,0.22137742286207338,107.17790649720692,0.3446556442844825,0.30000000000000004,0.7000000000000001,1,2,1,290,1,0
2022-05-24 06:21:49.078200064+01:00,-0.125,0.375,10.0,2.25,-0.75,5.75,1,1,79.40000000000055,2,0.6772399055224386,0.283751396543321,1,1,0,1653369701.5186894,1,0,0,0,0,0,4,56.07039451833245,10.160285701657045,1,1,0.8035429085592285,0.19291418288156814,106.80788437746035,0.3517714542796087,0.30000000000000004,0.7000000000000001,1,2,1,290,1,0
2022-05-24 06:21:49.173949952+01:00,-0.625,1.5,10.25,-1.0,1.0,6.25,1,1,79.40000000000055,2,0.6929631087616691,0.2869103962808833,1,1,0,1653369701.5904849,1,0,0,0,0,0,4,56.070394590125204,10.160286491377372,1,1,0.8179019982754199,0.1641960034491833,106.43454804483936,0.3589509991377048,0.30000000000000004,0.7000000000000001,1,2,1,290,1,0
2022-05-24 06:21:49.719700224+01:00,-0.7404195922510783,-0.1158742915150972,9.788321630995686,-1.0,1.2308391845021567,6.9425175535064705,1,1,79.40000000000055,2,0.7825812619502863,0.30491586998087944,1,1,0,1653369701.9997,1,0,0,0,0,0,4,56.070394999325174,10.160290992577043,1,1,0.8997450605481251,0.0005098789037613627,104.30662842574891,0.39987253027405967,0.30000000000000004,0.7000000000000001,1,2,1,290,1,0
2022-05-24 06:21:49.720099840+01:00,-0.74050418746299,-0.117058624481859,9.78798325014804,-1.0,1.23100837492598,6.9430251247779395,1,1,79.40000000000055,2,0.7826469463502418,0.3049290668466239,1,1,0,1653369702.0,1,0,0,0,0,0,4,56.070394999625094,10.160290995876135,1,1,0.899805046301509,0.00038990739699340526,104.30506879616092,0.3999025231507517,0.30000000000000004,0.7000000000000001,1,2,1,290,1,0
2022-05-24 06:21:49.720599808+01:00,-0.7406099314778785,-0.11853904069029819,9.787560274088486,-1.0,1.231219862955757,6.943659588867271,1,1,79.40000000000055,2,0.7827290518501854,0.30494556292880437,1,1,0,1653369702.0013275,1,0,0,0,0,0,4,56.07039499999999,10.160291,1,1,0.8998800284932383,0.00023994301353480463,104.30311925917596,0.3999400142466163,0.30000000000000004,0.7000000000000001,1,2,1,290,1,0
2022-05-24 06:21:49.720900096+01:00,-0.7406733778868115,-0.11942729041536171,9.787306488452753,-1.0,1.231346755773623,6.944040267320869,1,1,79.40000000000055,2,0.7827783151501515,0.3049554605781126,1,1,0,1653369702.002124,1,0,0,0,0,0,4,56.070395000796594,10.160291007966013,1,1,0.8999250178082758,0.00014996438345965535,104.30194953698499,0.3999625089041351,0.30000000000000004,0.7000000000000001,1,2,1,290,1,0
2022-05-24 06:21:49.721400064+01:00,-0.7407791219017008,-0.12090770662381134,9.786883512393198,-1.0,1.2315582438034016,6.944674731410204,1,1,79.40000000000055,2,0.7828604206500956,0.3049719566602932,1,1,0,1653369702.0034516,1,0,0,0,0,0,4,56.07039500212426,10.1602910212427,1,1,0.9000000000000057,0.0,104.30000000000001,0.4,0.30000000000000004,0.7000000000000001,1,2,1,290,1,0
2022-05-24 06:21:49.721900032+01:00,-0.7408848659165893,-0.12238812283225053,9.786460536333642,-1.0,1.2317697318331786,6.945309195499536,1,1,79.40000000000055,2,0.7829425261500392,0.3049884527424736,1,1,0,1653369702.0047789,1,0,0,0,0,0,4,56.07039500345193,10.160291034519386,1,1,0.9002655337227878,-0.0017259691980841317,104.28712161444507,0.4,0.3001327668613911,0.7000000000000001,1,2,1,290,1,0
2022-05-24 06:21:49.722249984+01:00,-0.7409588867270116,-0.12342441417816308,9.786164453091953,-1.0,1.2319177734540232,6.94575332036207,1,1,79.40000000000055,2,0.783,0.305,1,1,0,1653369702.0057082,1,0,0,0,0,0,4,56.0703950043813,10.160291043813064,1,1,0.9004514073287364,-0.002934147636749156,104.27810674455658,0.4,0.30022570366436535,0.7000000000000001,1,2,1,290,1,0
2022-05-24 06:21:49.722550016+01:00,-0.7410223331359448,-0.1243126639032266,9.785910667456221,-1.0,1.2320446662718896,6.946133998815668,1,1,79.40000000000055,2,0.7827499004380731,0.30503424930306644,1,1,0,1653369702.0065048,1,0,0,0,0,0,4,56.0703950051779,10.160291051779076,1,1,0.9006107275624057,-0.003969729155599635,104.27037971322362,0.4,0.30030536378120004,0.7000000000000001,1,2,1,290,1,0
2022-05-24 06:21:49.765000192+01:00,-0.75,-0.25,9.75,-1.0,1.25,7.0,1,1,79.40000000000055,2,0.74736081242533,0.3098805256869771,1,1,0,1653369702.1192088,1,0,0,0,0,0,4,56.070395117896965,10.16029217896973,1,1,0.9231545406266661,-0.15050451407327967,103.17700477960707,0.4,0.31157727031332927,0.7000000000000001,1,2,1,290,1,0
2022-05-24 06:21:49.852000+01:00,-1.0,0.5,9.375,-0.5,3.5,9.25,1,1,79.40000000000055,2,0.6748319394663493,0.3198128235762643,1,1,0,1653369702.3501925,1,0,0,0,0,0,4,56.070395348911305,10.16029448911312,1,1,0.969357408390876,-0.4508231545406176,100.93616569304308,0.4,0.3346787041954322,0.7000000000000001,1,2,1,290,1,0
2022-05-24 06:21:49.940000+01:00,-0.375,0.625,10.125,4.0,-1.75,12.75,1,1,79.40000000000055,2,0.6014694013009426,0.3298592858091066,1,1,0,1653369702.583831,1,0,0,0,0,0,4,56.07039558258098,10.16029682580988,1,1,1.0160913436006522,-0.754593733404136,98.66956983536913,0.4,0.3580456718003183,0.7000000000000001,1,2,1,290,1,0
2022-05-24 06:21:50.014050048+01:00,-0.375,0.125,9.875,-2.0,-1.25,11.75,1,1,79.40000000000055,2,0.5397364927651666,0.3383131554493562,1,1,0,1653369702.7804327,1,0,0,0,0,0,4,56.070395779208695,10.160298792087099,1,1,1.0554168879447872,-1.0102097716409908,96.76228093467876,0.4,0.3777084439723841,0.7000000000000001,1,2,1,290,1,0
2022-05-24 06:21:50.096349952+01:00,-0.48111139762764354,0.6555569881382177,10.087222795255286,0.334450747808158,-1.462222795255287,11.537777204744714,1,1,79.40000000000055,2,0.4711258462763835,0.3477088809239348,1,1,0,1653369702.998938,1,0,0,0,0,0,4,56.07039599774295,10.160300977429637,1,1,1.0991237387148387,-1.2943043016463012,94.64249867233143,0.4,0.399561869357408,0.7000000000000001,1,2,1,290,1,0
2022-05-24 06:21:50.096750080+01:00,-0.4816271273852494,0.6581356369262469,10.088254254770499,0.34579680247548605,-1.4632542547704988,11.536745745229501,1,1,79.40000000000055,2,0.4707923801938142,0.3477545466613567,1,1,0,1653369703.0,1,0,0,0,0,0,4,56.07039599880509,10.160300988050986,1,1,1.0993361656930645,-1.2956850770047683,94.63219596388748,0.4,0.3996680828465209,0.7000000000000001,1,2,1,290,1,0
2022-05-24 06:21:50.097199872+01:00,-0.48220732336255817,0.661036616812791,10.089414646725116,0.3585611139762803,-1.4644146467251165,11.535585353274884,1,1,79.40000000000055,2,0.4704172308509223,0.34780592061595655,1,1,0,1653369703.0004716,1,0,0,0,0,0,4,56.07039599999999,10.160301000000004,1,1,1.0995751460435694,-1.2972384492830502,94.620605416888,0.4,0.39978757302177337,0.7000000000000001,1,2,1,290,1,0
2022-05-24 06:21:50.097549824+01:00,-0.4826585869004656,0.6632929345023278,10.090317173800932,0.36848891181024257,-1.4653171738009312,11.534682826199068,1,1,79.40000000000055,2,0.47012544802867273,0.3478458781362009,1,1,0,1653369703.0008385,1,0,0,0,0,0,4,56.07039599999999,10.160301002946442,1,1,1.0997610196495178,-1.2984466277217153,94.6115905469995,0.4,0.39988050982474754,0.7000000000000001,1,2,1,290,1,0
2022-05-24 06:21:50.098000128+01:00,-0.4832387828777744,0.666193914388872,10.091477565755548,0.38125322331103684,-1.4664775657555489,11.533522434244452,1,1,79.40000000000055,2,0.4697502986857809,0.34789725209080075,1,1,0,1653369703.00131,1,0,0,0,0,0,4,56.07039599999999,10.16030100673472,1,1,1.1000000000000227,-1.2999999999999972,94.60000000000001,0.4,0.4,0.7000000000000001,1,2,1,290,1,0
2022-05-24 06:21:50.098500096+01:00,-0.48388344507478165,0.6694172253739084,10.092766890149564,0.39543579164519693,-1.4677668901495633,11.532233109850436,1,1,79.40000000000055,2,0.4693334660825693,0.34795433426257816,1,1,0,1653369703.0018342,1,0,0,0,0,0,4,56.07039599999999,10.160301010943916,1,1,1.0996317146314751,-1.2993160414584088,94.59405482190775,0.4,0.4,0.7000000000000001,2,2,1,290,1,0
2022-05-24 06:21:50.098899968+01:00,-0.4843991748323875,0.6719958741619374,10.093798349664775,0.40678184631252456,-1.468798349664775,11.531201650335225,1,1,79.40000000000055,2,0.46900000000000003,0.34800000000000003,1,1,0,1653369703.0022533,1,0,0,0,0,0,4,56.07039599999999,10.160301014311274,1,1,1.0993370863366372,-1.2987688746251382,94.58929867943392,0.4,0.4,0.7000000000000001,2,2,1,290,1,0
2022-05-24 06:21:50.099200+01:00,-0.4847859721505918,0.6739298607529592,10.094571944301183,0.4152913873130206,-1.4695719443011837,11.530428055698817,1,1,79.40000000000055,2,0.46910733452593895,0.34801452172998,1,1,0,1653369703.0025678,1,0,0,0,0,0,4,56.07039599999999,10.160301016836792,1,1,1.0991161151155084,-1.2983584995001851,94.58573157257857,0.4,0.4,0.7000000000000001,2,2,1,290,1,0
2022-05-24 06:21:50.111000064+01:00,-0.5,0.75,10.125,0.75,-1.5,11.5,1,1,79.40000000000055,2,0.47332915921288027,0.3485857097758603,1,1,0,1653369703.0149353,1,0,0,0,0,0,4,56.07039599999999,10.160301116173844,1,1,1.0904245804177648,-1.2822170779186612,94.4454253696007,0.4,0.4,0.7000000000000001,2,2,1,290,1,0
2022-05-24 06:21:50.206049792+01:00,-0.375,0.625,9.75,1.0,-1.75,10.75,1,1,79.40000000000055,2,0.507336314847943,0.3531866778911923,1,1,0,1653369703.1145563,1,0,0,0,0,0,4,56.07039599999999,10.16030191634221,1,1,1.0204135318567062,-1.1521965591624133,93.31524701425793,0.4,0.4,0.7000000000000001,2,2,1,290,1,0
2022-05-24 06:21:50.310050048+01:00,-0.25,0.625,10.125,0.5,-1.75,11.25,1,1,79.40000000000055,2,0.544545617173524,0.35822087761759447,1,1,0,1653369703.2235577,1,0,0,0,0,0,4,56.07039599999999,10.160302791855203,1,1,0.9438101751986316,-1.009933182511707,92.07864997106333,0.4,0.4,0.7000000000000001,2,2,1,290,1,0
2022-05-24 06:21:50.413049856+01:00,-0.25,0.75,10.25,0.0,-1.5,11.5,1,1,79.40000000000055,2,0.5813971377459752,0.36320667157739667,1,1,0,1653369703.331511,1,0,0,0,0,0,4,56.07039599999999,10.160303658949802,1,1,0.8679433892776521,-0.8690377229441775,90.85394328405326,0.4,0.4,0.7000000000000001,2,2,1,290,1,0
2022-05-24 06:21:50.518050048+01:00,0.25,0.5,9.875,-1.0,-1.75,10.75,1,1,79.40000000000055,2,0.6189642218246874,0.3682892770703989,1,1,0,1653369703.4415603,1,0,0,0,0,0,4,56.07039599999999,10.16030454288119,1,1,0.7906034618824798,-0.7254064292102897,89.60545588467409,0.4,0.4,0.7000000000000001,2,2,1,290,1,0
2022-05-24 06:21:50.615049984+01:00,0.75,0.625,10.125,-1.0,-2.0,9.75,1,1,79.40000000000055,2,0.6536690518783537,0.3729846364306008,1,1,0,1653369703.543225,1,0,0,0,0,0,4,56.07039599999999,10.160305359465426,1,1,0.7191561003840844,-0.5927184721418447,88.45209133477144,0.4,0.4,0.7000000000000001,2,2,1,290,1,0
2022-05-24 06:21:50.718099968+01:00,0.875,0.5,10.375,0.0,-1.5,8.75,1,1,79.40000000000055,2,0.6905384615384609,0.37797285067873293,1,1,0,1653369703.6512308,1,0,0,0,0,0,4,56.07039599999999,10.160306226980945,1,1,0.6432524859262515,-0.4517546167201588,87.22679012995216,0.4,0.4,0.7000000000000001,2,2,1,290,1,0
2022-05-24 06:21:50.819049984+01:00,0.75,0.75,10.125,0.5,-1.25,7.75,1,1,79.40000000000055,2,0.7266565295169942,0.3828594128170051,1,1,0,1653369703.7570355,1,0,0,0,0,0,4,56.07039599999999,10.160307076817835,1,1,0.568895670016321,-0.3136633871731488,86.02645867312046,0.4,0.4,0.7000000000000001,2,2,1,290,1,0
2022-05-24 06:21:50.926099968+01:00,0.625,0.875,10.0,0.5,-0.5,6.25,1,1,79.40000000000055,2,0.7649570661896241,0.3880412501315374,1,1,0,1653369703.8692336,1,0,0,0,0,0,4,56.07039599999999,10.160307978006932,1,1,0.49004577261009963,-0.16722786341874163,84.75359604356292,0.4,0.4,0.7000000000000001,2,2,1,290,1,0
2022-05-24 06:21:51.029100032+01:00,0.5,0.625,10.125,0.25,-0.25,5.5,1,1,79.40000000000055,2,0.8018085867620741,0.3930270440913395,1,1,0,1653369703.977187,1,0,0,0,0,0,4,56.07039599999999,10.16030884510153,1,1,0.4141789866891228,-0.026332403851216934,83.5288893565529,0.4,0.4,0.7000000000000001,2,2,1,290,1,0
2022-05-24 06:21:51.046649856+01:00,0.5,0.6485760343901124,10.125,0.25,-0.2971520687802247,5.358543793659326,1,1,79.40000000000055,2,0.8080876565295161,0.39387656529516984,1,1,0,1653369703.995581,1,0,0,0,0,0,4,56.07039599999999,10.16030899284435,1,1,0.4012521702530727,-0.0023254590414101273,83.3202136055138,0.4,0.4,0.7000000000000001,2,2,1,290,1,0
2022-05-24 06:21:51.047049984+01:00,0.5,0.6491133799032809,10.125,0.25,-0.2982267598065617,5.355319720580315,1,1,79.40000000000055,2,0.8082307692307692,0.39389592760180997,1,1,0,1653369703.996,1,0,0,0,0,0,4,56.07039599999999,10.160308996211706,1,1,0.40095754195823197,-0.0017782922081346353,83.31545746303995,0.4,0.4,0.7000000000000001,2,2,1,290,1,0
2022-05-24 06:21:51.047499776+01:00,0.5,0.6497178936055876,10.125,0.25,-0.29943578721117525,5.351692638366474,1,1,79.40000000000055,2,0.808391771019677,0.39391771019677985,1,1,0,1653369703.9964473,1,0,0,0,0,0,4,56.07039599999999,10.160308999999984,1,1,0.4006260851265405,-0.0011627295207075061,83.31010680275693,0.4,0.4,0.7000000000000001,2,2,1,290,1,0
2022-05-24 06:21:51.047849984+01:00,0.5,0.6501880709296083,10.125,0.25,-0.3003761418592165,5.3488715744223505,1,1,79.40000000000055,3,0.808516994633273,0.3939346522150899,1,1,0,1653369703.9967952,1,0,0,0,0,0,4,56.07039599999999,10.160309006608351,1,1,0.40036828536855584,-0.0006839585415931992,83.30594517809232,0.4,0.4,0.7000000000000001,2,2,1,290,1,0
2022-05-24 06:21:51.048350208+01:00,0.5,0.6508597528210677,10.125,0.25,-0.3017195056421353,5.344841483073594,1,1,79.40000000000055,3,0.8086958855098392,0.39395885509839,1,1,0,1653369703.997292,1,0,0,0,0,0,4,56.07039599999999,10.160309016048876,1,1,0.4000000000000057,0.0,83.30000000000001,0.4,0.4,0.7000000000000001,2,2,1,290,1,0
2022-05-24 06:21:51.048850176+01:00,0.5,0.6515314347125223,10.125,0.25,-0.30306286942504457,5.340811391724866,1,1,79.40000000000055,3,0.808874776386404,0.39398305798169,1,1,0,1653369703.997789,1,0,0,0,0,0,4,56.07039599999999,10.1603090254894,1,1,0.40004968944099933,0.000149068322981025,83.29806211180126,0.4,0.39990062111801267,0.7000000000000001,2,3,1,290,1,0
2022-05-24 06:21:51.049200128+01:00,0.5,0.6520016120365429,10.125,0.25,-0.30400322407308583,5.337990327780743,1,1,79.40000000000055,3,0.809,0.394,1,1,0,1653369703.9981368,1,0,0,0,0,0,4,56.07039599999999,10.160309032097768,1,1,0.4000844720496951,0.0002534161490682721,83.29670559006212,0.4,0.3998310559006212,0.7000000000000001,2,3,1,290,1,0
2022-05-24 06:21:51.049449984+01:00,0.5,0.6523374529822679,10.125,0.25,-0.30467490596453567,5.335975282106393,1,1,79.40000000000055,3,0.8091532843088528,0.3940084467852528,1,1,0,1653369703.9983852,1,0,0,0,0,0,4,56.07039599999999,10.16030903681803,1,1,0.40010931677019174,0.00032795031055825503,83.29573664596275,0.4,0.39978136645962786,0.7000000000000001,2,3,1,290,1,0
2022-05-24 06:21:51.122149888+01:00,0.5,0.75,10.125,0.25,-0.5,4.75,1,1,79.40000000000055,3,0.8537283613236603,0.39646477193679813,1,1,0,1653369704.0706336,1,0,0,0,0,0,4,56.07039599999999,10.160310409470322,1,1,0.40733416149068835,0.022002484472050134,83.01396770186336,0.4,0.3853316770186338,0.7000000000000001,2,3,1,290,1,0
2022-05-24 06:21:51.224100096+01:00,0.375,0.75,10.0,0.75,-0.5,4.0,1,1,79.40000000000055,3,0.9162377024744097,0.39990937096293344,1,1,0,1653369704.1719503,1,0,0,0,0,0,4,56.07039599999999,10.160312334393307,1,1,0.41746583850932123,0.05239751552795157,82.61883229813667,0.4,0.365068322981367,0.7000000000000001,2,3,1,290,1,0
2022-05-24 06:21:51.325149952+01:00,0.375,0.75,10.125,0.25,-1.0,3.0,1,1,79.40000000000055,3,0.9781952201132853,0.4033235615621584,1,1,0,1653369704.2723727,1,0,0,0,0,0,4,56.07039599999999,10.160314242323349,1,1,0.42750807453416545,0.08252422360248717,82.22718509316772,0.4,0.3449838509316773,0.7000000000000001,2,3,1,290,1,0
2022-05-24 06:21:51.427150080+01:00,0.375,0.625,10.0,0.75,-0.5,2.5,1,1,79.40000000000055,3,1.0407352181258065,0.40676984994534426,1,1,0,1653369704.3737392,1,0,0,0,0,0,4,56.07039599999999,10.160316168190388,1,1,0.43764472049689784,0.11293416149068723,81.83185590062114,0.4,0.3247105590062114,0.7000000000000001,2,3,1,290,1,0
2022-05-24 06:21:51.529149952+01:00,0.375,0.75,10.125,0.5,-0.75,2.0,1,1,79.40000000000055,3,1.103275216138328,0.4102161383285302,1,1,0,1653369704.4751055,1,0,0,0,0,0,4,56.07039599999999,10.160318094057427,1,1,0.44778136645963024,0.1433440993788873,81.43652670807454,0.4,0.3044372670807455,0.7000000000000001,2,3,1,290,1,0
2022-05-24 06:21:51.627150080+01:00,0.375,0.875,10.125,0.5,-0.75,1.25,1,1,79.40000000000055,3,1.1633626652091809,0.4135272781476696,1,1,0,1653369704.572497,1,0,0,0,0,0,4,56.07039599999999,10.160319944400268,1,1,0.4575204968944122,0.17256149068323598,81.05670062111803,0.4,0.28495900621118037,0.7000000000000001,2,3,1,290,1,0
2022-05-24 06:21:51.733149952+01:00,0.375,0.75,10.0,0.5,-0.75,0.25,1,1,79.40000000000055,3,1.2283552121633705,0.4171087150949021,1,1,0,1653369704.6778386,1,0,0,0,0,0,4,56.07039599999999,10.160321945791503,1,1,0.4680546583850951,0.20416397515528745,80.64586832298137,0.4,0.26389068322981357,0.7000000000000001,2,3,1,290,1,0
2022-05-24 06:21:51.834150144+01:00,0.375,0.75,10.0,0.75,-0.75,-0.25,1,1,79.40000000000055,3,1.2902820729404743,0.4205212163370764,1,1,0,1653369704.778211,1,0,0,0,0,0,4,56.07039599999999,10.160323852777493,1,1,0.4780919254658398,0.2342757763975244,80.25441490683231,0.4,0.243816149068323,0.7000000000000001,2,3,1,290,1,0
2022-05-24 06:21:51.941149952+01:00,0.375,0.875,10.0,0.5,-0.5,-0.75,1,1,79.40000000000055,3,1.3558877571300791,0.4241364404253204,1,1,0,1653369704.8845465,1,0,0,0,0,0,4,56.07039599999999,10.160325873049779,1,1,0.4887254658385099,0.2661763975155379,79.83970683229815,0.4,0.2225490683229815,0.7000000000000001,2,3,1,290,1,0
2022-05-24 06:21:52.044199936+01:00,0.125,0.625,10.25,0.5,-0.25,-1.25,1,1,79.40000000000055,3,1.419071549239788,0.4276182053065685,1,1,0,1653369704.9869566,1,0,0,0,0,0,4,56.07039599999999,10.16032781874192,1,1,0.4989664596273292,0.29689937888199863,79.44030807453417,0.4,0.20206708074534177,0.7000000000000001,2,3,1,290,1,0
2022-05-24 06:21:52.052900096+01:00,0.07822580645160729,0.6366935483870981,10.214919354838706,0.5233870967741964,-0.2032258064516073,-1.2032258064516073,1,1,79.40000000000055,3,1.4244058431879154,0.42791215343336975,1,1,0,1653369704.9956026,1,0,0,0,0,0,4,56.07039599999999,10.160327983007049,1,1,0.49983105590062116,0.29949316770187484,79.40658881987578,0.4,0.2003378881987577,0.7000000000000001,2,3,1,290,1,0
2022-05-24 06:21:52.053299968+01:00,0.07607526881720371,0.6372311827956991,10.213306451612903,0.5244623655913981,-0.20107526881720372,-1.2010752688172037,1,1,79.40000000000055,3,1.4246510980820815,0.42792566828977435,1,1,0,1653369704.996,1,0,0,0,0,0,4,56.07039599999999,10.160327990559468,1,1,0.4998708074534161,0.29961242236025964,79.40503850931678,0.4,0.20025838509316782,0.7000000000000001,2,3,1,290,1,0
2022-05-24 06:21:52.053800192+01:00,0.07338709677418012,0.637903225806455,10.211290322580636,0.52580645161291,-0.19838709677418012,-1.19838709677418,1,1,79.40000000000055,3,1.4249576666997914,0.42794256186028024,1,1,0,1653369704.9965053,1,0,0,0,0,0,4,56.07039599999999,10.160327999999993,1,1,0.49992049689441015,0.29976149068324176,79.40310062111801,0.4,0.20015900621117977,0.7000000000000001,2,3,1,290,1,0
2022-05-24 06:21:52.054150144+01:00,0.07150537634408652,0.6383736559139783,10.209879032258065,0.5267473118279568,-0.19650537634408652,-1.1965053763440865,1,1,79.40000000000055,2,1.4251722647321858,0.4279543873596342,1,1,0,1653369704.9968588,1,0,0,0,0,0,4,56.0703960010567,10.160328008453673,1,1,0.49995527950310553,0.2998658385093279,79.40174409937889,0.4,0.20008944099378898,0.7000000000000001,2,3,1,290,1,0
2022-05-24 06:21:52.054599936+01:00,0.06908602150537294,0.6389784946236567,10.20806451612903,0.5279569892473135,-0.19408602150537294,-1.194086021505373,1,1,79.40000000000055,2,1.425448176488124,0.42796959157308945,1,1,0,1653369704.9973135,1,0,0,0,0,0,4,56.07039600241533,10.160328019322693,1,1,0.5,0.30000000000001137,79.4,0.4,0.2,0.7000000000000001,2,3,1,290,1,0
2022-05-24 06:21:52.055099904+01:00,0.06639784946236846,0.6396505376344079,10.206048387096777,0.5293010752688158,-0.19139784946236846,-1.1913978494623685,1,1,79.40000000000055,2,1.4257547451058317,0.4279864851435953,1,1,0,1653369704.9978187,1,0,0,0,0,0,4,56.07039600392491,10.160328031399379,1,1,0.500100633994163,0.30000000000001137,79.4,0.4,0.2,0.7000000000000001,3,3,1,290,1,0
2022-05-24 06:21:52.055500032+01:00,0.06424731182794576,0.6401881720430136,10.20443548387096,0.5303763440860271,-0.18924731182794574,-1.1892473118279459,1,1,79.40000000000055,2,1.426,0.428,1,1,0,1653369704.9982228,1,0,0,0,0,0,4,56.07039600513258,10.160328041060728,1,1,0.5001811411894941,0.30000000000001137,79.4,0.4,0.2,0.7000000000000001,3,3,1,290,1,0
2022-05-24 06:21:52.055749888+01:00,0.06290322580645306,0.6405241935483867,10.20342741935484,0.5310483870967735,-0.18790322580645308,-1.187903225806453,1,1,79.40000000000055,2,1.4260246565692143,0.4280110702963819,1,1,0,1653369704.9984756,1,0,0,0,0,0,4,56.070396005887375,10.160328047099071,1,1,0.5002314581865752,0.30000000000001137,79.4,0.4,0.2,0.7000000000000001,3,3,1,290,1,0
2022-05-24 06:21:52.137200128+01:00,-0.375,0.75,9.875,0.75,0.25,-0.75,1,1,79.40000000000055,2,1.4340577668193024,0.43161777285764596,1,1,0,1653369705.0807698,1,0,0,0,0,0,4,56.07039625179891,10.160330014391377,1,1,0.5166247358357666,0.30000000000001137,79.4,0.4,0.2,0.7000000000000001,3,3,1,290,1,0
2022-05-24 06:21:52.239249920+01:00,-0.25,1.0,9.875,0.5,-0.75,-1.0,1,1,79.40000000000055,2,1.4441225783726663,0.436136667840789,1,1,0,1653369705.1838775,1,0,0,0,0,0,4,56.07039655990538,10.160332479243186,1,1,0.5371641340444836,0.30000000000001137,79.4,0.4,0.2,0.7000000000000001,3,3,1,290,1,0
2022-05-24 06:21:52.342200064+01:00,0.0,0.625,10.125,0.5,-0.75,-1.0,1,1,79.40000000000055,2,1.4542761535752025,0.44069541589090727,1,1,0,1653369705.2878945,1,0,0,0,0,0,4,56.07039687072911,10.160334965833032,1,1,0.5578846734426941,0.30000000000001137,79.4,0.4,0.2,0.7000000000000001,3,3,1,290,1,0
2022-05-24 06:21:52.443249920+01:00,0.0,0.75,10.125,0.5,-0.25,-0.75,1,1,79.40000000000055,2,1.4642423388517085,0.44517002968852215,1,1,0,1653369705.389992,1,0,0,0,0,0,4,56.07039717581642,10.160337406531466,1,1,0.5782228036630844,0.30000000000001137,79.4,0.4,0.2,0.7000000000000001,3,3,1,290,1,0
2022-05-24 06:21:52.545250048+01:00,-0.25,0.75,10.0,0.75,-0.25,-0.75,1,1,79.40000000000055,2,1.4743022190912294,0.44968671061238874,1,1,0,1653369705.4930491,1,0,0,0,0,0,4,56.070397483771934,10.160339870175607,1,1,0.5987521384723848,0.30000000000001137,79.4,0.4,0.2,0.7000000000000001,3,3,1,290,1,0
2022-05-24 06:21:52.645250048+01:00,-0.25,0.75,10.0,0.5,-0.75,-0.5,1,1,79.40000000000055,2,1.484164846777034,0.454114829165199,1,1,0,1653369705.5940857,1,0,0,0,0,0,4,56.07039778568911,10.160342285512998,1,1,0.6188789373050317,0.30000000000001137,79.4,0.4,0.2,0.7000000000000001,3,3,1,290,1,0
2022-05-24 06:21:52.747200+01:00,0.0,0.875,10.125,0.75,-0.75,-0.75,1,1,79.40000000000055,2,1.4942197957027124,0.45862929602978925,1,1,0,1653369705.6970925,1,0,0,0,0,0,4,56.070398093493665,10.16034474794947,1,1,0.6393982087149161,0.30000000000001137,79.4,0.4,0.2,0.7000000000000001,3,3,1,290,1,0
2022-05-24 06:21:52.850249984+01:00,-0.125,0.75,10.125,0.5,-0.75,-0.75,1,1,79.40000000000055,2,1.5043832335329343,0.4631924721984603,1,1,0,1653369705.8012106,1,0,0,0,0,0,4,56.07039840461931,10.160347236954651,1,1,0.6601388749119592,0.30000000000001137,79.4,0.4,0.2,0.7000000000000001,3,3,1,290,1,0
2022-05-24 06:21:52.955249920+01:00,-0.125,0.75,10.0,0.75,-0.5,-0.5,1,1,79.40000000000055,2,1.514738992603029,0.467841996678911,1,1,0,1653369705.907299,1,0,0,0,0,0,4,56.070398721632344,10.160349773058913,1,1,0.6812720136862384,0.30000000000001137,79.4,0.4,0.2,0.7000000000000001,3,3,1,290,1,0
2022-05-24 06:21:53.046550016+01:00,-0.125,0.75,10.0,0.75,-0.5,-0.5,1,1,79.40000000000055,2,1.523743571680169,0.47188486891762693,1,1,0,1653369705.9995453,1,0,0,0,0,0,4,56.07039899728272,10.160351978261952,1,1,0.6996477810204454,0.30000000000001137,79.4,0.4,0.2,0.7000000000000001,3,3,1,290,1,0
2022-05-24 06:21:53.046999808+01:00,-0.125,0.75,10.0,0.75,-0.5,-0.5,1,1,79.40000000000055,2,1.5237879535047552,0.4719047954511146,1,1,0,1653369706.0,1,0,0,0,0,0,4,56.07039899864135,10.160351989130971,1,1,0.6997383516151925,0.30000000000001137,79.4,0.4,0.2,0.7000000000000001,3,3,1,290,1,0
2022-05-24 06:21:53.047450112+01:00,-0.125,0.75,10.0,0.75,-0.5,-0.5,1,1,79.40000000000055,2,1.5238323353293413,0.4719247219846023,1,1,0,1653369706.0004497,1,0,0,0,0,0,5,56.07039899999998,10.160351999999989,1,1,0.6998289222099396,0.30000000000001137,79.4,0.4,0.2,0.7000000000000001,3,3,1,290,1,0
2022-05-24 06:21:53.047800064+01:00,-0.125,0.75,10.0,0.75,-0.5,-0.5,1,1,79.40000000000055,2,1.5238668545262417,0.47194022039953715,1,1,0,1653369706.0007997,1,0,0,0,0,0,5,56.07039900104946,10.160352008745615,1,1,0.6998993660058541,0.30000000000001137,79.4,0.4,0.2,0.7000000000000001,3,3,1,290,1,0
2022-05-24 06:21:53.048300032+01:00,-0.125,0.75,10.0,0.75,-0.5,-0.5,1,1,79.40004997501303,2,1.5239161676646706,0.47196236099230116,1,1,0,1653369706.0012994,1,0,0,0,0,0,5,56.070399002548704,10.160352021239369,1,1,0.700000000000017,0.30000000000001137,79.4,0.4,0.2,0.7000000000000001,3,3,1,290,1,0
2022-05-24 06:21:53.048749824+01:00,-0.125,0.75,10.0,0.75,-0.5,-0.5,1,1,79.40009495252428,2,1.523960549489257,0.47198228752578886,1,1,0,1653369706.001749,1,0,0,0,0,0,5,56.07039900389803,10.160352032483747,1,1,0.7000899550225059,0.30008995502250024,79.39991004497752,0.4,0.2,0.7000000000000001,4,3,1,290,1,0
2022-05-24 06:21:53.049149952+01:00,-0.125,0.75,10.0,0.75,-0.5,-0.5,1,1,79.40013493253427,2,1.524,0.47200000000000003,1,1,0,1653369706.0021489,1,0,0,0,0,0,5,56.07039900509743,10.160352042478749,1,1,0.7001699150424958,0.3001699150424901,79.39983008495753,0.4,0.2,0.7000000000000001,4,3,1,290,1,0
2022-05-24 06:21:53.049400064+01:00,-0.125,0.75,10.0,0.75,-0.5,-0.5,1,1,79.40015992004052,2,1.5240502248875565,0.47201149425287364,1,1,0,1653369706.0023987,1,0,0,0,0,0,5,56.07039900584706,10.160352048725626,1,1,0.7002198900549897,0.30021989005498406,79.39978010994503,0.4,0.2,0.7000000000000001,4,3,1,290,1,0
2022-05-24 06:21:53.059250176+01:00,-0.125,0.75,10.0,0.75,-0.5,-0.5,1,1,79.40114442778665,2,1.5260290854572716,0.472464367816092,1,1,0,1653369706.012244,1,0,0,0,0,0,5,56.07039903538229,10.160352294852563,1,1,0.7021889055472436,0.3021889055472379,79.39781109445278,0.4,0.2,0.7000000000000001,4,3,1,290,1,0
2022-05-24 06:21:53.154299904+01:00,-0.125,0.875,10.125,0.75,-0.5,-0.5,1,1,79.41064467766165,2,1.5451245877061472,0.47683448275862084,1,1,0,1653369706.1072464,1,0,0,0,0,0,5,56.07039932038979,10.16035466991503,1,1,0.7211894052973675,0.32118940529736184,79.37881059470266,0.4,0.2,0.7000000000000001,4,3,1,290,1,0
2022-05-24 06:21:53.257299968+01:00,-0.125,0.625,10.125,0.75,-0.5,-0.75,1,1,79.42093953023532,2,1.5658172413793103,0.48157011494252877,1,1,0,1653369706.2101948,1,0,0,0,0,0,5,56.07039962923537,10.160357243628173,1,1,0.7417791104447923,0.3417791104447866,79.35822088955523,0.4,0.2,0.7000000000000001,4,3,1,290,1,0
2022-05-24 06:21:53.358299904+01:00,0.0,0.75,10.125,0.5,-0.75,-0.25,1,1,79.431034482759,2,1.586108095952024,0.48621379310344826,1,1,0,1653369706.3111444,1,0,0,0,0,0,5,56.070399932083944,10.160359767366304,1,1,0.7619690154922673,0.3619690154922615,79.33803098450775,0.4,0.2,0.7000000000000001,4,3,1,290,1,0
2022-05-24 06:21:53.459300096+01:00,0.125,0.875,10.0,0.25,-0.75,-0.5,1,1,79.44112943528268,2,1.606398950524738,0.49085747126436796,1,1,0,1653369706.4120939,1,0,0,0,0,0,5,56.07040023493252,10.160362291104434,1,1,0.7821589205397429,0.3821589205397372,79.31784107946028,0.4,0.2,0.7000000000000001,4,3,1,290,1,0
2022-05-24 06:21:53.561299968+01:00,0.125,0.75,10.0,0.5,-0.5,-0.75,1,1,79.45132433783135,2,1.6268907046476768,0.4955471264367817,1,1,0,1653369706.514043,1,0,0,0,0,0,5,56.0704005407796,10.16036483983007,1,1,0.802548725637193,0.4025487256371874,79.29745127436283,0.4,0.2,0.7000000000000001,4,3,1,290,1,0
2022-05-24 06:21:53.662300160+01:00,0.25,0.625,10.125,0.75,-0.5,-0.25,1,1,79.46141929035504,2,1.6471815592203902,0.5001908045977013,1,1,0,1653369706.6149926,1,0,0,0,0,0,5,56.07040084362818,10.1603673635682,1,1,0.822738630684668,0.42273863068466233,79.27726136931534,0.4,0.2,0.7000000000000001,4,3,1,290,1,0
2022-05-24 06:21:53.764300032+01:00,0.5,1.0,10.125,0.5,-0.75,-0.5,1,1,79.4716141929037,2,1.6676733133433288,0.5048804597701151,1,1,0,1653369706.7169416,1,0,0,0,0,0,5,56.07040114947526,10.160369912293838,1,1,0.8431284357821183,0.4431284357821126,79.25687156421789,0.4,0.2,0.7000000000000001,4,3,1,290,1,0
2022-05-24 06:21:53.866349824+01:00,0.375,0.625,10.125,0.75,-0.25,-0.25,1,1,79.48181409295363,2,1.6881751124437783,0.5095724137931035,1,1,0,1653369706.8189406,1,0,0,0,0,0,5,56.070401455472265,10.16037246226885,1,1,0.8635282358820668,0.46352823588206116,79.23647176411795,0.4,0.2,0.7000000000000001,4,3,1,290,1,0
2022-05-24 06:21:53.970350080+01:00,0.375,0.625,10.0,0.5,-0.25,0.5,1,1,79.49220889555227,2,1.7090686656671665,0.5143540229885057,1,1,0,1653369706.9228885,1,0,0,0,0,0,5,56.07040176731634,10.160375060969498,1,1,0.8843178410794668,0.4843178410794611,79.21568215892054,0.4,0.2,0.7000000000000001,4,3,1,290,1,0
2022-05-24 06:21:54.047100160+01:00,0.375,0.8026620370370374,10.088831018518519,0.5,-0.25,0.8553240740740748,1,1,79.49988005997001,2,1.7244877061469268,0.5178827586206897,1,1,0,1653369706.9996002,1,0,0,0,0,0,5,56.07040199745128,10.160376978760603,1,1,0.8996601699150483,0.4996601699150426,79.20033983008496,0.4,0.2,0.7000000000000001,4,3,1,290,1,0
2022-05-24 06:21:54.047499776+01:00,0.375,0.8035879629629694,10.089293981481484,0.5,-0.25,0.8571759259259388,1,1,79.49992003998001,2,1.7245680659670173,0.5179011494252875,1,1,0,1653369707.0,1,0,0,0,0,0,5,56.070401998650674,10.160376988755605,1,1,0.8997401299350387,0.4997401299350331,79.20025987006497,0.4,0.2,0.7000000000000001,4,3,1,290,1,0
2022-05-24 06:21:54.047950080+01:00,0.375,0.8046296296296296,10.089814814814815,0.5,-0.25,0.8592592592592591,1,1,79.49996501749125,2,1.7246584707646178,0.5179218390804599,1,1,0,1653369707.000461,1,0,0,0,0,0,5,56.070402,10.160376999999983,1,1,0.8998300849575269,0.4998300849575213,79.20016991504248,0.4,0.2,0.7000000000000001,4,3,1,290,1,0
2022-05-24 06:21:54.048300032+01:00,0.375,0.805439814814817,10.090219907407409,0.5,-0.25,0.8608796296296338,1,1,79.5,2,1.724728785607197,0.5179379310344828,1,1,0,1653369707.00082,1,0,0,0,0,0,5,56.0704020003587,10.160377002510872,1,1,0.8999000499750184,0.4999000499750127,79.20009995002499,0.4,0.2,0.7000000000000001,4,3,1,290,1,0
2022-05-24 06:21:54.048800+01:00,0.375,0.8065972222222216,10.090798611111111,0.5,-0.25,0.8631944444444433,1,1,79.5,2,1.724829235382309,0.5179609195402299,1,1,0,1653369707.0013323,1,0,0,0,0,0,5,56.07040200087113,10.160377006097857,1,1,0.9000000000000057,0.5,79.2,0.4,0.2,0.7000000000000001,4,3,1,290,1,0
2022-05-24 06:21:54.049299968+01:00,0.375,0.8077546296296345,10.091377314814817,0.5,-0.25,0.865509259259269,1,1,79.5,2,1.7249296851574218,0.5179839080459772,1,1,0,1653369707.001845,1,0,0,0,0,0,5,56.070402001383556,10.16037700968484,1,1,0.899948754740192,0.5001024905196274,79.19748898226914,0.4,0.20005124525981371,0.7000000000000001,6,3,1,290,1,0
2022-05-24 06:21:54.049649920+01:00,0.375,0.8085648148148137,10.091782407407408,0.5,-0.25,0.8671296296296275,1,1,79.5,2,1.725,0.518,1,1,0,1653369707.0022035,1,0,0,0,0,0,5,56.07040200174225,10.16037701219573,1,1,0.8999128830583228,0.5001742338833658,79.19573126985755,0.4,0.20008711694168288,0.7000000000000001,6,3,1,290,1,0
2022-05-24 06:21:54.049949952+01:00,0.375,0.8092592592592648,10.092129629629632,0.5,-0.25,0.8685185185185296,1,1,79.5,2,1.725108844931845,0.5179913907963513,1,1,0,1653369707.002511,1,0,0,0,0,0,5,56.070402002049704,10.16037701434792,1,1,0.8998821359024345,0.5002357281951425,79.19422465921902,0.4,0.20011786409757126,0.7000000000000001,6,3,1,290,1,0
2022-05-24 06:21:54.078350080+01:00,0.375,0.875,10.125,0.5,-0.25,1.0,1,1,79.5,2,1.7354128318130575,0.517176386184278,1,1,0,1653369707.0316184,1,0,0,0,0,0,5,56.070402031155524,10.160377218088632,1,1,0.8969714051450299,0.506057189709952,79.05159885210618,0.4,0.20302859485497596,0.7000000000000001,6,3,1,290,1,0
2022-05-24 06:21:54.173350144+01:00,0.5,0.75,10.125,0.5,-0.75,1.5,1,1,79.5,2,1.7698803935635965,0.5144501383622014,1,1,0,1653369707.1289842,1,0,0,0,0,0,5,56.07040212851653,10.160377899615664,1,1,0.8872348057804714,0.5255303884390703,78.57450548324279,0.4,0.212765194219535,0.7000000000000001,6,3,1,290,1,0
2022-05-24 06:21:54.270400+01:00,0.625,0.5,10.125,0.75,-0.5,2.5,1,1,79.5,2,1.8050917290150668,0.5116650609818592,1,1,0,1653369707.2284513,1,0,0,0,0,0,5,56.07040222797848,10.160378595849332,1,1,0.8772881008506781,0.5454237982986585,78.08711694168288,0.4,0.22271189914932893,0.7000000000000001,6,3,1,290,1,0
2022-05-24 06:21:54.374400+01:00,0.625,0.625,10.125,0.5,-0.25,4.5,1,1,79.5,2,1.8428246387209186,0.5086805370503228,1,1,0,1653369707.3350415,1,0,0,0,0,0,5,56.070402334563155,10.160379341942082,1,1,0.8666290868094776,0.5667418263810611,77.56482525366403,0.4,0.23337091319053005,0.7000000000000001,6,3,1,290,1,0
2022-05-24 06:21:54.475399936+01:00,0.625,1.0,10.0,0.25,-0.25,5.75,1,1,79.5,2,1.8794690991083323,0.5057821051552731,1,1,0,1653369707.438557,1,0,0,0,0,0,5,56.07040243807328,10.160380066512927,1,1,0.8562775443271579,0.5874449113457019,77.05759967203034,0.4,0.24372245567285034,0.7000000000000001,6,3,1,290,1,0
2022-05-24 06:21:54.576400128+01:00,0.625,0.75,10.125,-0.5,-0.5,6.5,1,1,79.5,2,1.9161135594957461,0.5028836732602235,1,1,0,1653369707.5420723,1,0,0,0,0,0,5,56.0704025415834,10.160380791083771,1,1,0.8459260018448381,0.6081479963103428,76.55037409039664,0.4,0.2540739981551706,0.7000000000000001,6,3,1,290,1,0
2022-05-24 06:21:54.677400064+01:00,0.625,0.75,10.125,0.0,-0.25,7.25,1,1,79.5,2,1.9527580198831611,0.4999852413651737,1,1,0,1653369707.6455877,1,0,0,0,0,0,5,56.070402645093516,10.160381515654615,1,1,0.8355744593625181,0.6288510812749843,76.04314850876293,0.4,0.2644255406374913,0.7000000000000001,6,3,1,290,1,0
2022-05-24 06:21:54.780450048+01:00,0.5,0.75,10.125,1.0,-0.25,8.75,1,1,79.5,2,1.9901462539715076,0.49702797991185815,1,1,0,1653369707.7512043,1,0,0,0,0,0,5,56.07040275070459,10.160382254932093,1,1,0.8250128113149631,0.6499743773700959,75.5256277544327,0.4,0.2749871886850469,0.7000000000000001,6,3,1,290,1,0
2022-05-24 06:21:54.882400+01:00,0.625,1.0,10.0,0.5,-0.5,9.5,1,1,79.5,2,2.0271353899764266,0.49410228553858776,1,1,0,1653369707.8556933,1,0,0,0,0,0,5,56.07040285518831,10.160382986318208,1,1,0.8145639028389978,0.6708721943220278,75.01363123911038,0.4,0.2854360971610127,0.7000000000000001,6,3,1,290,1,0
2022-05-24 06:21:54.990400+01:00,0.625,1.0,10.125,0.25,-0.5,10.25,1,1,79.5,2,2.066319565440196,0.4910029722250692,1,1,0,1653369707.9663832,1,0,0,0,0,0,5,56.070402965872404,10.160383761106834,1,1,0.8034949267192895,0.6930101465614461,74.47125140924463,0.4,0.29650507328072173,0.7000000000000001,6,3,1,290,1,0
2022-05-24 06:21:55.022799872+01:00,0.5823908469226737,0.9147816938453474,10.125,0.25,-0.4147816938453474,10.59087322461861,1,1,79.5,2,2.078074818079327,0.4900731782310137,1,1,0,1653369707.99959,1,0,0,0,0,0,5,56.07040299907763,10.160383993543421,1,1,0.800174233883377,0.6996515322332714,74.30853746028492,0.4,0.2998257661166343,0.7000000000000001,6,3,1,290,1,0
2022-05-24 06:21:55.023200+01:00,0.5818648079957897,0.9137296159915793,10.125,0.25,-0.4137296159915793,10.595081536033682,1,1,79.5,2,2.0782199446551193,0.4900616992928154,1,1,0,1653369708.0,1,0,0,0,0,0,5,56.07040299948757,10.160383996413008,1,1,0.800133237675526,0.6997335246489734,74.30652864610022,0.4,0.29986676232448534,0.7000000000000001,6,3,1,290,1,0
2022-05-24 06:21:55.023699968+01:00,0.5812072593371904,0.912414518674381,10.125,0.25,-0.41241451867438095,10.600341925302477,1,1,79.5,2,2.0784013528748586,0.49004735062006766,1,1,0,1653369708.00047,1,0,0,0,0,0,6,56.070403,10.160383999999993,1,1,0.8000819924157128,0.6998360151686002,74.30401762836937,0.4,0.29991800758429865,0.7000000000000001,6,3,1,290,1,0
2022-05-24 06:21:55.024000+01:00,0.5808127301420309,0.9116254602840619,10.125,0.25,-0.4116254602840619,10.603498158863752,1,1,79.5,2,2.078510197806702,0.490038741416419,1,1,0,1653369708.000752,1,0,0,0,0,0,6,56.070403,10.160383995488079,1,1,0.8000512452598247,0.6998975094803761,74.30251101773085,0.4,0.2999487547401867,0.7000000000000001,6,3,1,290,1,0
2022-05-24 06:21:55.024499968+01:00,0.5801551814834317,0.9103103629668635,10.125,0.25,-0.4103103629668635,10.608758548132545,1,1,79.5,2,2.0786916060264415,0.4900243927436713,1,1,0,1653369708.001222,1,0,0,0,0,0,6,56.070403,10.160383987968222,1,1,0.8000000000000114,0.7000000000000028,74.3,0.4,0.30000000000000004,0.7000000000000001,6,3,1,290,1,0
2022-05-24 06:21:55.024950016+01:00,0.5795633876906902,0.9091267753813803,10.125,0.25,-0.40912677538138026,10.61349289847448,1,1,79.5,2,2.0788548734242074,0.4900114789381983,1,1,0,1653369708.0016448,1,0,0,0,0,0,6,56.070403,10.16038398120035,1,1,0.799957702791627,0.7002114860419244,74.29399379640942,0.3999577027916157,0.30000000000000004,0.7000000000000001,7,3,1,290,1,0
2022-05-24 06:21:55.025350144+01:00,0.5790373487638061,0.9080746975276122,10.125,0.25,-0.40807469752761216,10.617701209889551,1,1,79.5,2,2.079,0.49,1,1,0,1653369708.002021,1,0,0,0,0,0,6,56.070403,10.160383975184464,1,1,0.799920105273063,0.7003994736347445,74.28865494877333,0.39992010527305166,0.30000000000000004,0.7000000000000001,7,3,1,290,1,0
2022-05-24 06:21:55.025649920+01:00,0.5786428195686466,0.9072856391372932,10.125,0.25,-0.40728563913729315,10.620857443450827,1,1,79.5,2,2.0790115612369586,0.48993514428047763,1,1,0,1653369708.002303,1,0,0,0,0,0,6,56.070403,10.16038397067255,1,1,0.7998919071341403,0.7005404643293583,74.2846508130463,0.3998919071341289,0.30000000000000004,0.7000000000000001,7,3,1,290,1,0
2022-05-24 06:21:55.085449984+01:00,0.5,0.75,10.125,0.25,-0.25,11.25,1,1,79.5,2,2.081316101137325,0.4770072375223238,1,1,0,1653369708.0585139,1,0,0,0,0,0,6,56.070403,10.16038307129764,1,1,0.7942710781088563,0.7286446094557796,73.48649309145594,0.39427107810884465,0.30000000000000004,0.7000000000000001,7,3,1,290,1,0
2022-05-24 06:21:55.185449984+01:00,0.625,0.875,10.125,0.5,-0.25,12.25,1,1,79.5,2,2.085169846790112,0.45538866434815295,1,1,0,1653369708.152512,1,0,0,0,0,0,6,56.070403,10.160381567326215,1,1,0.784871698467913,0.7756415076604988,72.15178118244191,0.3848716984679008,0.30000000000000004,0.7000000000000001,7,3,1,290,1,0
2022-05-24 06:21:55.288499968+01:00,0.625,1.0,10.0,0.75,-0.75,12.75,1,1,79.5,2,2.089141131685309,0.4331107246921702,1,1,0,1653369708.2493773,1,0,0,0,0,0,6,56.070403,10.160380017483664,1,1,0.7751856377479212,0.824071811260461,70.77636056020299,0.3751856377479084,0.30000000000000004,0.7000000000000001,7,3,1,290,1,0
2022-05-24 06:21:55.391500032+01:00,0.5,1.0,10.125,1.5,-0.75,13.5,1,1,79.5,2,2.0931104897076795,0.41084359432277495,1,1,0,1653369708.3461955,1,0,0,0,0,0,6,56.070403,10.160378468393098,1,1,0.7655042767177499,0.8724786164113201,69.40160729391859,0.36550427671773655,0.30000000000000004,0.7000000000000001,7,3,1,290,1,0
2022-05-24 06:21:55.493449984+01:00,0.625,1.0,10.0,1.25,-0.5,14.5,1,1,79.5,2,2.0970393834006957,0.3888034589717076,1,1,0,1653369708.4420266,1,0,0,0,0,0,6,56.070403,10.160376935094233,1,1,0.7559216091738081,0.9203919541310316,68.04086850267878,0.3559216091737943,0.30000000000000004,0.7000000000000001,7,3,1,290,1,0
2022-05-24 06:21:55.593499904+01:00,0.625,1.125,10.0,1.25,-0.5,15.5,1,1,79.5,2,2.100895055926309,0.3671740765109501,1,1,0,1653369708.5360718,1,0,0,0,0,0,6,56.070403,10.160375430370824,1,1,0.7465175298430445,0.9674123507848522,66.70548923771028,0.3465175298430302,0.30000000000000004,0.7000000000000001,7,3,1,290,1,0
2022-05-24 06:21:55.696499968+01:00,0.625,1.125,10.0,1.25,-0.5,16.25,1,1,79.5,2,2.1048644139486794,0.3449069461415548,1,1,0,1653369708.63289,1,0,0,0,0,0,6,56.070403,10.160373881280258,1,1,0.7368361688128733,1.0158191559357113,65.33073597142588,0.3368361688128583,0.30000000000000004,0.7000000000000001,7,3,1,290,1,0
2022-05-24 06:21:55.797499904+01:00,0.5,1.5,10.125,0.25,0.0,17.0,1,1,79.5,2,2.1087566970579945,0.32307218723564196,1,1,0,1653369708.7278283,1,0,0,0,0,0,6,56.070403,10.160372362269118,1,1,0.7273427953755205,1.063286023122478,63.9826769433217,0.327342795375505,0.30000000000000004,0.7000000000000001,7,3,1,290,1,0
2022-05-24 06:21:55.899499776+01:00,0.625,1.125,10.375,1.25,-0.5,18.0,1,1,79.5,2,2.112687517623837,0.3010212425979887,1,1,0,1653369708.8237064,1,0,0,0,0,0,6,56.070403,10.160370828218268,1,1,0.7177554281417587,1.1112228592912894,62.62127079612746,0.31775542814174274,0.30000000000000004,0.7000000000000001,7,3,1,290,1,0
2022-05-24 06:21:56.003549952+01:00,0.625,1.125,9.75,-0.75,-0.25,18.75,1,1,79.5,2,2.1166973399755618,0.278527117210264,1,1,0,1653369708.9215114,1,0,0,0,0,0,6,56.070403,10.160369263336001,1,1,0.7079753736253572,1.1601231318732994,61.23250305479838,0.3079753736253407,0.30000000000000004,0.7000000000000001,7,3,1,290,1,0
2022-05-24 06:21:56.086649856+01:00,0.625,1.4189858490566052,10.239976415094342,-0.1620283018867894,-0.8379716981132106,19.33797169811321,1,1,79.5,2,2.119899802613028,0.2605620829025279,1,1,0,1653369708.999624,1,0,0,0,0,0,6,56.070403,10.160368013535749,1,1,0.7001644891437333,1.1991775542814214,60.12335745840772,0.30016448914371635,0.30000000000000004,0.7000000000000001,7,3,1,290,1,0
2022-05-24 06:21:56.087049984+01:00,0.625,1.4204009433962246,10.242334905660375,-0.15919811320755073,-0.8408018867924493,19.34080188679245,1,1,79.5,2,2.119915217595639,0.26047560860983143,1,1,0,1653369709.0,1,0,0,0,0,0,6,56.070403,10.160368007519862,1,1,0.7001268916251697,1.1993655418742397,60.11801861077167,0.30012689162515266,0.30000000000000004,0.7000000000000001,7,3,1,290,1,0
2022-05-24 06:21:56.087549952+01:00,0.625,1.4221698113207488,10.245283018867914,-0.15566037735850247,-0.8443396226414975,19.3443396226415,1,1,79.5,2,2.1199344863239027,0.26036751574396083,1,1,0,1653369709.000533,1,0,0,0,0,0,5,56.070403,10.160368000000005,1,1,0.7000798947269651,1.1996005263652627,60.11134505122662,0.30007989472694807,0.30000000000000004,0.7000000000000001,7,3,1,290,1,0
2022-05-24 06:21:56.087899904+01:00,0.625,1.423408018867922,10.247346698113203,-0.1531839622641561,-0.8468160377358439,19.346816037735845,1,1,79.5,2,2.1199479744336873,0.260291850737851,1,1,0,1653369709.0009065,1,0,0,0,0,0,5,56.07040300447928,10.160368008958573,1,1,0.7000469968982217,1.1997650155089798,60.10667355954506,0.30004699689820463,0.30000000000000004,0.7000000000000001,7,3,1,290,1,0
2022-05-24 06:21:56.088399872+01:00,0.625,1.4251768867924461,10.250294811320744,-0.14964622641510772,-0.8503537735848923,19.350353773584892,1,1,79.50005332480137,2,2.1199672431619514,0.26018375787198045,1,1,0,1653369709.0014398,1,0,0,0,0,0,5,56.07040301087826,10.160368021756524,1,1,0.700000000000017,1.2000000000000028,60.1,0.30000000000000004,0.30000000000000004,0.7000000000000001,7,3,1,290,1,0
2022-05-24 06:21:56.088849920+01:00,0.625,1.426768867924524,10.252948113207541,-0.14646226415095176,-0.8535377358490482,19.35353773584905,1,1,79.5001013171226,2,2.119984585017389,0.2600864742926965,1,1,0,1653369709.0019195,1,0,0,0,0,0,5,56.070403016637336,10.16036803327468,1,1,0.6998080307151023,1.2001439769636888,60.090017597184435,0.29995200767877134,0.30000000000000004,0.7000000000000001,9,3,1,290,1,0
2022-05-24 06:21:56.089250048+01:00,0.625,1.4281839622641435,10.255306603773573,-0.14363207547171308,-0.8563679245282869,19.356367924528286,1,1,79.50014397696368,2,2.12,0.26,1,1,0,1653369709.0023463,1,0,0,0,0,0,5,56.07040302175652,10.160368043513044,1,1,0.6996373913507343,1.2002719564869648,60.0811443502373,0.29990934783767936,0.30000000000000004,0.7000000000000001,9,3,1,290,1,0
2022-05-24 06:21:56.089499904+01:00,0.625,1.429068396226412,10.256780660377354,-0.1418632075471763,-0.8581367924528237,19.358136792452825,1,1,79.50017063936437,2,2.1201543752999528,0.2599714712312695,1,1,0,1653369709.0026128,1,0,0,0,0,0,5,56.07040302495601,10.16036804991202,1,1,0.6995307417480036,1.2003519436890129,60.0755985708953,0.2998826854369967,0.30000000000000004,0.7000000000000001,9,3,1,290,1,0
2022-05-24 06:21:56.109550080+01:00,0.625,1.5,10.375,0.0,-1.0,19.5,1,1,79.50230896389911,2,2.132535274356105,0.2576834639790964,1,1,0,1653369709.023995,1,0,0,0,0,0,5,56.07040328155495,10.160368563109907,1,1,0.6909774436090386,1.2067669172932365,59.630827067669124,0.2977443609022554,0.30000000000000004,0.7000000000000001,9,3,1,290,1,0
2022-05-24 06:21:56.203550208+01:00,0.75,1.25,9.75,0.5,-0.25,20.25,1,1,79.51233402655579,2,2.190580387138058,0.2469566469364902,1,1,0,1653369709.1242402,1,0,0,0,0,0,5,56.07040448456247,10.160370969124944,1,1,0.6508771929824726,1.2368421052631602,57.54561403508773,0.2877192982456141,0.30000000000000004,0.7000000000000001,9,3,1,290,1,0
2022-05-24 06:21:56.305550080+01:00,0.75,1.5,10.0,1.0,-1.25,20.75,1,1,79.52321228603432,2,2.2535655095184772,0.23531690929451288,1,1,0,1653369709.233017,1,0,0,0,0,0,5,56.070405789953604,10.160373579907219,1,1,0.6073641550685381,1.2694768836986103,55.28293606356317,0.2768410387671306,0.30000000000000004,0.7000000000000001,9,3,1,290,1,0
2022-05-24 06:21:56.406550016+01:00,0.875,1.125,10.125,3.5,-0.75,21.5,1,1,79.53398389591011,2,2.3159331306990896,0.22379128672745666,1,1,0,1653369709.3407273,1,0,0,0,0,0,5,56.070407082546794,10.16037616509359,1,1,0.5642777155655236,1.3017917133258705,53.04244120940645,0.2660694288913772,0.30000000000000004,0.7000000000000001,9,3,1,290,1,0
2022-05-24 06:21:56.508600064+01:00,0.875,1.875,10.25,1.0,-0.25,21.25,1,1,79.54486748786877,2,2.378949128139498,0.2121458433317335,1,1,0,1653369709.4495575,1,0,0,0,0,0,5,56.070408388577825,10.160378777155659,1,1,0.5207433477310439,1.3344424892017295,50.77865408201353,0.25518583693275737,0.30000000000000004,0.7000000000000001,9,3,1,290,1,0
2022-05-24 06:21:56.610550016+01:00,0.875,1.875,9.875,1.0,0.25,20.5,1,1,79.55574041486716,2,2.441903375459926,0.20051181144350244,1,1,0,1653369709.558281,1,0,0,0,0,0,5,56.07040969332907,10.160381386658138,1,1,0.4772516397376563,1.3670612701967695,48.517085266357405,0.24431290993441063,0.30000000000000004,0.7000000000000001,9,3,1,290,1,0
2022-05-24 06:21:56.712549888+01:00,1.0,1.375,9.75,-0.75,0.0,20.0,1,1,79.56661867434568,2,2.504888497840345,0.18887207380152515,1,1,0,1653369709.6670578,1,0,0,0,0,0,5,56.070410998720206,10.160383997440412,1,1,0.4337386018237218,1.3996960486322196,46.254407294832845,0.23343465045592715,0.30000000000000004,0.7000000000000001,9,3,1,290,1,0
2022-05-24 06:21:56.812599808+01:00,0.875,1.75,10.375,-0.5,-1.0,19.5,1,1,79.57728896709888,2,2.566669492881138,0.17745486055564458,1,1,0,1653369709.7737548,1,0,0,0,0,0,5,56.070412279155335,10.160386558310673,1,1,0.3910574308110835,1.4317069268916975,44.03498640217569,0.2227643577027677,0.30000000000000004,0.7000000000000001,9,3,1,290,1,0
2022-05-24 06:21:56.920600064+01:00,1.0,1.5,10.0,0.75,-1.0,19.0,1,1,79.58880712419379,2,2.633359622460406,0.16513043246413917,1,1,0,1653369709.8889303,1,0,0,0,0,0,5,56.070413661334186,10.160389322668376,1,1,0.3449848024316234,1.4662613981762918,41.639209726443795,0.21124620060790283,0.30000000000000004,0.7000000000000001,9,3,1,290,1,0
2022-05-24 06:21:57.022599936+01:00,0.875,1.5,10.25,0.75,-0.25,18.25,1,1,79.59968538367231,2,2.696344744840825,0.15349069482216185,1,1,0,1653369709.9977071,1,0,0,0,0,0,5,56.07041496672532,10.160391933450649,1,1,0.3014717645176889,1.498896176611742,39.376531754919235,0.20036794112941939,0.30000000000000004,0.7000000000000001,9,3,1,290,1,0
2022-05-24 06:21:57.024349952+01:00,0.8772786458333349,1.5045572916666698,10.243164062499995,0.75455729166667,-0.2545572916666699,18.23177083333332,1,1,79.5998720204771,2,2.69742537194049,0.15329099344104935,1,1,0,1653369709.9995735,1,0,0,0,0,0,5,56.07041498912174,10.160391978243483,1,1,0.30072521729857676,1.499456087026076,39.33771129952541,0.20018130432464137,0.30000000000000004,0.7000000000000001,9,3,1,290,1,0
2022-05-24 06:21:57.024750080+01:00,0.8777994791666671,1.5055989583333342,10.2416015625,0.7555989583333341,-0.2555989583333342,18.227604166666662,1,1,79.59991468031818,2,2.6976723724204126,0.15324534741108092,1,1,0,1653369710.0,1,0,0,0,0,0,5,56.07041499424092,10.160391988481845,1,1,0.3005545779342088,1.4995840665493518,39.32883805257827,0.20013864448354934,0.30000000000000004,0.7000000000000001,9,3,1,290,1,0
2022-05-24 06:21:57.025199872+01:00,0.878385416666668,1.506770833333336,10.239843749999997,0.7567708333333361,-0.25677083333333606,18.222916666666656,1,1,79.5999626726394,2,2.6979502479603266,0.15319399562736624,1,1,0,1653369710.000451,1,0,0,0,0,0,4,56.070415,10.160392000000002,1,1,0.3003626086492941,1.499728043513038,39.3188556497627,0.2000906521623207,0.30000000000000004,0.7000000000000001,9,3,1,290,1,0
2022-05-24 06:21:57.025549824+01:00,0.878841145833336,1.507682291666672,10.238476562499992,0.7576822916666719,-0.2576822916666719,18.21927083333331,1,1,79.60000000000036,2,2.6981663733802597,0.15315405535114365,1,1,0,1653369710.000802,1,0,0,0,0,0,4,56.07041500912326,10.160392013334004,1,1,0.30021329920547135,1.499840025595905,39.31109155868393,0.200053324801365,0.30000000000000004,0.7000000000000001,9,3,1,290,1,0
2022-05-24 06:21:57.026050048+01:00,0.8794921875000011,1.5089843750000023,10.236523437499997,0.7589843750000022,-0.2589843750000022,18.21406249999999,1,1,79.60005012782632,2,2.698475123980163,0.15309699781368313,1,1,0,1653369710.0013034,1,0,0,0,0,0,4,56.070415022156496,10.160392032382576,1,1,0.30000000000001137,1.5,39.300000000000004,0.2,0.30000000000000004,0.7000000000000001,9,3,1,290,1,0
2022-05-24 06:21:57.026500096+01:00,0.880078125000002,1.510156250000004,10.234765624999994,0.7601562500000041,-0.2601562500000041,18.209374999999984,1,1,79.60009524286968,2,2.698752999520077,0.15304564602996842,1,1,0,1653369710.0017545,1,0,0,0,0,0,4,56.070415033886405,10.160392049526294,1,1,0.2998646480850322,1.5000451173049931,39.29327752155604,0.2,0.30000000000000004,0.7000000000000001,11,4,1,290,1,0
2022-05-24 06:21:57.026899968+01:00,0.8805989583333341,1.5111979166666683,10.233203124999998,0.7611979166666684,-0.2611979166666683,18.205208333333328,1,1,79.60013534513044,2,2.699,0.153,1,1,0,1653369710.0021555,1,0,0,0,0,0,4,56.070415044312995,10.160392064765153,1,1,0.29974433527171784,1.5000852215760978,39.28730198516143,0.2,0.30000000000000004,0.7000000000000001,11,4,1,290,1,0
2022-05-24 06:21:57.027200+01:00,0.8809895833333332,1.5119791666666664,10.23203125,0.7619791666666665,-0.2619791666666665,18.202083333333334,1,1,79.60016542182602,2,2.699323039903749,0.1530060156406657,1,1,0,1653369710.0024562,1,0,0,0,0,0,4,56.07041505213294,10.160392076194297,1,1,0.2996541006617321,1.5001152997794265,39.28282033286547,0.2,0.30000000000000004,0.7000000000000001,11,4,1,290,1,0
2022-05-24 06:21:57.118599936+01:00,1.0,1.75,9.875,1.0,-0.5,17.25,1,1,79.60932878841085,2,2.797742530579506,0.1548387808301584,1,1,0,1653369710.09409,1,0,0,0,0,0,4,56.070417434608245,10.1603955582736,1,1,0.2721626228193408,1.5092791257268907,37.917410266693416,0.2,0.30000000000000004,0.7000000000000001,11,4,1,290,1,0
2022-05-24 06:21:57.219650048+01:00,1.125,2.0,10.0,-0.5,-0.75,16.0,1,1,79.61945962203663,2,2.9065531381592145,0.1568650491277321,1,1,0,1653369710.1953983,1,0,0,0,0,0,4,56.07042006862499,10.160399407990376,1,1,0.241768598355734,1.5194104672147601,36.407840385001,0.2,0.30000000000000004,0.7000000000000001,11,4,1,290,1,0
2022-05-24 06:21:57.321649920+01:00,1.0,1.5,10.0,-1.5,-0.75,14.25,1,1,79.62968569853173,2,3.0163867054341296,0.15891036695408062,1,1,0,1653369710.297659,1,0,0,0,0,0,4,56.070422727404875,10.160403293899442,1,1,0.21108883096050512,1.5296370563465036,34.88407860437136,0.2,0.30000000000000004,0.7000000000000001,11,4,1,290,1,0
2022-05-24 06:21:57.422650112+01:00,1.125,1.375,10.125,-1.25,-0.75,13.0,1,1,79.63981151937492,2,3.1251434730298775,0.16093563264487667,1,1,0,1653369710.3989172,1,0,0,0,0,0,4,56.07042536011829,10.160407141711362,1,1,0.18070984559856315,1.5397633848004846,33.3752556647283,0.2,0.30000000000000004,0.7000000000000001,11,4,1,290,1,0
2022-05-24 06:21:57.524649984+01:00,1.25,1.25,9.625,0.5,-1.25,12.0,1,1,79.65003759587002,2,3.234977040304793,0.1629809504712252,1,1,0,1653369710.501178,1,0,0,0,0,0,4,56.070428018898184,10.160411027620428,1,1,0.15003007820333428,1.549989973932228,31.851493884098655,0.2,0.30000000000000004,0.7000000000000001,11,4,1,290,1,0
2022-05-24 06:21:57.625649920+01:00,1.125,1.25,10.375,3.0,0.0,11.0,1,1,79.6601634167132,2,3.343733807900541,0.16500621616202127,1,1,0,1653369710.6024363,1,0,0,0,0,0,4,56.0704306516116,10.160414875432348,1,1,0.1196510928413923,1.5601163023862092,30.342670944455598,0.2,0.30000000000000004,0.7000000000000001,11,4,1,290,1,0
2022-05-24 06:21:57.724649984+01:00,1.125,1.75,10.0,2.0,0.0,9.5,1,1,79.67008872625256,2,3.4503369761379585,0.16699137758171245,1,1,0,1653369710.7016892,1,0,0,0,0,0,4,56.07043323219208,10.16041864704997,1,1,0.08987367154602313,1.5700421094846662,28.86372568678565,0.2,0.30000000000000004,0.7000000000000001,11,4,1,290,1,0
2022-05-24 06:21:57.827650048+01:00,1.125,1.625,10.375,0.25,-0.75,8.5,1,1,79.68041505839957,2,3.561247343092041,0.16905674754361344,1,1,0,1653369710.8049526,1,0,0,0,0,0,4,56.07043591703844,10.160422571056186,1,1,0.05889312211750733,1.5803689592941719,27.325025065169424,0.2,0.30000000000000004,0.7000000000000001,11,4,1,290,1,0
2022-05-24 06:21:57.938649856+01:00,1.0,1.375,9.75,-1.5,0.25,7.0,1,1,79.69154343576189,2,3.680772107479449,0.1712825345899339,1,1,0,1653369710.9162364,1,0,0,0,0,0,4,56.070438810416555,10.160426799839582,1,1,0.02550631642269935,1.591497894525775,25.666813715660687,0.2,0.30000000000000004,0.7000000000000001,11,4,1,290,1,0
2022-05-24 06:21:58.021750016+01:00,1.1048712771327607,1.0603861686017177,9.959742554265521,-1.2902574457344786,-1.0084553255931288,5.741544674406871,1,1,79.69987468043584,2,3.770254160818128,0.17294886705434132,1,1,0,1653369710.999549,1,0,0,0,0,0,4,56.07044097654016,10.160429965712558,1,1,0.0005113294565870508,1.599829556847813,24.42539602967716,0.2,0.30000000000000004,0.7000000000000001,11,4,1,290,1,0
2022-05-24 06:21:58.022200064+01:00,1.1054391721352856,1.058682483594143,9.96087834427057,-1.2891216557294287,-1.0152700656234277,5.734729934376572,1,1,79.6999197954792,2,3.7707387206737533,0.17295789051533994,1,1,0,1653369711.0,1,0,0,0,0,0,4,56.07044098827008,10.160429982856275,1,1,0.00037597754160784147,1.5998746741528058,24.41867355123319,0.2,0.30000000000000004,0.7000000000000001,11,4,1,290,1,0
2022-05-24 06:21:58.022650112+01:00,1.1060070671378106,1.0569787985865684,9.962014134275622,-1.287985865724379,-1.0220848056537264,5.727915194346274,1,1,79.69996491052255,2,3.7712232805293784,0.17296691397633854,1,1,0,1653369711.0004225,1,0,0,0,0,0,4,56.07044099999999,10.160429999999991,1,1,0.0002406256266286877,1.599919791457799,24.41195107278923,0.2,0.30000000000000004,0.7000000000000001,11,4,1,290,1,0
2022-05-24 06:21:58.023000064+01:00,1.106448763250886,1.0556537102473422,9.962897526501772,-1.2871024734982282,-1.0273851590106315,5.722614840989369,1,1,79.70000000000073,2,3.771600160417088,0.1729739322237819,1,1,0,1653369711.000751,1,0,0,0,0,0,4,56.070441011829864,10.160430007886575,1,1,0.00013535191497809906,1.5999548826950158,24.406722478443914,0.2,0.30000000000000004,0.7000000000000001,11,4,1,290,1,0
2022-05-24 06:21:58.023449856+01:00,1.1070166582534064,1.0539500252397809,9.964033316506812,-1.2859666834931873,-1.0341998990408767,5.7158001009591235,1,1,79.70000000000073,2,3.7720847202727095,0.17298295568478045,1,1,0,1653369711.0011735,1,0,0,0,0,0,4,56.070441027039706,10.160430018026467,1,1,0.0,1.6000000000000085,24.400000000000002,0.2,0.30000000000000004,0.7000000000000001,11,4,1,290,1,0
2022-05-24 06:21:58.023950080+01:00,1.1076476527006582,1.052057041898025,9.965295305401316,-1.2847046945986835,-1.0417718324078993,5.7082281675921,1,1,79.70000000000073,2,3.7726231201122946,0.17299298175255673,1,1,0,1653369711.001643,1,0,0,0,0,0,4,56.070441043939525,10.160430029293016,1,1,-0.00018777579570082,1.6000469439489338,24.39854473758332,0.2,0.30000000000000004,0.7000000000000001,13,4,1,290,1,0
2022-05-24 06:21:58.024300032+01:00,1.1080893488137291,1.0507319535588124,9.96617869762746,-1.2838213023725416,-1.0470721857647505,5.70292781423525,1,1,79.70000000000073,2,3.773,0.17300000000000001,1,1,0,1653369711.0019717,1,0,0,0,0,0,4,56.0704410557694,10.160430037179598,1,1,-0.000319218852689793,1.600079804713181,24.397526053891657,0.2,0.30000000000000004,0.7000000000000001,13,4,1,290,1,0
2022-05-24 06:21:58.024600064+01:00,1.108467945482082,1.0495961635537536,9.966935890964164,-1.2830641090358357,-1.0516153457849857,5.6983846542150145,1,1,79.70000000000073,2,3.773272087127972,0.17301126654774213,1,1,0,1653369711.0022533,1,0,0,0,0,0,4,56.07044106590929,10.160430043939527,1,1,-0.00043188433011081867,1.6001079710825363,24.396652896441644,0.2,0.30000000000000004,0.7000000000000001,13,4,1,290,1,0
