timestamps,AccelerationX,AccelerationY,AccelerationZ,AngularRateX,AngularRateY,AngularRateZ,ImuValid,AltitudeValid,Altitude,AltitudeAccuracy,Speed,SpeedAccuracy,SpeedValid,TimeValid,TimeConfirmed,Epoch,FenceValid,FenceCombined,Fence1,Fence2,Fence3,Fence4,PositionAccuracy,Latitude,Longitude,PositionValid,AttitudeValid,Roll,Pitch,Heading,RollAccuracy,PitchAccuracy,HeadingAccuracy,DistanceTrip,DistanceAccuracy,DistanceValid,DistanceTotal,FixType,Satellites
,m/s^2,m/s^2,m/s^2,deg/s,deg/s,deg/s,,,m,m,m/s,m/s,,,,sec,,,,,,,m,deg,deg,,,deg,deg,deg,deg,deg,deg,m,m,,km,,
2022-05-24 06:34:59.080549888+01:00,0.0,0.625,10.75,2.0,-0.25,-0.25,1,1,71.70000000000073,3,19.256,0.08600000000000001,1,1,1,1653370492.999,1,0,0,0,0,0,3,56.085915,10.186205000000001,1,1,0.700000000000017,0.0,40.1,0.2,0.2,0.30000000000000004,2322,12,1,294,4,12
2022-05-24 06:34:59.184550144+01:00,0.0,1.25,9.5,2.0,1.0,-1.0,1,1,71.70000000000073,3,19.256,0.08600000000000001,1,1,1,1653370492.999,1,0,0,0,0,0,3,56.085915,10.186205000000001,1,1,0.700000000000017,0.0,40.1,0.2,0.2,0.30000000000000004,2322,12,1,294,4,12
2022-05-24 06:34:59.284499968+01:00,-0.25,0.875,9.125,-2.25,-1.0,-0.75,1,1,71.70000000000073,3,19.256,0.08600000000000001,1,1,1,1653370492.999,1,0,0,0,0,0,3,56.085915,10.186205000000001,1,1,0.700000000000017,0.0,40.1,0.2,0.2,0.30000000000000004,2322,12,1,294,4,12
2022-05-24 06:34:59.387500032+01:00,-0.5,1.0,11.0,-0.75,-2.25,-1.75,1,1,71.70000000000073,3,19.256,0.08600000000000001,1,1,1,1653370492.999,1,0,0,0,0,0,3,56.085915,10.186205000000001,1,1,0.700000000000017,0.0,40.1,0.2,0.2,0.30000000000000004,2322,12,1,294,4,12
2022-05-24 06:34:59.487549952+01:00,-1.25,0.375,10.625,-0.75,0.75,-1.5,1,1,71.70000000000073,3,19.256,0.08600000000000001,1,1,1,1653370492.999,1,0,0,0,0,0,3,56.085915,10.186205000000001,1,1,0.700000000000017,0.0,40.1,0.2,0.2,0.30000000000000004,2322,12,1,294,4,12
2022-05-24 06:34:59.589550080+01:00,-0.875,0.25,10.625,2.0,1.0,-1.0,1,1,71.70000000000073,3,19.256,0.08600000000000001,1,1,1,1653370492.999,1,0,0,0,0,0,3,56.085915,10.186205000000001,1,1,0.700000000000017,0.0,40.1,0.2,0.2,0.30000000000000004,2322,12,1,294,4,12
2022-05-24 06:34:59.700550144+01:00,-1.0,1.0,8.375,3.0,-1.5,-1.25,1,1,71.70000000000073,3,19.256,0.08600000000000001,1,1,1,1653370492.999,1,0,0,0,0,0,3,56.085915,10.186205000000001,1,1,0.700000000000017,0.0,40.1,0.2,0.2,0.30000000000000004,2322,12,1,294,4,12
2022-05-24 06:34:59.800549888+01:00,-1.125,1.0,10.375,3.75,-2.5,-1.0,1,1,71.70000000000073,3,19.256,0.08600000000000001,1,1,1,1653370492.999,1,0,0,0,0,0,3,56.085915,10.186205000000001,1,1,0.700000000000017,0.0,40.1,0.2,0.2,0.30000000000000004,2322,12,1,294,4,12
2022-05-24 06:34:59.871750144+01:00,-1.0351010101009948,0.8202020202019896,10.824494949495026,2.311616161615917,-0.8818181818179065,-1.1797979797980105,1,1,71.70000000000073,3,19.256,0.08600000000000001,1,1,1,1653370492.999,1,0,0,0,0,0,3,56.085915,10.186205000000001,1,1,0.700000000000017,0.0,40.1,0.2,0.2,0.30000000000000004,2322,12,1,294,4,12
2022-05-24 06:34:59.872150016+01:00,-1.0345959595959633,0.8191919191919268,10.827020202020183,2.303535353535414,-0.8727272727273405,-1.1808080808080732,1,1,71.70000000000073,3,19.256,0.08600000000000001,1,1,1,1653370492.999,1,0,0,0,0,0,3,56.085915,10.186205000000001,1,1,0.700000000000017,0.0,40.1,0.2,0.2,0.30000000000000004,2322,12,1,294,4,12
2022-05-24 06:34:59.872649984+01:00,-1.0339646464646293,0.8179292929292584,10.830176767676853,2.2934343434340674,-0.8613636363633257,-1.1820707070707415,1,1,71.70000000000073,3,19.256,0.08600000000000001,1,1,1,1653370492.9994936,1,0,0,0,0,0,3,56.085915,10.186205000000001,1,1,0.700000000000017,0.0,40.1,0.2,0.2,0.30000000000000004,2322,12,1,294,4,12
2022-05-24 06:34:59.872999936+01:00,-1.0335227272727132,0.8170454545454264,10.832386363636434,2.286363636363412,-0.8534090909088383,-1.1829545454545736,1,1,71.70000000000073,3,19.256,0.08600000000000001,1,1,1,1653370492.999839,1,0,0,0,0,0,3,56.085915045595854,10.186205066666668,1,1,0.700000000000017,0.0,40.1,0.2,0.2,0.30000000000000004,2322,12,1,294,4,12
2022-05-24 06:34:59.873449984+01:00,-1.0329545454545304,0.8159090909090609,10.835227272727348,2.2772727272724875,-0.843181818181548,-1.184090909090939,1,1,71.70008882309473,3,19.256,0.08600000000000001,1,1,1,1653370493.000283,1,0,0,0,0,0,3,56.0859151042191,10.186205152380953,1,1,0.700000000000017,0.0,40.1,0.2,0.2,0.30000000000000004,2322,12,1,294,4,12
2022-05-24 06:34:59.873949952+01:00,-1.032323232323232,0.8146464646464644,10.83838383838384,2.267171717171715,-0.8318181818181791,-1.1853535353535356,1,1,71.7001875154214,3,19.256,0.08600000000000001,1,1,1,1653370493.0007765,1,0,0,0,0,0,3,56.085915169356035,10.186205247619048,1,1,0.7002467308166902,0.0,40.10009869232667,0.2,0.2,0.30000000000000004,2322,12,1,294,4,12
2022-05-24 06:34:59.874350080+01:00,-1.0318181818181649,0.8136363636363297,10.840909090909175,2.259090909090638,-0.8227272727269674,-1.1863636363636703,1,1,71.70026646928274,3,19.256,0.08600000000000001,1,1,1,1653370493.0011714,1,0,0,0,0,0,3,56.085915221465584,10.186205323809524,1,1,0.7004441154700399,0.0,40.10017764618801,0.2,0.2,0.30000000000000004,2322,12,1,294,4,12
2022-05-24 06:34:59.874599936+01:00,-1.0315025252525156,0.8130050505050315,10.842487373737422,2.2540404040402517,-0.817045454545283,-1.1869949494949685,1,1,71.70031581544607,3,19.255813955783662,0.08599950651401501,1,1,1,1653370493.001418,1,0,0,0,0,0,3,56.08591525403405,10.186205371428573,1,1,0.7005674808783766,0.0,40.100226992351345,0.2,0.2,0.30000000000000004,2322,12,1,294,4,12
2022-05-24 06:34:59.899549952+01:00,-1.0,0.75,11.0,1.75,-0.25,-1.25,1,1,71.70524056254698,3,19.23724674299251,0.08595025661271223,1,1,1,1653370493.0260417,1,0,0,0,0,0,3,56.085918504367136,10.186210123809525,1,1,0.7128793486306538,0.0,40.10515173945225,0.2,0.2,0.30000000000000004,2322,12,1,294,4,12
2022-05-24 06:34:59.999550208+01:00,-1.125,0.625,11.125,-1.75,2.75,-1.5,1,1,71.72497902788129,3,19.16282905645481,0.08575286221871303,1,1,1,1653370493.1247342,1,0,0,0,0,0,3,56.085931531754255,10.186229171428572,1,1,0.7622255119664517,0.0,40.124890204786574,0.2,0.2,0.30000000000000004,2322,12,1,294,4,12
2022-05-24 06:35:00.100600064+01:00,-1.0,0.625,8.875,-1.25,-0.75,-1.5,1,1,71.74492474710159,3,19.08762998420845,0.0855533951835768,1,1,1,1653370493.2244627,1,0,0,0,0,0,3,56.08594469592894,10.186248419047619,1,1,0.8120898100172856,0.0,40.14483592400691,0.2,0.2,0.30000000000000004,2322,12,1,294,4,12
2022-05-24 06:35:00.198599936+01:00,-1.0,0.5,10.75,1.5,-2.0,-1.25,1,1,71.76426844312921,3,19.014700651401512,0.0853599486774576,1,1,1,1653370493.321181,1,0,0,0,0,0,3,56.08595746276831,10.186267085714286,1,1,0.8604490500863627,0.0,40.16417962003454,0.2,0.2,0.30000000000000004,2322,12,1,294,4,12
2022-05-24 06:35:00.300600064+01:00,-1.125,0.625,10.625,0.0,-0.25,-1.0,1,1,71.7844016777702,3,18.93879461113305,0.08515860639557839,1,1,1,1653370493.4218473,1,0,0,0,0,0,3,56.085970750703176,10.186286514285714,1,1,0.9107821366888814,0.0,40.18431285467555,0.2,0.2,0.30000000000000004,2322,12,1,294,4,12
2022-05-24 06:35:00.407599872+01:00,-1.125,0.625,11.0,1.75,0.0,-1.0,1,1,71.80552183567791,3,18.85916768653771,0.08494739439399923,1,1,1,1653370493.5274482,1,0,0,0,0,0,3,56.08598469000739,10.186306895238094,1,1,0.9635825314581878,0.0,40.20543301258327,0.2,0.2,0.30000000000000004,2322,12,1,294,4,12
2022-05-24 06:35:00.508649984+01:00,-1.125,0.75,10.375,1.5,-0.25,-1.0,1,1,71.82546755489822,3,18.78396861429135,0.084747927358863,1,1,1,1653370493.6271768,1,0,0,0,0,0,3,56.085997854182075,10.18632614285714,1,1,1.0134468295090218,0.0,40.2253787318036,0.2,0.2,0.30000000000000004,2322,12,1,294,4,12
2022-05-24 06:35:00.609600+01:00,-1.0,0.75,9.0,0.0,-0.5,-1.25,1,1,71.8453935356532,3,18.70884395973155,0.08454865771812083,1,1,1,1653370493.7268066,1,0,0,0,0,0,3,56.08601100532937,10.186345371428569,1,1,1.0632617813965042,0.0,40.2453047125586,0.2,0.2,0.30000000000000004,2322,12,1,294,4,12
2022-05-24 06:35:00.715650048+01:00,-1.125,0.75,9.375,-1.0,1.25,-1.0,1,1,71.86632617814023,3,18.629924003158308,0.08433932096328464,1,1,1,1653370493.8314698,1,0,0,0,0,0,3,56.08602482087341,10.186365571428569,1,1,1.115593387614126,0.0,40.26623735504565,0.2,0.2,0.30000000000000004,2322,12,1,294,4,12
2022-05-24 06:35:00.818650112+01:00,-0.875,0.75,10.0,-1.75,-1.25,-1.0,1,1,71.88665679743455,3,18.553273786024466,0.08413600473746544,1,1,1,1653370493.9331229,1,0,0,0,0,0,3,56.08603823908214,10.186385190476187,1,1,1.166419935850005,0.0,40.28656797434,0.2,0.2,0.30000000000000004,2322,12,1,294,4,12
2022-05-24 06:35:00.884999936+01:00,-0.9623026315789482,0.9246052631578966,10.261907894736845,0.34526315789475914,-0.376973684210517,-1.0,1,1,71.89975326918386,3,18.5038976510067,0.08400503355704696,1,1,1,1653370493.9986053,1,0,0,0,0,0,3,56.08604688275349,10.186397828571426,1,1,1.1991611152233086,0.0,40.299664446089324,0.2,0.2,0.30000000000000004,2322,12,1,294,4,12
2022-05-24 06:35:00.885400064+01:00,-0.9628289473684021,0.9256578947368042,10.263486842105205,0.3578947368416494,-0.37171052631597945,-1.0,1,1,71.8998322230452,3,18.50359998026056,0.08400424397947098,1,1,1,1653370493.999,1,0,0,0,0,0,3,56.08604693486304,10.186397904761902,1,1,1.1993584998766444,0.0,40.29974339995066,0.2,0.2,0.30000000000000004,2322,12,1,294,4,12
2022-05-24 06:35:00.885900032+01:00,-0.963486842105266,0.9269736842105321,10.265460526315797,0.37368421052638423,-0.36513157894733994,-1.0,1,1,71.89993091537188,3,18.50322789182786,0.08400325700750096,1,1,1,1653370493.9995184,1,0,0,0,0,0,3,56.08604699999998,10.186397999999997,1,1,1.1996052306933316,0.0,40.29984209227733,0.2,0.2,0.30000000000000004,2322,12,1,294,4,12
2022-05-24 06:35:00.886249984+01:00,-0.9639473684210521,0.9278947368421041,10.266842105263157,0.38473684210525017,-0.36052631578947925,-1.0,1,1,71.90000000000055,3,18.50296742992498,0.08400256612712197,1,1,1,1653370493.9998815,1,0,0,0,0,0,3,56.086047046088424,10.186398067136707,1,1,1.1997779422650057,0.0,40.299911176906,0.2,0.2,0.30000000000000004,2322,12,1,294,4,12
2022-05-24 06:35:00.886700032+01:00,-0.9645394736842109,0.9290789473684219,10.268618421052633,0.3989473684210627,-0.35460526315789065,-1.0,1,1,71.90009331743535,3,18.50263255033556,0.08400167785234897,1,1,1,1653370494.000348,1,0,0,0,0,0,3,56.086047105344996,10.186398153455334,1,1,1.200000000000017,0.0,40.300000000000004,0.2,0.2,0.30000000000000004,2322,12,1,294,4,12
2022-05-24 06:35:00.887200+01:00,-0.9651973684210375,0.930394736842075,10.270592105263113,0.4147368421049,-0.34802631578962506,-1.0,1,1,71.90019700347402,3,18.50226046190288,0.084000690880379,1,1,1,1653370494.0008664,1,0,0,0,0,0,3,56.086047171185626,10.18639824936492,1,1,1.1998444709420084,0.00010368603867244212,40.300000000000004,0.2,0.2,0.30000000000000004,2340,12,1,294,4,12
2022-05-24 06:35:00.887550208+01:00,-0.9656578947368235,0.9313157894736471,10.27197368421047,0.4257894736837655,-0.34342105263176437,-1.0,1,1,71.9002695837011,3,18.502,0.084,1,1,1,1653370494.0012293,1,0,0,0,0,0,3,56.08604721727407,10.18639831650163,1,1,1.1997356006014006,0.00017626626574433039,40.300000000000004,0.2,0.2,0.30000000000000004,2340,12,1,294,4,12
2022-05-24 06:35:00.887849984+01:00,-0.966052631578942,0.9321052631578839,10.273157894736826,0.4352631578946067,-0.33947368421058066,-1.0,1,1,71.9003317953243,3,18.501799056457042,0.08399937788376793,1,1,1,1653370494.0015404,1,0,0,0,0,0,3,56.08604725677846,10.186398374047382,1,1,1.19964228316659,0.00023847788895133197,40.300000000000004,0.2,0.2,0.30000000000000004,2340,12,1,294,4,12
2022-05-24 06:35:00.913649920+01:00,-1.0,1.0,10.375,1.25,0.0,-1.0,1,1,71.90568199491993,3,18.48451791176317,0.08394587588781169,1,1,1,1653370494.0282915,1,0,0,0,0,0,3,56.0860506541552,10.186403322982008,1,1,1.1916169837731518,0.0055886774845766525,40.300000000000004,0.2,0.2,0.30000000000000004,2340,12,1,294,4,12
2022-05-24 06:35:01.012649984+01:00,-1.0,0.5,9.375,1.75,0.5,-0.75,1,1,71.92621183057753,3,18.418206542589036,0.08374057753123541,1,1,1,1653370494.1309407,1,0,0,0,0,0,3,56.086063690600845,10.186422313079989,1,1,1.1608222302867108,0.026118513142203488,40.300000000000004,0.2,0.2,0.30000000000000004,2340,12,1,294,4,12
2022-05-24 06:35:01.114700032+01:00,-1.0,0.75,10.0,0.25,-2.25,-0.75,1,1,71.94737415107106,3,18.349852247394892,0.08352895432629998,1,1,1,1653370494.2367523,1,0,0,0,0,0,3,56.08607712867436,10.186441888226444,1,1,1.129078749546394,0.047280833635747546,40.300000000000004,0.2,0.2,0.30000000000000004,2340,12,1,294,4,12
2022-05-24 06:35:01.216649984+01:00,-0.875,1.0,10.5,1.75,0.75,-0.75,1,1,71.96851573435686,3,18.281564933381713,0.08331753849344184,1,1,1,1653370494.3424602,1,0,0,0,0,0,3,56.086090553579744,10.186461444190982,1,1,1.0973663746176718,0.06842241692156183,40.300000000000004,0.2,0.2,0.30000000000000004,2340,12,1,294,4,12
2022-05-24 06:35:01.318700032+01:00,-0.75,0.875,10.125,-0.75,-1.25,-0.75,1,1,71.98967805485037,3,18.213210638187565,0.0831059152885064,1,1,1,1653370494.4482718,1,0,0,0,0,0,3,56.08610399165326,10.186481019337437,1,1,1.065622893877355,0.08958473741510589,40.300000000000004,0.2,0.2,0.30000000000000004,2340,12,1,294,4,12
2022-05-24 06:35:01.419699968+01:00,-0.5,0.75,9.75,-1.0,-2.0,-0.75,1,1,72.01062263466268,3,18.145559645393746,0.08289646949038312,1,1,1,1653370494.5529945,1,0,0,0,0,0,3,56.08611729146145,10.186500393073763,1,1,1.0342060241588618,0.11052931722743428,40.300000000000004,0.2,0.2,0.30000000000000004,2340,12,1,294,4,12
2022-05-24 06:35:01.518699776+01:00,-0.625,0.75,10.375,-2.25,-2.0,-0.75,1,1,72.0311524703203,3,18.079248276219595,0.08269117113380679,1,1,1,1653370494.6556437,1,0,0,0,0,0,3,56.08613032790709,10.186519383171746,1,1,1.0034112706724119,0.131059152885067,40.300000000000004,0.2,0.2,0.30000000000000004,2340,12,1,294,4,12
2022-05-24 06:35:01.628699904+01:00,-0.5,1.25,10.125,-1.5,0.0,-1.0,1,1,72.05396339882876,3,18.005568977137226,0.08246306184872207,1,1,1,1653370494.7696984,1,0,0,0,0,0,3,56.0861448128467,10.186540483280615,1,1,0.9691948779097007,0.1538700813935406,40.300000000000004,0.2,0.2,0.30000000000000004,2340,12,1,294,4,12
2022-05-24 06:35:01.727699968+01:00,-0.375,0.75,10.125,-2.0,1.25,-1.0,1,1,72.07449323448635,3,17.939257607963093,0.0822577634921458,1,1,1,1653370494.8723476,1,0,0,0,0,0,3,56.08615784929234,10.186559473378596,1,1,0.9384001244232597,0.17439991705116745,40.300000000000004,0.2,0.2,0.30000000000000004,2340,12,1,294,4,12
2022-05-24 06:35:01.833750016+01:00,-0.375,0.5,9.625,-1.0,0.0,-1.0,1,1,72.09648504328929,3,17.868224065529574,0.08203784540411632,1,1,1,1653370494.9823067,1,0,0,0,0,0,3,56.08617181409093,10.186579815801737,1,1,0.9054124112188382,0.19639172585411463,40.300000000000004,0.2,0.2,0.30000000000000004,2340,12,1,294,4,12
2022-05-24 06:35:01.849449984+01:00,-0.375,0.5422043010752995,9.603897849462351,-0.7889784946235027,0.04220430107529946,-0.9577956989247005,1,1,72.09974078490367,3,17.857708020115084,0.0820052879879724,1,1,1,1653370494.9985852,1,0,0,0,0,0,3,56.08617388148686,10.18658282736273,1,1,0.9005287987972476,0.19964746746850828,40.300000000000004,0.2,0.2,0.30000000000000004,2340,12,1,294,4,12
2022-05-24 06:35:01.849849856+01:00,-0.375,0.5432795698924632,9.603360215053769,-0.7836021505376841,0.04327956989246318,-0.9567204301075368,1,1,72.09982373373461,3,17.85744009539116,0.08200445849966302,1,1,1,1653370494.999,1,0,0,0,0,0,3,56.08617393415936,10.186582904090399,1,1,0.9004043755508424,0.19973041629944507,40.300000000000004,0.2,0.2,0.30000000000000004,2340,12,1,294,4,12
2022-05-24 06:35:01.850349824+01:00,-0.375,0.5446236559140133,9.602688172042994,-0.7768817204299334,0.04462365591401333,-0.9553763440859867,1,1,72.0999274197733,3,17.857105189486226,0.08200342163927624,1,1,1,1653370494.9995143,1,0,0,0,0,0,3,56.086174,10.186582999999985,1,1,0.9002488464928249,0.1998341023381234,40.300000000000004,0.2,0.2,0.30000000000000004,2340,12,1,294,4,12
2022-05-24 06:35:01.850699776+01:00,-0.375,0.5455645161290602,9.602217741935469,-0.7721774193546989,0.045564516129060234,-0.9544354838709398,1,1,72.10000000000036,3,17.856870755352784,0.08200269583700552,1,1,1,1653370494.9998744,1,0,0,0,0,0,3,56.086174044287844,10.186583065531593,1,1,0.9001399761522171,0.19990668256519528,40.300000000000004,0.2,0.2,0.30000000000000004,2340,12,1,294,4,12
2022-05-24 06:35:01.851150080+01:00,-0.375,0.5467741935484172,9.601612903225792,-0.7661290322579142,0.046774193548417164,-0.9532258064515828,1,1,72.1000925878302,3,17.856569340038355,0.08200176266265745,1,1,1,1653370495.0003374,1,0,0,0,0,0,3,56.08617410122936,10.186583149786518,1,1,0.9000000000000057,0.20000000000000284,40.300000000000004,0.2,0.2,0.30000000000000004,2340,12,1,294,4,12
2022-05-24 06:35:01.851599872+01:00,-0.375,0.5479838709677741,9.601008064516114,-0.7600806451611295,0.0479838709677741,-0.9520161290322259,1,1,72.10018517566006,3,17.856267924723927,0.08200082948830938,1,1,1,1653370495.0008004,1,0,0,0,0,0,3,56.08617415817088,10.186583234041443,1,1,0.8997685423310412,0.19990741693241704,40.29986112539863,0.2,0.2,0.30000000000000004,2358,12,1,294,4,12
2022-05-24 06:35:01.852000+01:00,-0.375,0.5490591397849378,9.600470430107531,-0.754704301075311,0.04905913978493782,-0.9509408602150622,1,1,72.10026747595325,3,17.856,0.082,1,1,1,1653370495.001212,1,0,0,0,0,0,3,56.08617420878556,10.18658330893471,1,1,0.8995628021808587,0.19982512087234405,40.299737681308514,0.2,0.2,0.30000000000000004,2358,12,1,294,4,12
2022-05-24 06:35:01.852300032+01:00,-0.375,0.549865591397868,9.600067204301066,-0.7506720430106605,0.049865591397867906,-0.950134408602132,1,1,72.10032920117314,3,17.85592006995165,0.0820003086102253,1,1,1,1653370495.0015204,1,0,0,0,0,0,3,56.086174246746566,10.18658336510466,1,1,0.8994084970682108,0.1997633988272849,40.29964509824093,0.2,0.2,0.30000000000000004,2358,12,1,294,4,12
2022-05-24 06:35:01.926749952+01:00,-0.375,0.75,9.5,0.25,0.25,-0.75,1,1,72.115647343244,3,17.836084096286395,0.08207689538113362,1,1,1,1653370495.078107,1,0,0,0,0,0,3,56.08618366740394,10.186597304613944,1,1,0.8611151116140467,0.18444604464561903,40.27666906696843,0.2,0.2,0.30000000000000004,2358,12,1,294,4,12
2022-05-24 06:35:02.027749888+01:00,-0.5,0.25,10.25,-1.75,-1.75,-0.75,1,1,72.13642816727568,3,17.809174313342243,0.08218079415697976,1,1,1,1653370495.182006,1,0,0,0,0,0,3,56.08619644761072,10.186616215163813,1,1,0.8091657236909785,0.16366628947639145,40.24549943421459,0.2,0.2,0.30000000000000004,2358,12,1,294,4,12
2022-05-24 06:35:02.130749952+01:00,-0.5,0.625,9.25,0.75,-0.25,-0.5,1,1,72.15762049277332,3,17.781731663409115,0.08228675033432775,1,1,1,1653370495.2879622,1,0,0,0,0,0,3,56.0862094808909,10.186635500180016,1,1,0.756187635016983,0.14247505400679294,40.21371258101019,0.2,0.2,0.30000000000000004,2358,12,1,294,4,12
2022-05-24 06:35:02.234749952+01:00,-0.375,0.625,10.0,2.5,-0.75,-0.5,1,1,72.17901856900394,3,17.75402257998148,0.08239373521242672,1,1,1,1653370495.394947,1,0,0,0,0,0,3,56.08622264070778,10.186654972429384,1,1,0.7026951959674947,0.12107807838699731,40.181617117580494,0.2,0.2,0.30000000000000004,2358,12,1,294,4,12
2022-05-24 06:35:02.335799808+01:00,-0.5,0.5,9.0,1.0,1.75,-0.25,1,1,72.19980968057226,3,17.72709947536262,0.08249768542331036,1,1,1,1653370495.4988973,1,0,0,0,0,0,3,56.0862354272414,10.186673892340911,1,1,0.6507200905256738,0.10028803621026865,40.1504320543154,0.2,0.2,0.30000000000000004,2358,12,1,294,4,12
2022-05-24 06:35:02.437750016+01:00,-0.5,1.125,9.125,1.25,-1.75,-0.5,1,1,72.22078596780027,3,17.699936580598703,0.08260256146486988,1,1,1,1653370495.6037734,1,0,0,0,0,0,3,56.08624832765804,10.186692980762288,1,1,0.5982820697459093,0.07931282789836254,40.118969241847545,0.2,0.2,0.30000000000000004,2358,12,1,294,4,12
2022-05-24 06:35:02.538800128+01:00,-0.5,0.875,10.75,0.75,-2.0,-0.25,1,1,72.24157707936858,3,17.67301347597984,0.08270651167575352,1,1,1,1653370495.7077234,1,0,0,0,0,0,3,56.08626111419166,10.186711900673815,1,1,0.5463069643040883,0.05852278572163386,40.08778417858245,0.2,0.2,0.30000000000000004,2358,12,1,294,4,12
2022-05-24 06:35:02.642800128+01:00,-0.5,0.75,10.5,1.25,-0.5,-0.25,1,1,72.26297515559921,3,17.645304392552205,0.08281349655385249,1,1,1,1653370495.8147082,1,0,0,0,0,0,3,56.08627427400854,10.186731372923184,1,1,0.4928145252546,0.03712581010183824,40.055688715152755,0.2,0.2,0.30000000000000004,2358,12,1,294,4,12
2022-05-24 06:35:02.743799808+01:00,-0.5,1.0,10.125,-0.25,0.5,-0.25,1,1,72.28375597963088,3,17.618394609608064,0.0829173953296986,1,1,1,1653370495.918607,1,0,0,0,0,0,3,56.08628705421532,10.186750283473053,1,1,0.4408651373315464,0.016346054932616483,40.024519082398925,0.2,0.2,0.30000000000000004,2358,12,1,294,4,12
2022-05-24 06:35:02.821549824+01:00,-0.4028125000000189,1.0,10.02781250000002,0.33312499999988654,-1.0549999999996973,-0.25,1,1,72.2997530991206,3,17.59767940541097,0.08299737681308507,1,1,1,1653370495.9985886,1,0,0,0,0,0,3,56.086296892443805,10.186764840851788,1,1,0.40087439563831434,0.00034975825532343463,40.00052463738299,0.2,0.2,0.30000000000000004,2358,12,1,294,4,12
2022-05-24 06:35:02.821949952+01:00,-0.4023125000000023,1.0,10.027312500000003,0.33612499999998624,-1.0629999999999633,-0.25,1,1,72.2998353994138,3,17.597572832013167,0.08299778829338546,1,1,1,1653370495.999,1,0,0,0,0,0,3,56.086296943058485,10.186764915745055,1,1,0.4006686554881172,0.00026746219524459436,40.000401193292866,0.2,0.2,0.30000000000000004,2358,12,1,294,4,12
2022-05-24 06:35:02.822400+01:00,-0.4017500000000014,1.0,10.026750000000002,0.3394999999999919,-1.0719999999999783,-0.25,1,1,72.29992798724363,3,17.597452936940645,0.08299825120872338,1,1,1,1653370495.9994433,1,0,0,0,0,0,3,56.086297,10.18676499999998,1,1,0.4004371978191527,0.0001748791276587891,40.00026231869149,0.2,0.2,0.30000000000000004,2358,12,1,294,4,12
2022-05-24 06:35:02.822750208+01:00,-0.40131250000000457,1.0,10.026312500000005,0.3421249999999726,-1.078999999999927,-0.25,1,1,72.30000000000018,3,17.597359685217572,0.08299861125398622,1,1,1,1653370495.9997878,1,0,0,0,0,0,3,56.08629704204825,10.186765060659754,1,1,0.4002571751877375,0.00010287007509271473,40.00015430511264,0.2,0.2,0.30000000000000004,2358,12,1,294,4,12
2022-05-24 06:35:02.823250176+01:00,-0.4006875000000193,1.0,10.02568750000002,0.34587499999988414,-1.088999999999691,-0.25,1,1,72.30014771048762,3,17.59722646847033,0.08299912560436168,1,1,1,1653370496.0002801,1,0,0,0,0,0,3,56.086297102117186,10.186765147316573,1,1,0.4000000000000057,0.0,40.0,0.2,0.2,0.30000000000000004,2358,12,1,294,4,12
2022-05-24 06:35:02.823750144+01:00,-0.40006249999999854,1.0,10.025062499999999,0.34962500000000885,-1.0990000000000235,-0.25,1,1,72.30029542097508,3,17.597093251723074,0.08299963995473718,1,1,1,1653370496.0007727,1,0,0,0,0,0,3,56.08629716218612,10.186765233973391,1,1,0.4000000000000057,0.0,39.99980304298586,0.2,0.2,0.30000000000000004,2376,12,1,294,4,12
2022-05-24 06:35:02.824100096+01:00,-0.39962500000000173,1.0,10.024625000000002,0.3522499999999895,-1.1059999999999721,-0.25,1,1,72.30039881831628,3,17.597,0.083,1,1,1,1653370496.0011172,1,0,0,0,0,0,3,56.08629720423437,10.186765294633165,1,1,0.4000000000000057,0.0,39.99966517307597,0.2,0.2,0.30000000000000004,2376,12,1,294,4,12
2022-05-24 06:35:02.824350208+01:00,-0.3993125000000091,1.0,10.02431250000001,0.3541249999999453,-1.110999999999854,-0.25,1,1,72.30047267356001,3,17.596934511792803,0.083,1,1,1,1653370496.0013635,1,0,0,0,0,0,3,56.086297234268834,10.186765337961575,1,1,0.4000000000000057,0.0,39.999566694568905,0.2,0.2,0.30000000000000004,2376,12,1,294,4,12
2022-05-24 06:35:02.843800064+01:00,-0.375,1.0,10.0,0.5,-1.5,-0.25,1,1,72.3062186115216,3,17.591839529272736,0.083,1,1,1,1653370496.0205166,1,0,0,0,0,0,3,56.086299570950274,10.186768708911845,1,1,0.4000000000000057,0.0,39.991905066719184,0.2,0.2,0.30000000000000004,2376,12,1,294,4,12
2022-05-24 06:35:02.941800192+01:00,-0.75,0.875,10.75,1.25,1.25,-0.25,1,1,72.33516986706076,3,17.56616815205082,0.083,1,1,1,1653370496.1170208,1,0,0,0,0,0,3,56.08631134446086,10.18678569364843,1,1,0.4000000000000057,0.0,39.95330149194938,0.2,0.2,0.30000000000000004,2376,12,1,294,4,12
2022-05-24 06:35:03.042850048+01:00,-0.25,0.75,9.625,-0.5,-0.5,-0.5,1,1,72.36502215657333,3,17.539697818701068,0.083,1,1,1,1653370496.2165284,1,0,0,0,0,0,3,56.086323484391926,10.186803206991613,1,1,0.4000000000000057,0.0,39.913496479393366,0.2,0.2,0.30000000000000004,2376,12,1,294,4,12
2022-05-24 06:35:03.143849984+01:00,-0.625,0.5,9.75,0.25,0.25,-0.25,1,1,72.39485967503717,3,17.51324058299276,0.083,1,1,1,1653370496.3159869,1,0,0,0,0,0,3,56.086335618316106,10.186820711669112,1,1,0.4000000000000057,0.0,39.873711162538775,0.2,0.2,0.30000000000000004,2376,12,1,294,4,12
2022-05-24 06:35:03.245900032+01:00,-0.25,1.125,9.75,0.0,-1.75,-0.5,1,1,72.42500738552462,3,17.486508296814222,0.083,1,1,1,1653370496.416479,1,0,0,0,0,0,3,56.086347878385034,10.186838398325932,1,1,0.4000000000000057,0.0,39.8335122359545,0.2,0.2,0.30000000000000004,2376,12,1,294,4,12
2022-05-24 06:35:03.347849984+01:00,-0.375,0.75,10.75,-0.5,-1.25,-0.75,1,1,72.45512555391461,3,17.459802205918557,0.083,1,1,1,1653370496.5168731,1,0,0,0,0,0,3,56.086360126440184,10.186856067651389,1,1,0.4000000000000057,0.0,39.79335270077305,0.2,0.2,0.30000000000000004,2376,12,1,294,4,12
2022-05-24 06:35:03.448900096+01:00,-0.5,0.75,10.5,-0.5,0.0,-1.0,1,1,72.48497784342717,3,17.43333187256881,0.083,1,1,1,1653370496.6163807,1,0,0,0,0,0,3,56.08637226637125,10.18687358099457,1,1,0.4000000000000057,0.0,39.75354768821705,0.2,0.2,0.30000000000000004,2376,12,1,294,4,12
2022-05-24 06:35:03.550849792+01:00,-0.375,0.375,9.25,-1.25,-0.5,-1.0,1,1,72.51509601181715,3,17.406625781673146,0.083,1,1,1,1653370496.7167745,1,0,0,0,0,0,3,56.0863845144264,10.186891250320027,1,1,0.4000000000000057,0.0,39.713388153035595,0.2,0.2,0.30000000000000004,2376,12,1,294,4,12
2022-05-24 06:35:03.657900032+01:00,-0.625,0.375,10.375,-0.25,0.25,-1.0,1,1,72.54672082717906,3,17.37858373135063,0.083,1,1,1,1653370496.8221905,1,0,0,0,0,0,3,56.086397375184646,10.18690980354504,1,1,0.4000000000000057,0.0,39.671219656310015,0.2,0.2,0.30000000000000004,2376,12,1,294,4,12
2022-05-24 06:35:03.761900032+01:00,-0.375,0.5,9.5,1.0,-0.5,-1.0,1,1,72.57744460856756,3,17.351340637155936,0.083,1,1,1,1653370496.9246032,1,0,0,0,0,0,3,56.086409869522406,10.186927828163455,1,1,0.4000000000000057,0.0,39.63025259737062,0.2,0.2,0.30000000000000004,2376,12,1,294,4,12
2022-05-24 06:35:03.836999936+01:00,-0.5590686274510049,0.5920343137255025,10.144240196078517,0.6318627450979901,0.4203431372550248,-1.0,1,1,72.59963072378176,3,17.331667979713423,0.083,1,1,1,1653370496.9985569,1,0,0,0,0,0,3,56.08641889187593,10.186940844017716,1,1,0.4000000000000057,0.0,39.60066965384805,0.2,0.2,0.30000000000000004,2376,12,1,294,4,12
2022-05-24 06:35:03.837449984+01:00,-0.5601715686274776,0.5925857843137388,10.148100490196171,0.6296568627450447,0.42585784313738806,-1.0,1,1,72.59976366322046,3,17.331550100940465,0.083,1,1,1,1653370496.999,1,0,0,0,0,0,3,56.086418945937965,10.186940922008853,1,1,0.4000000000000057,0.0,39.60049239253533,0.2,0.2,0.30000000000000004,2376,12,1,294,4,12
2022-05-24 06:35:03.837900032+01:00,-0.5612745098039502,0.5931372549019751,10.151960784313825,0.6274509803920996,0.4313725490197512,-1.0,1,1,72.59989660265916,3,17.331432222167507,0.083,1,1,1,1653370496.9994447,1,0,0,0,0,0,3,56.08641900000001,10.18694099999999,1,1,0.4000000000000057,0.0,39.60031513122261,0.2,0.2,0.30000000000000004,2376,12,1,294,4,12
2022-05-24 06:35:03.838249984+01:00,-0.562132352941199,0.5935661764705995,10.154963235294197,0.625735294117602,0.43566176470599494,-1.0,1,1,72.60000000000036,3,17.33134053867743,0.083,1,1,1,1653370496.9997904,1,0,0,0,0,0,3,56.086419041837495,10.186941060508758,1,1,0.4000000000000057,0.0,39.60017726131272,0.2,0.2,0.30000000000000004,2376,12,1,294,4,12
2022-05-24 06:35:03.838700032+01:00,-0.5632352941176717,0.5941176470588359,10.158823529411851,0.6235294117646567,0.4411764705883582,-1.0,1,1,72.60008891523451,3,17.331222659904473,0.083,1,1,1,1653370497.000235,1,0,0,0,0,0,3,56.08641909562856,10.186941138305745,1,1,0.4000000000000057,0.0,39.6,0.2,0.2,0.30000000000000004,2376,12,1,294,4,12
2022-05-24 06:35:03.839200+01:00,-0.5644607843137214,0.5947303921568607,10.163112745098024,0.6210784313725572,0.4473039215686069,-1.0,1,1,72.6001877099391,3,17.331091683490076,0.083,1,1,1,1653370497.000729,1,0,0,0,0,0,3,56.0864191553964,10.18694122474684,1,1,0.4000000000000057,0.0,39.6000987947046,0.2,0.2,0.30000000000000004,2393,12,1,294,4,12
2022-05-24 06:35:03.839549952+01:00,-0.5653186274509702,0.595159313725485,10.166115196078396,0.6193627450980597,0.45159313725485073,-1.0,1,1,72.60025686623233,3,17.331,0.083,1,1,1,1653370497.0010748,1,0,0,0,0,0,3,56.086419197233894,10.186941285255608,1,1,0.4000000000000057,0.0,39.60016795099782,0.2,0.2,0.30000000000000004,2393,12,1,294,4,12
2022-05-24 06:35:03.839849984+01:00,-0.5660539215686418,0.5955269607843209,10.168688725490247,0.6178921568627165,0.4552696078432089,-1.0,1,1,72.6003161430551,3,17.330920869350454,0.08300029636947395,1,1,1,1653370497.0013711,1,0,0,0,0,0,3,56.086419233094595,10.186941337120267,1,1,0.4000000000000057,0.0,39.60022722782059,0.2,0.2,0.30000000000000004,2393,12,1,294,4,12
2022-05-24 06:35:03.863899904+01:00,-0.625,0.625,10.375,0.5,0.75,-1.0,1,1,72.60506816834653,3,17.32457722894542,0.08302405532230181,1,1,1,1653370497.0251312,1,0,0,0,0,0,3,56.08642210792789,10.186945494937012,1,1,0.4000000000000057,0.0,39.604979253112035,0.2,0.2,0.30000000000000004,2393,12,1,294,4,12
2022-05-24 06:35:03.958899968+01:00,-0.5,0.625,11.0,0.5,-1.25,-1.25,1,1,72.62383916222124,3,17.29951918992344,0.08311790565571746,1,1,1,1653370497.1189861,1,0,0,0,0,0,3,56.08643346381823,10.18696191874536,1,1,0.4000000000000057,0.0,39.62375024698676,0.2,0.2,0.30000000000000004,2393,12,1,294,4,12
2022-05-24 06:35:04.059950080+01:00,-0.375,1.0,9.625,0.25,-1.75,-1.25,1,1,72.64380557202166,3,17.272865349469,0.08321773277352434,1,1,1,1653370497.2188182,1,0,0,0,0,0,3,56.08644554289948,10.186979388490979,1,1,0.4000000000000057,0.0,39.6437166567872,0.2,0.2,0.30000000000000004,2393,12,1,294,4,12
2022-05-24 06:35:04.158950144+01:00,-0.25,0.5,9.625,1.0,-2.25,-1.25,1,1,72.6633669235332,3,17.246752235119782,0.0833155346999259,1,1,1,1653370497.316625,1,0,0,0,0,0,3,56.08645737693258,10.1869965038281,1,1,0.4000000000000057,0.0,39.663278008298754,0.2,0.2,0.30000000000000004,2393,12,1,294,4,12
2022-05-24 06:35:04.261949952+01:00,-0.5,0.375,8.75,0.25,1.25,-1.25,1,1,72.68371863268158,3,17.21958404544332,0.08341728821931342,1,1,1,1653370497.4183836,1,0,0,0,0,0,3,56.08646968910842,10.187014310693995,1,1,0.4000000000000057,0.0,39.68362971744715,0.2,0.2,0.30000000000000004,2393,12,1,294,4,12
2022-05-24 06:35:04.364950016+01:00,-0.625,0.625,10.0,1.5,-2.25,-1.0,1,1,72.70407034182995,3,17.192415855766853,0.08351904173870092,1,1,1,1653370497.520142,1,0,0,0,0,0,3,56.08648200128426,10.187032117559887,1,1,0.4000000000000057,0.0,39.70398142659554,0.2,0.2,0.30000000000000004,2393,12,1,294,4,12
2022-05-24 06:35:04.464999936+01:00,-0.5,0.5,10.625,1.5,-2.0,-1.25,1,1,72.72383916222115,3,17.166025784144235,0.0836178809582613,1,1,1,1653370497.6189861,1,0,0,0,0,0,3,56.08649396082983,10.187049414423313,1,1,0.4000000000000057,0.0,39.72375024698676,0.2,0.2,0.30000000000000004,2393,12,1,294,4,12
2022-05-24 06:35:04.568950016+01:00,-0.375,0.625,9.75,2.0,-1.5,-1.5,1,1,72.74437858130827,3,17.138607014077554,0.08372057298098294,1,1,1,1653370497.7216833,1,0,0,0,0,0,3,56.08650638656457,10.18706738552729,1,1,0.4000000000000057,0.0,39.7442896660739,0.2,0.2,0.30000000000000004,2393,12,1,294,4,12
2022-05-24 06:35:04.675950080+01:00,-0.5,0.75,10.75,0.75,-0.75,-1.0,1,1,72.76552064809347,3,17.11038374907385,0.08382627809335637,1,1,1,1653370497.8273938,1,0,0,0,0,0,3,56.08651917688317,10.187085883921958,1,1,0.4000000000000057,0.0,39.76543173285912,0.2,0.2,0.30000000000000004,2393,12,1,294,4,12
2022-05-24 06:35:04.778000128+01:00,-0.5,0.5,10.625,0.75,-0.5,-1.25,1,1,72.7856846473031,3,17.083466139787603,0.08392709310940973,1,1,1,1653370497.9282136,1,0,0,0,0,0,3,56.08653137550011,10.187103526549768,1,1,0.4000000000000057,0.0,39.785595732068764,0.2,0.2,0.30000000000000004,2393,12,1,294,4,12
2022-05-24 06:35:04.849250048+01:00,-0.4109375000000049,0.5890624999999952,10.26875000000002,0.39375000000001953,-0.3218750000000098,-1.25,1,1,72.79976289270913,3,17.06467261052112,0.08399748085947147,1,1,1,1653370497.9986048,1,0,0,0,0,0,3,56.08653989241787,10.18711584440603,1,1,0.4000000000000057,0.0,39.79967397747481,0.2,0.2,0.30000000000000004,2393,12,1,294,4,12
2022-05-24 06:35:04.849649920+01:00,-0.41043749999998824,0.5895625000000118,10.266749999999954,0.391749999999953,-0.3208749999999765,-1.25,1,1,72.79984192847282,3,17.06456710298839,0.08399787601877007,1,1,1,1653370497.999,1,0,0,0,0,0,3,56.08653994023214,10.187115913558907,1,1,0.4000000000000057,0.0,39.799753013238494,0.2,0.2,0.30000000000000004,2393,12,1,294,4,12
2022-05-24 06:35:04.850150144+01:00,-0.409812500000003,0.590187499999997,10.264250000000011,0.38925000000001203,-0.31962500000000604,-1.25,1,1,72.79994072317741,3,17.06443521857249,0.0839983699678933,1,1,1,1653370497.9994967,1,0,0,0,0,0,3,56.086539999999985,10.187116000000003,1,1,0.4000000000000057,0.0,39.7998518079431,0.2,0.2,0.30000000000000004,2393,12,1,294,4,12
2022-05-24 06:35:04.850449920+01:00,-0.4094374999999905,0.5905625000000094,10.262749999999961,0.3877499999999621,-0.31887499999998103,-1.25,1,1,72.80000000000018,3,17.064356087922945,0.08399866633736726,1,1,1,1653370497.9997947,1,0,0,0,0,0,3,56.08654003546767,10.187116051264223,1,1,0.4000000000000057,0.0,39.79991108476586,0.2,0.2,0.30000000000000004,2393,12,1,294,4,12
2022-05-24 06:35:04.850899968+01:00,-0.4088749999999896,0.5911250000000104,10.260499999999958,0.3854999999999584,-0.3177499999999792,-1.25,1,1,72.80008940989488,3,17.06423739194863,0.08399911089157817,1,1,1,1653370498.000242,1,0,0,0,0,0,3,56.0865400886692,10.187116128160552,1,1,0.4000000000000057,0.0,39.800000000000004,0.2,0.2,0.30000000000000004,2393,12,1,294,4,12
2022-05-24 06:35:04.851399936+01:00,-0.40825000000000433,0.5917499999999957,10.258000000000017,0.3830000000000173,-0.31650000000000866,-1.25,1,1,72.80018875422232,3,17.064105507532727,0.0839996048407014,1,1,1,1653370498.0007386,1,0,0,0,0,0,3,56.08654014778201,10.187116213600918,1,1,0.40024836081859705,4.967216371828167e-05,39.80019868865488,0.2,0.2,0.30000000000000004,2410,12,1,294,4,12
2022-05-24 06:35:04.851800064+01:00,-0.40774999999998773,0.5922500000000123,10.25599999999995,0.3809999999999508,-0.3154999999999754,-1.25,1,1,72.80026822968426,3,17.064,0.084,1,1,1,1653370498.001136,1,0,0,0,0,0,3,56.08654019507226,10.187116281953209,1,1,0.4004470494734815,8.940989469516584e-05,39.800357639578785,0.2,0.2,0.30000000000000004,2410,12,1,294,4,12
2022-05-24 06:35:04.852099840+01:00,-0.40737500000001076,0.5926249999999892,10.254500000000043,0.3795000000000431,-0.3147500000000215,-1.25,1,1,72.80032783628073,3,17.063918931001943,0.08399940390442605,1,1,1,1653370498.001434,1,0,0,0,0,0,3,56.086540230539946,10.187116333217428,1,1,0.40059606596463065,0.00011921319292500542,39.8004768527717,0.2,0.2,0.30000000000000004,2410,12,1,294,4,12
2022-05-24 06:35:04.878000128+01:00,-0.375,0.625,10.125,0.25,-0.25,-1.25,1,1,72.80547387244206,3,17.056919974169194,0.0839479409865382,1,1,1,1653370498.0271642,1,0,0,0,0,0,3,56.08654329258356,10.187120759028367,1,1,0.41346115636797226,0.002692231273593549,39.81076892509438,0.2,0.2,0.30000000000000004,2410,12,1,294,4,12
2022-05-24 06:35:04.976000+01:00,-0.5,0.625,9.75,0.75,-1.0,-1.25,1,1,72.82494536062006,3,17.030437434802053,0.08375321643236804,1,1,1,1653370498.1245217,1,0,0,0,0,0,3,56.086554878694535,10.187137505340026,1,1,0.4621398768130277,0.012427975362605464,39.84971190145042,0.2,0.2,0.30000000000000004,2410,12,1,294,4,12
2022-05-24 06:35:05.077049856+01:00,-0.5,0.75,10.125,1.0,-2.0,-1.5,1,1,72.84502284919544,3,17.0031306939546,0.08355243157319558,1,1,1,1653370498.224909,1,0,0,0,0,0,3,56.08656682539366,10.187154772837912,1,1,0.5123335982515415,0.02246671965030906,39.88986687860123,0.2,0.2,0.30000000000000004,2410,12,1,294,4,12
2022-05-24 06:35:05.178050048+01:00,-0.5,0.5,10.125,1.25,-0.25,-1.5,1,1,72.86509040333809,3,16.975837464606826,0.08335174606328549,1,1,1,1653370498.3252468,1,0,0,0,0,0,3,56.0865787661815,10.187172031791764,1,1,0.5625024836081876,0.032500496721639134,39.93000198688655,0.2,0.2,0.30000000000000004,2410,12,1,294,4,12
2022-05-24 06:35:05.280049920+01:00,-0.375,0.5,10.125,1.75,-0.5,-1.25,1,1,72.8853566461356,3,16.94827400526551,0.08314907356812876,1,1,1,1653370498.426578,1,0,0,0,0,0,3,56.08659082519496,10.187189461626348,1,1,0.6131680906020305,0.0426336181204086,39.970534472481624,0.2,0.2,0.30000000000000004,2410,12,1,294,4,12
2022-05-24 06:35:05.382050048+01:00,-0.375,0.5,10.625,1.5,1.25,-1.25,1,1,72.90562288893312,3,16.920710545924194,0.08294640107297202,1,1,1,1653370498.5279093,1,0,0,0,0,0,3,56.086602884208425,10.18720689146093,1,1,0.6638336975958734,0.05276673951917806,40.0110669580767,0.2,0.2,0.30000000000000004,2410,12,1,294,4,12
2022-05-24 06:35:05.480050176+01:00,-0.75,0.375,9.875,1.5,-0.5,-1.25,1,1,72.92509437711114,3,16.894228006557054,0.08275167651880186,1,1,1,1653370498.6252668,1,0,0,0,0,0,3,56.086614470319404,10.187223637772588,1,1,0.7125124180409289,0.06250248360818997,40.050009934432744,0.2,0.2,0.30000000000000004,2410,12,1,294,4,12
2022-05-24 06:35:05.584100096+01:00,-1.0,0.75,10.5,1.75,-2.0,-1.0,1,1,72.94576793165115,3,16.866110575728978,0.08254493070388953,1,1,1,1653370498.7286346,1,0,0,0,0,0,3,56.086626771695386,10.18724141791267,1,1,0.7641963043910192,0.07283926087820891,40.091357043512815,0.2,0.2,0.30000000000000004,2410,12,1,294,4,12
2022-05-24 06:35:05.693049856+01:00,-0.75,0.5,10.125,0.0,-0.5,-1.0,1,1,72.96741506060006,3,16.836669017932543,0.0823284486612687,1,1,1,1653370498.8368702,1,0,0,0,0,0,3,56.086639652376924,10.187260035368334,1,1,0.8183141267633587,0.08366282535267773,40.134651301410685,0.2,0.2,0.30000000000000004,2410,12,1,294,4,12
2022-05-24 06:35:05.794050048+01:00,-0.75,0.875,10.5,0.0,1.75,-1.0,1,1,72.9874826147427,3,16.809375788584774,0.08212776315135861,1,1,1,1653370498.937208,1,0,0,0,0,0,3,56.08665159316477,10.187277294322186,1,1,0.8684830121200048,0.0936966024240078,40.174786409696004,0.2,0.2,0.30000000000000004,2410,12,1,294,4,12
2022-05-24 06:35:05.855799808+01:00,-0.75,0.6523437499999647,9.832031249999893,-0.29687500000004696,1.156249999999906,-1.0,1,1,72.9997516391814,3,16.79268908648353,0.08200506681237889,1,1,1,1653370498.998553,1,0,0,0,0,0,3,56.08665889359694,10.187287846207337,1,1,0.8991555732167752,0.09983111464336242,40.19932445857342,0.2,0.2,0.30000000000000004,2410,12,1,294,4,12
2022-05-24 06:35:05.856250112+01:00,-0.75,0.6507211538461162,9.82716346153835,-0.2990384615385117,1.1519230769229765,-1.0,1,1,72.9998410490761,3,16.792567482986435,0.08200417266901791,1,1,1,1653370498.999,1,0,0,0,0,0,3,56.086658946798465,10.187287923103666,1,1,0.8993790979535131,0.09987581959071,40.19950327836281,0.2,0.2,0.30000000000000004,2410,12,1,294,4,12
2022-05-24 06:35:05.856699904+01:00,-0.75,0.6490985576922677,9.822295673076804,-0.30120192307697646,1.147596153846047,-1.0,1,1,72.9999304589708,3,16.792445879489343,0.08200327852565692,1,1,1,1653370498.9994693,1,0,0,0,0,0,3,56.086659,10.187287999999995,1,1,0.8996026226902509,0.09992052453805758,40.1996820981522,0.2,0.2,0.30000000000000004,2410,12,1,294,4,12
2022-05-24 06:35:05.857049856+01:00,-0.75,0.6478365384615079,9.818509615384524,-0.3028846153846561,1.144230769230688,-1.0,1,1,73.0,3,16.7923512989916,0.0820025830808206,1,1,1,1653370498.9998343,1,0,0,0,0,0,3,56.08665904196861,10.187288060945722,1,1,0.8997764752632678,0.09995529505266094,40.19982118021061,0.2,0.2,0.30000000000000004,2410,12,1,294,4,12
2022-05-24 06:35:05.857500160+01:00,-0.75,0.6462139423076594,9.813641826922979,-0.30504807692312086,1.1399038461537583,-1.0,1,1,73.00009384286534,3,16.79222969549451,0.08200168893745961,1,1,1,1653370499.0003035,1,0,0,0,0,0,3,56.08665909592826,10.187288139304515,1,1,0.9000000000000057,0.10000000000000853,40.2,0.2,0.2,0.30000000000000004,2410,12,1,294,4,12
2022-05-24 06:35:05.857949952+01:00,-0.75,0.6445913461538108,9.808774038461433,-0.3072115384615856,1.1355769230768287,-1.0,1,1,73.00018768573067,3,16.792108091997413,0.08200079479409862,1,1,1,1653370499.0007727,1,0,0,0,0,0,3,56.08665914988791,10.187288217663308,1,1,0.9000000000000057,0.10004691898655849,40.199953081013454,0.2,0.2,0.30000000000000004,2427,12,1,294,4,12
2022-05-24 06:35:05.858350080+01:00,-0.75,0.6431490384615579,9.804447115384674,-0.30913461538458953,1.131730769230821,-1.0,1,1,73.00027110161096,3,16.792,0.082,1,1,1,1653370499.0011897,1,0,0,0,0,0,3,56.086659197852036,10.187288287315567,1,1,0.9000000000000057,0.10008862475237904,40.19991137524763,0.2,0.2,0.30000000000000004,2427,12,1,294,4,12
2022-05-24 06:35:05.858649856+01:00,-0.75,0.6420673076922914,9.801201923076874,-0.3105769230769449,1.1288461538461103,-1.0,1,1,73.00033366352119,3,16.79182108226462,0.08199968720675632,1,1,1,1653370499.0015025,1,0,0,0,0,0,3,56.08665923382514,10.187288339554764,1,1,0.9000000000000057,0.10011990407674666,40.19988009592326,0.2,0.2,0.30000000000000004,2427,12,1,294,4,12
2022-05-24 06:35:05.898050048+01:00,-0.75,0.5,9.375,-0.5,0.75,-1.0,1,1,73.0085501277306,3,16.768323219685115,0.08195860702742154,1,1,1,1653370499.042585,1,0,0,0,0,0,3,56.08666395829206,10.187295200302378,1,1,0.9000000000000057,0.10422792201022577,40.19577207798979,0.2,0.2,0.30000000000000004,2427,12,1,294,4,12
2022-05-24 06:35:05.990099968+01:00,-1.125,0.5,11.75,1.0,-2.25,-0.25,1,1,73.0277462071843,3,16.713425294546965,0.08186263163382337,1,1,1,1653370499.1385653,1,0,0,0,0,0,3,56.08667499603774,10.187311229028722,1,1,0.9000000000000057,0.1138254613700417,40.18617453862997,0.2,0.2,0.30000000000000004,2427,12,1,294,4,12
2022-05-24 06:35:06.091150080+01:00,-0.75,0.875,10.75,0.5,-0.5,-0.5,1,1,73.0488191439447,3,16.653159837347516,0.08175727244291524,1,1,1,1653370499.2439299,1,0,0,0,0,0,3,56.08668711297638,10.187328824930917,1,1,0.9000000000000057,0.12436138046085392,40.17563861953916,0.2,0.2,0.30000000000000004,2427,12,1,294,4,12
2022-05-24 06:35:06.195149824+01:00,-0.875,0.875,11.0,-1.5,-0.25,-0.75,1,1,73.07050727282233,3,16.591135022416843,0.0816488374517777,1,1,1,1653370499.3523705,1,0,0,0,0,0,3,56.086699583650486,10.187346934518532,1,1,0.9000000000000057,0.1352048795746071,40.1647951204254,0.2,0.2,0.30000000000000004,2427,12,1,294,4,12
2022-05-24 06:35:06.296099840+01:00,-0.75,1.0,9.625,-1.0,-1.25,-0.75,1,1,73.09155935561266,3,16.530929204462506,0.0815435825252841,1,1,1,1653370499.457631,1,0,0,0,0,0,3,56.086711688598086,10.187364513007662,1,1,0.9000000000000057,0.14573037222396643,40.15426962777604,0.2,0.2,0.30000000000000004,2427,12,1,294,4,12
2022-05-24 06:35:06.400150016+01:00,-0.875,0.75,10.75,1.0,-1.0,-0.75,1,1,73.11325791147532,3,16.46887456990928,0.0814350954019393,1,1,1,1653370499.5661237,1,0,0,0,0,0,3,56.086724165267704,10.187382631301807,1,1,0.9000000000000057,0.15657908455844605,40.14342091544156,0.2,0.2,0.30000000000000004,2427,12,1,294,4,12
2022-05-24 06:35:06.502150144+01:00,-0.875,0.75,9.875,0.25,0.75,-0.5,1,1,73.13452896095143,3,16.40804253988114,0.0813287456990929,1,1,1,1653370499.6724792,1,0,0,0,0,0,3,56.086736396121154,10.18740039262812,1,1,0.9000000000000057,0.16721405484308466,40.132785945156925,0.2,0.2,0.30000000000000004,2427,12,1,294,4,12
2022-05-24 06:35:06.604150016+01:00,-0.625,1.125,8.75,1.0,-1.0,-0.75,1,1,73.15580001042755,3,16.34721050985299,0.08122239599624649,1,1,1,1653370499.7788343,1,0,0,0,0,0,3,56.086748626974604,10.187418153954432,1,1,0.9000000000000057,0.17784902512772627,40.12215097487228,0.2,0.2,0.30000000000000004,2427,12,1,294,4,12
2022-05-24 06:35:06.705149952+01:00,-0.5,0.875,10.5,-0.75,-3.0,-1.0,1,1,73.17686252020293,3,16.286974872276094,0.08111708893754563,1,1,1,1653370499.884147,1,0,0,0,0,0,3,56.08676073791772,10.187435741150097,1,1,0.9000000000000057,0.18837973099781202,40.111620269002195,0.2,0.2,0.30000000000000004,2427,12,1,294,4,12
2022-05-24 06:35:06.810149888+01:00,-0.625,0.75,10.125,0.0,0.25,-0.75,1,1,73.1987591887813,3,16.224353664894164,0.08100761130226253,1,1,1,1653370499.9936302,1,0,0,0,0,0,3,56.086773328502154,10.187454024868359,1,1,0.9000000000000057,0.19932749452612103,40.10067250547388,0.2,0.2,0.30000000000000004,2427,12,1,294,4,12
2022-05-24 06:35:06.814899968+01:00,-0.625,0.7312499999999944,10.099999999999993,-0.012500000000003739,0.26250000000000373,-0.7875000000000112,1,1,73.19974975235984,3,16.221520800750692,0.08100265874257115,1,1,1,1653370499.998583,1,0,0,0,0,0,3,56.08677389807621,10.187454851988948,1,1,0.9000000000000057,0.19982275049525886,40.100177249504746,0.2,0.2,0.30000000000000004,2427,12,1,294,4,12
2022-05-24 06:35:06.815300096+01:00,-0.625,0.7296710526316331,10.097894736842177,-0.013552631578911269,0.2635526315789113,-0.7906578947367338,1,1,73.19983316824013,3,16.2212822437702,0.08100224168491295,1,1,1,1653370499.999,1,0,0,0,0,0,3,56.086773946040346,10.187454921641207,1,1,0.9000000000000057,0.1998644562610794,40.10013554373892,0.2,0.2,0.30000000000000004,2427,12,1,294,4,12
2022-05-24 06:35:06.815749888+01:00,-0.625,0.7278947368421566,10.095526315789542,-0.014736842105228987,0.26473684210522896,-0.794210526315687,1,1,73.19992701110547,3,16.221013867167134,0.08100177249504745,1,1,1,1653370499.999442,1,0,0,0,0,0,3,56.08677399999999,10.187455,1,1,0.9000000000000057,0.19991137524762936,40.100088624752374,0.2,0.2,0.30000000000000004,2427,12,1,294,4,12
2022-05-24 06:35:06.816099840+01:00,-0.625,0.7265131578947983,10.093684210526398,-0.015657894736801126,0.2656578947368011,-0.7969736842104034,1,1,73.20000000000073,3,16.220805129809197,0.0810014075695965,1,1,1,1653370499.999786,1,0,0,0,0,0,3,56.08677403850309,10.187455056035752,1,1,0.9000000000000057,0.19994786779272344,40.10005213220728,0.2,0.2,0.30000000000000004,2427,12,1,294,4,12
2022-05-24 06:35:06.816600064+01:00,-0.625,0.7245394736842065,10.091052631578942,-0.01697368421052903,0.266973684210529,-0.8009210526315871,1,1,73.20009822217929,3,16.220506933583557,0.0810008862475237,1,1,1,1653370500.000277,1,0,0,0,0,0,3,56.08677409350751,10.187455136086829,1,1,0.9000000000000057,0.20000000000000284,40.1,0.2,0.2,0.30000000000000004,2427,12,1,294,4,12
2022-05-24 06:35:06.817100032+01:00,-0.625,0.7225657894737267,10.088421052631636,-0.018289473684182142,0.26828947368418216,-0.8048684210525464,1,1,73.20019644435786,3,16.220208737357936,0.08100036492545094,1,1,1,1653370500.0007682,1,0,0,0,0,0,3,56.08677414851193,10.187455216137904,1,1,0.9000982221785713,0.20014733326785122,40.09990177782144,0.2,0.2,0.30000000000000004,2443,12,1,294,4,12
2022-05-24 06:35:06.817449984+01:00,-0.625,0.7211842105263686,10.08657894736849,-0.01921052631575428,0.26921052631575426,-0.8076315789472629,1,1,73.20026519988286,3,16.22,0.081,1,1,1,1653370500.0011117,1,0,0,0,0,0,3,56.08677418701502,10.187455272173656,1,1,0.9001669777035683,0.20025046655534678,40.09983302229644,0.2,0.2,0.30000000000000004,2443,12,1,294,4,12
2022-05-24 06:35:06.817750016+01:00,-0.625,0.7200000000000135,10.085000000000019,-0.01999999999999102,0.269999999999991,-0.8099999999999731,1,1,73.20032413319001,3,16.2198968667125,0.081,1,1,1,1653370500.0014064,1,0,0,0,0,0,3,56.08677422001767,10.187455320204302,1,1,0.900225911010711,0.20033886651606084,40.0997740889893,0.2,0.2,0.30000000000000004,2443,12,1,294,4,12
2022-05-24 06:35:06.905149952+01:00,-0.625,0.375,9.625,-0.25,0.5,-1.5,1,1,73.21749337000367,3,16.18985070228857,0.081,1,1,1,1653370500.0872526,1,0,0,0,0,0,3,56.08678383479029,10.187469313132304,1,1,0.9173951478243855,0.22609272173657,40.08260485217562,0.2,0.2,0.30000000000000004,2443,12,1,294,4,12
2022-05-24 06:35:07.006200064+01:00,-0.375,0.375,8.0,0.5,-0.75,-1.0,1,1,73.23734407229222,3,16.155111973283567,0.081,1,1,1,1653370500.1865063,1,0,0,0,0,0,3,56.08679495118357,10.187485491454668,1,1,0.9372458501129611,0.25586877516943074,40.06275414988705,0.2,0.2,0.30000000000000004,2443,12,1,294,4,12
2022-05-24 06:35:07.108200192+01:00,-0.75,0.75,10.0,0.5,-0.75,-0.5,1,1,73.25738139672005,3,16.120046655534818,0.081,1,1,1,1653370500.2866929,1,0,0,0,0,0,3,56.08680617208525,10.187501821874076,1,1,0.9572831745408193,0.28592476181121523,40.042716825459195,0.2,0.2,0.30000000000000004,2443,12,1,294,4,12
2022-05-24 06:35:07.210200064+01:00,-0.25,1.0,9.625,2.0,-1.75,-0.75,1,1,73.2774187211479,3,16.08498133778607,0.081,1,1,1,1653370500.3868794,1,0,0,0,0,0,3,56.08681739298693,10.187518152293482,1,1,0.9773204989686776,0.31598074845299967,40.02267950103134,0.2,0.2,0.30000000000000004,2443,12,1,294,4,12
2022-05-24 06:35:07.310249984+01:00,-0.5,0.75,10.25,0.0,0.25,-0.75,1,1,73.29707297907932,3,16.050586386406046,0.081,1,1,1,1653370500.4851508,1,0,0,0,0,0,3,56.08682839937137,10.187534170513695,1,1,0.996974756900122,0.3454621353501637,40.0030252430999,0.2,0.2,0.30000000000000004,2443,12,1,294,4,12
2022-05-24 06:35:07.415200+01:00,-0.375,0.875,10.875,0.75,-2.25,-0.5,1,1,73.3176898143607,3,16.014506924663593,0.081,1,1,1,1653370500.588235,1,0,0,0,0,0,3,56.08683994479913,10.187550973234448,1,1,1.017591592181525,0.37638738827226537,39.9824084078185,0.2,0.2,0.30000000000000004,2443,12,1,294,4,12
2022-05-24 06:35:07.514249984+01:00,-0.5,0.625,11.125,-0.25,0.5,-0.75,1,1,73.337147627935,3,15.980455750908558,0.081,1,1,1,1653370500.685524,1,0,0,0,0,0,3,56.08685084117473,10.18756683135251,1,1,1.0370494057558328,0.4055741086337242,39.96295059424419,0.2,0.2,0.30000000000000004,2443,12,1,294,4,12
2022-05-24 06:35:07.624249856+01:00,-0.375,0.875,9.5,-0.75,-1.25,-0.75,1,1,73.35875650721991,3,15.942640212159905,0.081,1,1,1,1653370500.7935684,1,0,0,0,0,0,3,56.08686294214713,10.187584442589126,1,1,1.05865828504078,0.43798742756114156,39.94134171495924,0.2,0.2,0.30000000000000004,2443,12,1,294,4,12
2022-05-24 06:35:07.723249920+01:00,-0.375,1.125,9.375,-1.0,-1.25,-1.25,1,1,73.37820449857634,3,15.908606227286123,0.081,1,1,1,1653370500.8908083,1,0,0,0,0,0,3,56.08687383302229,10.18760029270208,1,1,1.0781062763972278,0.4671594145958105,39.9218937236028,0.2,0.2,0.30000000000000004,2443,12,1,294,4,12
2022-05-24 06:35:07.827249920+01:00,-0.375,0.5,10.875,-1.0,-1.0,-1.25,1,1,73.39863471171846,3,15.872853354287397,0.081,1,1,1,1653370500.9929595,1,0,0,0,0,0,3,56.08688527394165,10.18761694332579,1,1,1.0985364895393595,0.4978047343090053,39.901463510460665,0.2,0.2,0.30000000000000004,2443,12,1,294,4,12
2022-05-24 06:35:07.832999936+01:00,-0.38264627659571554,0.5076462765957155,10.897938829787147,-0.8470744680856894,-0.9082446808514136,-1.234707446808569,1,1,73.39976426677198,3,15.870876632943725,0.081,1,1,1,1653370500.9986072,1,0,0,0,0,0,3,56.086885906492476,10.187617863913157,1,1,1.0996660445928863,0.49949906688929535,39.90033395540714,0.2,0.2,0.30000000000000004,2443,12,1,294,4,12
2022-05-24 06:35:07.833400064+01:00,-0.38317819148935023,0.5081781914893503,10.899534574468051,-0.8364361702129952,-0.901861702127797,-1.2336436170212994,1,1,73.39984284451484,3,15.870739121893724,0.081,1,1,1,1653370500.999,1,0,0,0,0,0,3,56.08688595049601,10.187617927954019,1,1,1.0997446223357432,0.4996169335035808,39.90025537766429,0.2,0.2,0.30000000000000004,2443,12,1,294,4,12
2022-05-24 06:35:07.833849856+01:00,-0.3837765957446704,0.5087765957446704,10.901329787234012,-0.8244680851065921,-0.8946808510639552,-1.2324468085106592,1,1,73.39993124447555,3,15.87058442196248,0.081,1,1,1,1653370500.99945,1,0,0,0,0,0,3,56.08688599999999,10.187617999999986,1,1,1.0998330222964545,0.4997495334446477,39.90016697770358,0.2,0.2,0.30000000000000004,2443,12,1,294,4,12
2022-05-24 06:35:07.834199808+01:00,-0.38424202127658186,0.5092420212765819,10.902726063829746,-0.8151595744683625,-0.8890957446810175,-1.2315159574468362,1,1,73.40000000000055,3,15.870464099793734,0.081,1,1,1,1653370500.9998,1,0,0,0,0,0,3,56.08688603884611,10.187618055994387,1,1,1.0999017778214515,0.49985266673214324,39.90009822217858,0.2,0.2,0.30000000000000004,2443,12,1,294,4,12
2022-05-24 06:35:07.834700032+01:00,-0.3849069148936253,0.5099069148936253,10.904720744680876,-0.8018617021274947,-0.8811170212764968,-1.2301861702127495,1,1,73.40014998500205,3,15.870292210981235,0.081,1,1,1,1653370501.0003,1,0,0,0,0,0,3,56.08688609434056,10.187618135986387,1,1,1.1000000000000227,0.5,39.900000000000006,0.2,0.2,0.30000000000000004,2443,12,1,294,4,12
2022-05-24 06:35:07.835150080+01:00,-0.3855053191489076,0.5105053191489076,10.906515957446723,-0.7898936170218476,-0.8739361702131085,-1.2289893617021848,1,1,73.4002849715034,3,15.87013751105,0.081,1,1,1,1653370501.00075,1,0,0,0,0,0,3,56.086886144285565,10.187618207979188,1,1,1.0998650134986812,0.5,39.900000000000006,0.2,0.2,0.30000000000000004,2459,12,1,294,4,12
2022-05-24 06:35:07.835549952+01:00,-0.3860372340425423,0.5110372340425423,10.908111702127627,-0.7792553191491534,-0.867553191489492,-1.2279255319149154,1,1,73.4004049595046,3,15.870000000000001,0.081,1,1,1,1653370501.00115,1,0,0,0,0,0,3,56.08688618868113,10.18761827197279,1,1,1.0997450254974772,0.5,39.900000000000006,0.2,0.2,0.30000000000000004,2459,12,1,294,4,12
2022-05-24 06:35:07.835799808+01:00,-0.3863696808510451,0.5113696808510452,10.909109042553135,-0.7726063829790973,-0.8635638297874584,-1.2272606382979097,1,1,73.40047995200534,3,15.869933006699332,0.081,1,1,1,1653370501.0014,1,0,0,0,0,0,3,56.08688621642835,10.187618311968789,1,1,1.099670032996729,0.5,39.900000000000006,0.2,0.2,0.30000000000000004,2459,12,1,294,4,12
2022-05-24 06:35:07.921250048+01:00,-0.5,0.625,11.25,1.5,0.5,-1.0,1,1,73.42611238876168,3,15.847034696530347,0.081,1,1,1,1653370501.0868456,1,0,0,0,0,0,3,56.08689570042995,10.187631982601726,1,1,1.0740375962404005,0.5,39.900000000000006,0.2,0.2,0.30000000000000004,2459,12,1,294,4,12
2022-05-24 06:35:08.019300096+01:00,-0.375,0.625,10.75,1.5,-0.25,-1.25,1,1,73.45552444755583,3,15.8207599240076,0.081,1,1,1,1653370501.1848907,1,0,0,0,0,0,3,56.08690658289171,10.187647669033081,1,1,1.0446255374462778,0.5,39.900000000000006,0.2,0.2,0.30000000000000004,2459,12,1,294,4,12
2022-05-24 06:35:08.123300096+01:00,-0.375,0.625,10.625,0.25,-1.25,-1.0,1,1,73.48672132786781,3,15.792890710928912,0.081,1,1,1,1653370501.2888856,1,0,0,0,0,0,3,56.08691812573742,10.187664307369248,1,1,1.0134286571343116,0.5,39.900000000000006,0.2,0.2,0.30000000000000004,2459,12,1,294,4,12
2022-05-24 06:35:08.226299904+01:00,-0.5,0.875,9.875,2.0,-1.75,-1.0,1,1,73.5176182381768,3,15.765289471052897,0.081,1,1,1,1653370501.3918805,1,0,0,0,0,0,3,56.08692955759423,10.187680785721412,1,1,0.9825317468253381,0.5,39.900000000000006,0.2,0.2,0.30000000000000004,2459,12,1,294,4,12
2022-05-24 06:35:08.327300096+01:00,-0.375,0.875,9.625,1.0,3.0,-1.0,1,1,73.5479152084798,3,15.738224177582245,0.081,1,1,1,1653370501.4928753,1,0,0,0,0,0,3,56.086940767473244,10.187696944105573,1,1,0.9522347765223667,0.5,39.900000000000006,0.2,0.2,0.30000000000000004,2459,12,1,294,4,12
2022-05-24 06:35:08.430350080+01:00,-0.375,0.875,9.25,-0.5,0.5,-0.75,1,1,73.57882711728892,3,15.710609539046098,0.081,1,1,1,1653370501.5959203,1,0,0,0,0,0,3,56.08695220487951,10.187713430456936,1,1,0.9213228677132468,0.5,39.900000000000006,0.2,0.2,0.30000000000000004,2459,12,1,294,4,12
2022-05-24 06:35:08.533349888+01:00,0.0,0.75,8.25,-0.75,-1.75,-0.5,1,1,73.60972402759792,3,15.683008299170083,0.081,1,1,1,1653370501.698915,1,0,0,0,0,0,3,56.08696363673632,10.187729908809102,1,1,0.8904259574042732,0.5,39.900000000000006,0.2,0.2,0.30000000000000004,2459,12,1,294,4,12
2022-05-24 06:35:08.640300032+01:00,0.0,1.0,10.375,-0.25,-3.25,-0.5,1,1,73.64180581941875,3,15.654348565143483,0.081,1,1,1,1653370501.8058598,1,0,0,0,0,0,3,56.086975506999295,10.187747019098072,1,1,0.8583441655834496,0.5,39.900000000000006,0.2,0.2,0.30000000000000004,2459,12,1,294,4,12
2022-05-24 06:35:08.740349952+01:00,0.0,1.125,11.125,0.0,-1.5,-0.5,1,1,73.67181781821888,3,15.62753784621538,0.081,1,1,1,1653370501.9059048,1,0,0,0,0,0,3,56.08698661143885,10.18776302549743,1,1,0.8283321667833332,0.5,39.900000000000006,0.2,0.2,0.30000000000000004,2459,12,1,294,4,12
2022-05-24 06:35:08.833050112+01:00,0.0,0.7939285714286011,10.573214285714336,-1.10357142857133,-2.8242857142855957,-0.720714285714266,1,1,73.69962503749697,3,15.602696730326969,0.081,1,1,1,1653370501.9986,1,0,0,0,0,0,3,56.08699690010999,10.187777856014378,1,1,0.8005249475052569,0.5,39.900000000000006,0.2,0.2,0.30000000000000004,2459,12,1,294,4,12
2022-05-24 06:35:08.833449984+01:00,0.0,0.7925000000000839,10.570833333333473,-1.1083333333330536,-2.8299999999996643,-0.7216666666666107,1,1,73.69974502549817,3,15.6025895410459,0.081,1,1,1,1653370501.999,1,0,0,0,0,0,3,56.08699694450554,10.18777792000798,1,1,0.8004049595040617,0.5,39.900000000000006,0.2,0.2,0.30000000000000004,2459,12,1,294,4,12
2022-05-24 06:35:08.833949952+01:00,0.0,0.7907142857143107,10.567857142857184,-1.1142857142856313,-2.8371428571427573,-0.7228571428571262,1,1,73.69989501049967,3,15.602455554444555,0.081,1,1,1,1653370501.9994977,1,0,0,0,0,0,3,56.086997,10.18777799999998,1,1,0.8002549745025568,0.5,39.900000000000006,0.2,0.2,0.30000000000000004,2459,12,1,294,4,12
2022-05-24 06:35:08.834300160+01:00,0.0,0.7894642857143201,10.565773809523867,-1.1184523809522662,-2.8421428571427194,-0.7236904761904532,1,1,73.70000000000073,3,15.602361763823618,0.081,1,1,1,1653370501.9998457,1,0,0,0,0,0,3,56.086997037958305,10.187778055022118,1,1,0.8001499850015077,0.5,39.900000000000006,0.2,0.2,0.30000000000000004,2459,12,1,294,4,12
2022-05-24 06:35:08.834800128+01:00,0.0,0.7876785714286484,10.562797619047748,-1.1244047619045054,-2.8492857142854064,-0.724880952380901,1,1,73.7001989950756,3,15.602227777222282,0.081,1,1,1,1653370502.0003433,1,0,0,0,0,0,3,56.08699709218447,10.187778133625173,1,1,0.8000000000000114,0.5,39.900000000000006,0.2,0.2,0.30000000000000004,2459,12,1,294,4,12
2022-05-24 06:35:08.835249920+01:00,0.0,0.7860714285715031,10.560119047619171,-1.129761904761656,-2.8557142857139874,-0.7259523809523312,1,1,73.70037809064299,3,15.602107189281076,0.081,1,1,1,1653370502.0007908,1,0,0,0,0,0,3,56.086997140988004,10.187778204367921,1,1,0.7998656783244726,0.50035819113477,39.900000000000006,0.2,0.2,0.30000000000000004,2474,12,1,294,4,12
2022-05-24 06:35:08.835650048+01:00,0.0,0.7846428571428846,10.557738095238141,-1.134523809523718,-2.8614285714284615,-0.7269047619047436,1,1,73.70053728670288,3,15.602,0.081,1,1,1,1653370502.001189,1,0,0,0,0,0,3,56.08699718436893,10.187778267250366,1,1,0.7997462812795455,0.5006765832545756,39.900000000000006,0.2,0.2,0.30000000000000004,2474,12,1,294,4,12
2022-05-24 06:35:08.835900160+01:00,0.0,0.7837500000000488,10.55625000000008,-1.1374999999998376,-2.864999999999805,-0.7274999999999675,1,1,73.70063678424032,3,15.602017412069051,0.08100099497537434,1,1,1,1653370502.0014377,1,0,0,0,0,0,3,56.086997211482014,10.187778306551893,1,1,0.7996716581264703,0.5008755783294427,39.900000000000006,0.2,0.2,0.30000000000000004,2474,12,1,294,4,12
2022-05-24 06:35:08.845350144+01:00,0.0,0.75,10.5,-1.25,-3.0,-0.75,1,1,73.7043977911554,3,15.60267558827919,0.08103860504452519,1,1,1,1653370502.0108397,1,0,0,0,0,0,3,56.08699823635639,10.187779792149625,1,1,0.7968509029401566,0.5083975921596127,39.900000000000006,0.2,0.2,0.30000000000000004,2474,12,1,294,4,12
2022-05-24 06:35:08.940349952+01:00,-0.125,0.625,10.25,-0.25,1.25,-0.75,1,1,73.74220685538103,3,15.609292174518682,0.08141669568678178,1,1,1,1653370502.1053576,1,0,0,0,0,0,3,56.0870085393264,10.187794726729994,1,1,0.7684941047709108,0.5840157206109329,39.900000000000006,0.2,0.2,0.30000000000000004,2474,12,1,294,4,12
2022-05-24 06:35:09.041400064+01:00,0.0,0.625,10.75,0.25,1.5,-1.0,1,1,73.78242376001259,3,15.616330132829212,0.08181886473309782,1,1,1,1653370502.205895,1,0,0,0,0,0,3,56.08701949843291,10.187810612407324,1,1,0.7383314262972063,0.6644495298741431,39.900000000000006,0.2,0.2,0.30000000000000004,2474,12,1,294,4,12
2022-05-24 06:35:09.142400+01:00,0.125,0.75,8.625,1.25,-1.5,-1.5,1,1,73.82262076513668,3,15.623364608725934,0.08222083478433906,1,1,1,1653370502.3063824,1,0,0,0,0,0,3,56.08703045211681,10.187826490224348,1,1,0.7081836724541133,0.744843540122389,39.900000000000006,0.2,0.2,0.30000000000000004,2474,12,1,294,4,12
